{"data":[{"@id":"https://w3id.org/locolligo/BIFMO-post-1840/911279a3-8b3c-4040-872a-a6b8ff1aa4f5","properties":{"url":"https://bifmo.history.ac.uk/entry/gaskin-george-1871","title":"Gaskin, George","address":"15A, Queen Street, Oxford Street, W","active":1871},"geometry":{"coordinates":[-1.259267,51.751627]},"uuid":"911279a3-8b3c-4040-872a-a6b8ff1aa4f5"},{"@id":"https://w3id.org/locolligo/BIFMO-post-1840/5c641ee0-ae1f-4aca-940c-42f4c9dc1cc0","properties":{"title":"Wenman, John","address":"26 Wh. Hart. pl. Lo. Kenngtn. La","active":1871},"geometry":{"coordinates":[-0.39022,51.535793]},"uuid":"5c641ee0-ae1f-4aca-940c-42f4c9dc1cc0"},{"@id":"https://w3id.org/locolligo/BIFMO-post-1840/b62d1a18-3712-40c7-b23a-b92d93f4f113","properties":{"url":"https://bifmo.history.ac.uk/entry/stannard-robert-1871","title":"Stannard , Robert","address":"1 Vine pl. Old st. rd","active":1871},"geometry":{"coordinates":[-0.296056,51.508922]},"uuid":"b62d1a18-3712-40c7-b23a-b92d93f4f113"},{"@id":"https://w3id.org/locolligo/BIFMO-post-1840/6abeab25-69d6-44bb-96c3-6e191fb1498d","properties":{"url":"https://bifmo.history.ac.uk/entry/ayres-thomas-1871","title":"Ayres, Thos.","address":"28 & 29, Great Bath Street, Clerkenwell, EC","active":1871},"geometry":{"coordinates":[-0.22036,51.523941]},"uuid":"6abeab25-69d6-44bb-96c3-6e191fb1498d"},{"@id":"https://w3id.org/locolligo/BIFMO-post-1840/b08c47ee-bc0c-4988-869e-3c02a176c549","properties":{"url":"https://bifmo.history.ac.uk/entry/ethridge-robert-co-1871","title":"Ethridge , Robert","address":"Blechynden Mews, Notting Hil, W","active":1871,"notes":"Road is no longer there, but would have been approximately here"},"geometry":{"coordinates":[-0.217357,51.514694]},"uuid":"b08c47ee-bc0c-4988-869e-3c02a176c549"},{"@id":"https://w3id.org/locolligo/BIFMO-post-1840/81389647-41f3-4d38-9126-f930177be3cc","properties":{"url":"https://bifmo.history.ac.uk/entry/holmes-william-1871","title":"Holmes, William","address":"140, Portland Road, Notting Hill, W","active":1871},"geometry":{"coordinates":[-0.211127,51.511438]},"uuid":"81389647-41f3-4d38-9126-f930177be3cc"},{"@id":"https://w3id.org/locolligo/BIFMO-post-1840/618ec37a-fbba-4baf-b991-e400ce024c36","properties":{"url":"https://bifmo.history.ac.uk/entry/smith-thomas-1835-39-0","title":"Smith, Thomas","address":"113, Clarendon Road, W","active":1845},"geometry":{"coordinates":[-0.211051,51.512366]},"uuid":"618ec37a-fbba-4baf-b991-e400ce024c36"},{"@id":"https://w3id.org/locolligo/BIFMO-post-1840/ef03ecfc-51db-4dd9-8e78-71561d8010ae","properties":{"url":"https://bifmo.history.ac.uk/entry/weedon-william-1845","title":"Weedon, William","address":"137, Clarendon Road, W","active":1845},"geometry":{"coordinates":[-0.209468,51.510449]},"uuid":"ef03ecfc-51db-4dd9-8e78-71561d8010ae"},{"@id":"https://w3id.org/locolligo/BIFMO-post-1840/79bb6b43-18e5-41c8-9536-e980da00d7f3","properties":{"url":"https://bifmo.history.ac.uk/entry/card-john-1845","title":"Card, John","address":"173&175, Clarendon Road, W","active":1845},"geometry":{"coordinates":[-0.209468,51.510449]},"uuid":"79bb6b43-18e5-41c8-9536-e980da00d7f3"},{"@id":"https://w3id.org/locolligo/BIFMO-post-1840/f4dd8f4f-1a9d-4b56-bbb8-21fd3e0f0bb4","properties":{"url":"https://bifmo.history.ac.uk/entry/dickens-william-1835-39","title":"Dickens, William","address":"119 Clarendon rd.Notting hill W","active":1845},"geometry":{"coordinates":[-0.209468,51.510449]},"uuid":"f4dd8f4f-1a9d-4b56-bbb8-21fd3e0f0bb4"},{"@id":"https://w3id.org/locolligo/BIFMO-post-1840/66e38f7e-879b-48ee-a9c9-14e5dff641c4","properties":{"url":"https://bifmo.history.ac.uk/entry/rose-william-1871","title":"Rose, William","address":"47, Portland Road, W","active":1871},"geometry":{"coordinates":[-0.20896,51.508151]},"uuid":"66e38f7e-879b-48ee-a9c9-14e5dff641c4"},{"@id":"https://w3id.org/locolligo/BIFMO-post-1840/fb596ca3-55d1-4400-af30-f6d56353ecfb","properties":{"url":"https://bifmo.history.ac.uk/entry/hannah-george-1845","title":"Hannah, George","address":"2 Portland rd. Notting hill W","active":1845},"geometry":{"coordinates":[-0.208023,51.507079]},"uuid":"fb596ca3-55d1-4400-af30-f6d56353ecfb"},{"@id":"https://w3id.org/locolligo/BIFMO-post-1840/1f8a253c-0fff-41b8-ba81-ea1f601a9ad8","properties":{"url":"https://bifmo.history.ac.uk/entry/sutters-john-thomas-1871","title":"Sutters, Thomas Fergus","address":"5, Holland Road, Notting Hill, W","active":1871},"geometry":{"coordinates":[-0.206648,51.49679]},"uuid":"1f8a253c-0fff-41b8-ba81-ea1f601a9ad8"},{"@id":"https://w3id.org/locolligo/BIFMO-post-1840/77e57f51-2a08-4bdb-b79d-3e45053cc19a","properties":{"url":"https://bifmo.history.ac.uk/entry/scott-james-junior-1871","title":"Scott , James, sen.","address":"41, Kensington Park Road, W","active":1871},"geometry":{"coordinates":[-0.206181,51.515831]},"uuid":"77e57f51-2a08-4bdb-b79d-3e45053cc19a"},{"@id":"https://w3id.org/locolligo/BIFMO-post-1840/50d8ee37-f684-4168-ac33-ceaee6221171","properties":{"title":"Strugnell, Charles E. ","address":"35, Kensington pk. rd","active":1845},"geometry":{"coordinates":[-0.20595,51.515502]},"uuid":"50d8ee37-f684-4168-ac33-ceaee6221171"},{"@id":"https://w3id.org/locolligo/BIFMO-post-1840/bdc7f1b2-fb98-4579-94f3-7c22fcee1327","properties":{"url":"https://bifmo.history.ac.uk/entry/benson-jabez-91845","title":"Benson, Jabez","address":"10, Blenheim Crescent, W","active":1845},"geometry":{"coordinates":[-0.20569,51.515882]},"uuid":"bdc7f1b2-fb98-4579-94f3-7c22fcee1327"},{"@id":"https://w3id.org/locolligo/BIFMO-post-1840/fe2307ab-8bb2-4efc-b96b-588713f71146","properties":{"url":"https://bifmo.history.ac.uk/entry/cole-william-1835-39","title":"Cole, William","address":"13, Blenheim Crescent, Notting Hill, W","active":1845},"geometry":{"coordinates":[-0.205512,51.515679]},"uuid":"fe2307ab-8bb2-4efc-b96b-588713f71146"},{"@id":"https://w3id.org/locolligo/BIFMO-post-1840/d5b9b31f-9272-41fb-8003-c9b2639c9bee","properties":{"url":"https://bifmo.history.ac.uk/entry/turner-barr-1871-1886","title":"Turner, ","address":"4 Blenheim crescent W","active":1871},"geometry":{"coordinates":[-0.205429,51.515947]},"uuid":"d5b9b31f-9272-41fb-8003-c9b2639c9bee"},{"@id":"https://w3id.org/locolligo/BIFMO-post-1840/e2c0d385-fad4-4759-928f-4f7ac50dc418","properties":{"url":"https://bifmo.history.ac.uk/entry/hudson-thomas-1839","title":"Hudson, Ths.","address":"195, Portobello Road, W","active":1871},"geometry":{"coordinates":[-0.205098,51.515796]},"uuid":"e2c0d385-fad4-4759-928f-4f7ac50dc418"},{"@id":"https://w3id.org/locolligo/BIFMO-post-1840/b8653b2c-3895-4303-9bf9-94443fe571b4","properties":{"title":"Bacon, James","address":"31, Denbigh Place, Pimlico, SW","active":1845},"geometry":{"coordinates":[-0.20211,51.513559]},"uuid":"b8653b2c-3895-4303-9bf9-94443fe571b4"},{"@id":"https://w3id.org/locolligo/BIFMO-post-1840/c45f10c3-1442-4816-a90d-6b6b1dee9507","properties":{"url":"https://bifmo.history.ac.uk/entry/bishop-henry-1845","title":"Bishop, Henry","address":"3, Holland Park Road, Kensington, W","active":1871},"geometry":{"coordinates":[-0.202094,51.498633]},"uuid":"c45f10c3-1442-4816-a90d-6b6b1dee9507"},{"@id":"https://w3id.org/locolligo/BIFMO-post-1840/f2591a92-05b1-4dcc-9d73-14bcb50b7ce4","properties":{"url":"https://bifmo.history.ac.uk/entry/harman-richard-1871","title":"Harman, Richd.","address":"30, Denbigh Street, Pimlico, SW","active":1871},"geometry":{"coordinates":[-0.20208,51.513619]},"uuid":"f2591a92-05b1-4dcc-9d73-14bcb50b7ce4"},{"@id":"https://w3id.org/locolligo/BIFMO-post-1840/aecd0b0c-3ff5-4ccf-a37a-916808727e78","properties":{"url":"https://bifmo.history.ac.uk/entry/hebbard-george-1871","title":"Hebbard, George","address":"29, Denbigh Place, Pimlico, SW","active":1871},"geometry":{"coordinates":[-0.202002,51.513481]},"uuid":"aecd0b0c-3ff5-4ccf-a37a-916808727e78"},{"@id":"https://w3id.org/locolligo/BIFMO-post-1840/72e159f2-568c-484e-a618-559eeb2f9afd","properties":{"url":"https://bifmo.history.ac.uk/entry/jinkins-frederick-1871","title":"Jinkins, Fredk.","address":"4 Hope terrace, Notting hill W","active":1871},"geometry":{"coordinates":[-0.201137,51.508697]},"uuid":"72e159f2-568c-484e-a618-559eeb2f9afd"},{"@id":"https://w3id.org/locolligo/BIFMO-post-1840/3a341dbd-7fc9-44ca-8030-34061523bfe8","properties":{"url":"https://bifmo.history.ac.uk/entry/green-king-1871","title":"Green, ","address":"11, Denbigh ter., Notting Hill, W","active":1871},"geometry":{"coordinates":[-0.201056,51.513845]},"uuid":"3a341dbd-7fc9-44ca-8030-34061523bfe8"},{"@id":"https://w3id.org/locolligo/BIFMO-post-1840/f85721cb-ba0a-4f1a-a65d-72ad039be288","properties":{"url":"https://bifmo.history.ac.uk/entry/galli-c-1871-1886","title":"Galli , Charles","address":"29, Lonsdale Road, Bayswater, W","active":1871},"geometry":{"coordinates":[-0.200673,51.515032]},"uuid":"f85721cb-ba0a-4f1a-a65d-72ad039be288"},{"@id":"https://w3id.org/locolligo/BIFMO-post-1840/a198f06f-b2e7-4413-acb9-371d2121effa","properties":{"url":"https://bifmo.history.ac.uk/entry/sprague-james-1871","title":"Sprague, James","address":"17, Lonsdale Road, Bayswater, W","active":1871},"geometry":{"coordinates":[-0.200163,51.515096]},"uuid":"a198f06f-b2e7-4413-acb9-371d2121effa"},{"@id":"https://w3id.org/locolligo/BIFMO-post-1840/f4c2d515-5944-4a11-8da0-3571d06da97f","properties":{"url":"https://bifmo.history.ac.uk/entry/bostelman-frederick-1871","title":"Bostelman, Frdk.","address":"137 & 139, High Street, Notting Hill, W","active":1871},"geometry":{"coordinates":[-0.199341,51.508494]},"uuid":"f4c2d515-5944-4a11-8da0-3571d06da97f"},{"@id":"https://w3id.org/locolligo/BIFMO-post-1840/04b6d2c2-44f7-48b1-8832-c13682a283f2","properties":{"url":"https://bifmo.history.ac.uk/entry/woods-benjamin-1871","title":"Woodward, Benj.","address":"2 Westbourne pl. Pimlc","active":1871},"geometry":{"coordinates":[-0.199194,51.523275]},"uuid":"04b6d2c2-44f7-48b1-8832-c13682a283f2"},{"@id":"https://w3id.org/locolligo/BIFMO-post-1840/88628e7f-b6a2-416e-97ef-7cd4e9f0ab7f","properties":{"url":"https://bifmo.history.ac.uk/entry/cook-george-henry-1871","title":"Cook, George Henry","address":"46 Ledbury road W","active":1871},"geometry":{"coordinates":[-0.199056,51.514375]},"uuid":"88628e7f-b6a2-416e-97ef-7cd4e9f0ab7f"},{"@id":"https://w3id.org/locolligo/BIFMO-post-1840/2c023938-a13f-461b-960a-763f0d81f46f","properties":{"title":"Stockham, ","address":"Mews, Portobello Road, W","active":1845},"geometry":{"coordinates":[-0.198396,51.511225]},"uuid":"2c023938-a13f-461b-960a-763f0d81f46f"},{"@id":"https://w3id.org/locolligo/BIFMO-post-1840/7e6c063f-517d-421e-a805-95a2ee92016b","properties":{"url":"https://bifmo.history.ac.uk/entry/bellworthy-john-1826-38","title":"Bellworthy, John","address":"5 Newland pl. Kensington","active":1845,"notes":"approx.; Newland Place was the southern side of Kensington High Street immediately to the east of Earl’s Court Road (cf. Goad 1887)"},"geometry":{"coordinates":[-0.198186,51.499166]},"uuid":"7e6c063f-517d-421e-a805-95a2ee92016b"},{"@id":"https://w3id.org/locolligo/BIFMO-post-1840/0271ebdf-6376-43c8-bd1a-f57f2012bb6b","properties":{"url":"https://bifmo.history.ac.uk/entry/benda-brothers-1871","title":"Benda , ","address":"5 Newland pl. Kensgtn","active":1871,"notes":"approx.; Newland Place was the southern side of Kensington High Street immediately to the east of Earl’s Court Road (cf. Goad 1887)"},"geometry":{"coordinates":[-0.198186,51.499166]},"uuid":"0271ebdf-6376-43c8-bd1a-f57f2012bb6b"},{"@id":"https://w3id.org/locolligo/BIFMO-post-1840/5509ed3d-2807-45cd-9acd-c1b5f33a0b13","properties":{"url":"https://bifmo.history.ac.uk/entry/russell-william-1845","title":"Russell, William","address":"103 High st. Notting hill W","active":1845},"geometry":{"coordinates":[-0.198169,51.508558]},"uuid":"5509ed3d-2807-45cd-9acd-c1b5f33a0b13"},{"@id":"https://w3id.org/locolligo/BIFMO-post-1840/ae32c010-3b1a-4567-ac3a-18ffdcf1f1a3","properties":{"title":"Mitchell, John","address":"34 Kensington pl. Kensington W","active":1871},"geometry":{"coordinates":[-0.197975,51.507376]},"uuid":"ae32c010-3b1a-4567-ac3a-18ffdcf1f1a3"},{"@id":"https://w3id.org/locolligo/BIFMO-post-1840/aa2ac8f5-2f90-44a6-bdd2-64c7a5fe00b7","properties":{"url":"https://bifmo.history.ac.uk/entry/guiness-henry-thomas-1845","title":"Guiness, Henry Thomas","address":"71 Bedford gdns. Kensngtn W","active":1845},"geometry":{"coordinates":[-0.197285,51.505685]},"uuid":"aa2ac8f5-2f90-44a6-bdd2-64c7a5fe00b7"},{"@id":"https://w3id.org/locolligo/BIFMO-post-1840/bb4e95c7-0139-4013-814a-8d78757a697c","properties":{"title":"Shoolbred, John","address":"5, Albert ter., Notting Hill, W","active":1871,"notes":"Now 'Pembridge Road'"},"geometry":{"coordinates":[-0.197146,51.509143]},"uuid":"bb4e95c7-0139-4013-814a-8d78757a697c"},{"@id":"https://w3id.org/locolligo/BIFMO-post-1840/cabb065e-6bff-4ffc-98bd-e30ace905fb6","properties":{"url":"https://bifmo.history.ac.uk/entry/haywood-isaac-co-1871","title":"Haywood, I.","address":"62, Norfolk Terrace, Bayswater, W","active":1871},"geometry":{"coordinates":[-0.197077,51.514792]},"uuid":"cabb065e-6bff-4ffc-98bd-e30ace905fb6"},{"@id":"https://w3id.org/locolligo/BIFMO-post-1840/1ae86775-d83e-4914-8006-673aa86b77b3","properties":{"url":"https://bifmo.history.ac.uk/entry/haywood-isaac-co-1871","title":"Haywood, Isaac","address":"60 & 62 Norfolk terrace, Bayswater W","active":1871},"geometry":{"coordinates":[-0.197077,51.514792]},"uuid":"1ae86775-d83e-4914-8006-673aa86b77b3"},{"@id":"https://w3id.org/locolligo/BIFMO-post-1840/1bf66873-fcae-4880-a4e2-8c2fb09e2a5a","properties":{"url":"https://bifmo.history.ac.uk/entry/haywood-isaac-co-1871","title":"Haywood, Isaac","address":"60 & 62, Norfolk Terrace, Bayswater, W","active":1871},"geometry":{"coordinates":[-0.197077,51.514792]},"uuid":"1bf66873-fcae-4880-a4e2-8c2fb09e2a5a"},{"@id":"https://w3id.org/locolligo/BIFMO-post-1840/7a21bb7e-d0dd-4c3f-ac77-57c1e03d8978","properties":{"url":"https://bifmo.history.ac.uk/entry/matthews-john-1845-1871","title":"Matthews, John","address":"98, Norfolk ter., Bayswater, W","active":1871},"geometry":{"coordinates":[-0.197077,51.514792]},"uuid":"7a21bb7e-d0dd-4c3f-ac77-57c1e03d8978"},{"@id":"https://w3id.org/locolligo/BIFMO-post-1840/22ae9425-b77f-489b-b5b5-369e78563ec1","properties":{"url":"https://bifmo.history.ac.uk/entry/ramuz-alexander-1826-46","title":"Ramuz, Alexander","address":"12 Albert terrace, Notting hill W","active":1845,"notes":"Now 'Pembridge Road'"},"geometry":{"coordinates":[-0.196988,51.509459]},"uuid":"22ae9425-b77f-489b-b5b5-369e78563ec1"},{"@id":"https://w3id.org/locolligo/BIFMO-post-1840/c5b652db-a872-4d04-bdbc-eb05c83e7afc","properties":{"url":"https://bifmo.history.ac.uk/entry/lawrence-thomas-j-1871","title":"Lawrence , Geo. R.","address":"42, Uxbridge Street, Notting Hill, W","active":1871},"geometry":{"coordinates":[-0.196925,51.508837]},"uuid":"c5b652db-a872-4d04-bdbc-eb05c83e7afc"},{"@id":"https://w3id.org/locolligo/BIFMO-post-1840/53638f37-b6be-4697-8fc9-df3fec8826c6","properties":{"url":"https://bifmo.history.ac.uk/entry/turner-john-1845-1871","title":"Turner, John","address":"Grange place, Hoxton","active":1845},"geometry":{"coordinates":[-0.196294,51.541888]},"uuid":"53638f37-b6be-4697-8fc9-df3fec8826c6"},{"@id":"https://w3id.org/locolligo/BIFMO-post-1840/fdfe62b1-c520-46f3-ab7d-c8643d3c2619","properties":{"url":"https://bifmo.history.ac.uk/entry/comfort-john-1835-39","title":"Comfort, J.","address":"10 Peel pl. Kensington grav","active":1845,"notes":"Street (probably) now known as Peel Street"},"geometry":{"coordinates":[-0.195438,51.507307]},"uuid":"fdfe62b1-c520-46f3-ab7d-c8643d3c2619"},{"@id":"https://w3id.org/locolligo/BIFMO-post-1840/053f635b-6768-439b-a6c0-0d9c8c280833","properties":{"url":"https://bifmo.history.ac.uk/entry/mantle-thomas-1826-28","title":"Mantle, Thomas","address":"72 Gt. Suffolk street SE","active":1845},"geometry":{"coordinates":[-0.194965,51.471952]},"uuid":"053f635b-6768-439b-a6c0-0d9c8c280833"},{"@id":"https://w3id.org/locolligo/BIFMO-post-1840/d36572cc-3145-4f16-84b6-dccc526d75dd","properties":{"url":"https://bifmo.history.ac.uk/entry/terry-henry-1871","title":"Terry, Henry","address":"11 Gt. Suffolk st. Borough","active":1871},"geometry":{"coordinates":[-0.194965,51.471952]},"uuid":"d36572cc-3145-4f16-84b6-dccc526d75dd"},{"@id":"https://w3id.org/locolligo/BIFMO-post-1840/6470a062-440f-4ebb-b1b4-858680c950d9","properties":{"title":"Wilson , Henry","address":"124 Gt. Suffolk st. Borough SE","active":1871},"geometry":{"coordinates":[-0.194965,51.471952]},"uuid":"6470a062-440f-4ebb-b1b4-858680c950d9"},{"@id":"https://w3id.org/locolligo/BIFMO-post-1840/3ebabc36-8138-4dfa-a40a-aa0d1be35db1","properties":{"url":"https://bifmo.history.ac.uk/entry/bedword-william-alfred-1871","title":"Bedword , Wm. & Alfrd.","address":"5 Notting hill, High st.","active":1871},"geometry":{"coordinates":[-0.193005,51.509661]},"uuid":"3ebabc36-8138-4dfa-a40a-aa0d1be35db1"},{"@id":"https://w3id.org/locolligo/BIFMO-post-1840/98501f8b-89ba-4286-b82e-f0b03064b578","properties":{"url":"https://bifmo.history.ac.uk/entry/carter-edward-junior-1845","title":"Carter, Edward junior","address":"Church walk, Holland st W","active":1845},"geometry":{"coordinates":[-0.192975,51.50306]},"uuid":"98501f8b-89ba-4286-b82e-f0b03064b578"},{"@id":"https://w3id.org/locolligo/BIFMO-post-1840/e41e26b4-9f00-4294-8cf6-7f54c8896e64","properties":{"url":"https://bifmo.history.ac.uk/entry/macneill-patrick-1871","title":"Macneill, Patrick","address":"Church wlk., Holland Street, Knsgtn, W","active":1871},"geometry":{"coordinates":[-0.192975,51.50306]},"uuid":"e41e26b4-9f00-4294-8cf6-7f54c8896e64"},{"@id":"https://w3id.org/locolligo/BIFMO-post-1840/8dd19721-1205-4d79-ae46-d3c0085d0e0d","properties":{"url":"https://bifmo.history.ac.uk/entry/bedford-james-1845","title":"Bedford, James","address":"5 High st. Notting hill","active":1845},"geometry":{"coordinates":[-0.192829,51.509905]},"uuid":"8dd19721-1205-4d79-ae46-d3c0085d0e0d"},{"@id":"https://w3id.org/locolligo/BIFMO-post-1840/f119f70c-a619-48ac-a21d-298efd5eca93","properties":{"url":"https://bifmo.history.ac.uk/entry/hunt-horatio-n-1871","title":"Hunt, Horatio N.","address":"1 High street, Notting hill","active":1871},"geometry":{"coordinates":[-0.192658,51.509772]},"uuid":"f119f70c-a619-48ac-a21d-298efd5eca93"},{"@id":"https://w3id.org/locolligo/BIFMO-post-1840/9701d03d-ad22-4fea-9d33-e8f4568beb23","properties":{"url":"https://bifmo.history.ac.uk/entry/diller-d-j-1837-41","title":"Diller, David & John","address":"190 Wellington ter. Waterloo rd","active":1845},"geometry":{"coordinates":[-0.192602,51.509799]},"uuid":"9701d03d-ad22-4fea-9d33-e8f4568beb23"},{"@id":"https://w3id.org/locolligo/BIFMO-post-1840/4fb08514-ddb4-4571-9147-0344c8d095c9","properties":{"url":"https://bifmo.history.ac.uk/entry/singleton-joseph-1871","title":"Singleton, Joseph","address":"16, Holland Street, Kensington, W","active":1871},"geometry":{"coordinates":[-0.192582,51.503222]},"uuid":"4fb08514-ddb4-4571-9147-0344c8d095c9"},{"@id":"https://w3id.org/locolligo/BIFMO-post-1840/d6655fe9-803c-4c6a-8ba8-7c514595917d","properties":{"url":"https://bifmo.history.ac.uk/entry/st-julien-cb-1845","title":"St. Julien, C. B.","address":"4, Wellington ter.BayswatrW","active":1845},"geometry":{"coordinates":[-0.192517,51.509975]},"uuid":"d6655fe9-803c-4c6a-8ba8-7c514595917d"},{"@id":"https://w3id.org/locolligo/BIFMO-post-1840/4fcee44f-14ce-4ac4-a10c-48046d67bdcb","properties":{"url":"https://bifmo.history.ac.uk/entry/anns-henry-1871","title":"Anns, Henry","address":"12 Holland st. Kensington W","active":1871},"geometry":{"coordinates":[-0.192412,51.503241]},"uuid":"4fcee44f-14ce-4ac4-a10c-48046d67bdcb"},{"@id":"https://w3id.org/locolligo/BIFMO-post-1840/8b4429cc-24a0-43b7-9494-adc682122651","properties":{"url":"https://bifmo.history.ac.uk/entry/mitchell-frederick-1845-1871","title":"Mitchell , Fredk.","address":"4 Holland pl. Kensgtn","active":1871},"geometry":{"coordinates":[-0.192101,51.503421]},"uuid":"8b4429cc-24a0-43b7-9494-adc682122651"},{"@id":"https://w3id.org/locolligo/BIFMO-post-1840/defbb81f-e219-47c4-927f-54d6d1354f42","properties":{"url":"https://bifmo.history.ac.uk/entry/mitchell-henry-1845","title":"Mitchell, Henry","address":"4 Holland pl. Kensington W","active":1871},"geometry":{"coordinates":[-0.192101,51.503421]},"uuid":"defbb81f-e219-47c4-927f-54d6d1354f42"},{"@id":"https://w3id.org/locolligo/BIFMO-post-1840/f2e0191f-4dbb-4004-96d2-11387605128c","properties":{"url":"https://bifmo.history.ac.uk/entry/fox-john-1845-1871","title":"Fox, John","address":"16 Holland pl. Clapham rd","active":1845},"geometry":{"coordinates":[-0.192041,51.50337]},"uuid":"f2e0191f-4dbb-4004-96d2-11387605128c"},{"@id":"https://w3id.org/locolligo/BIFMO-post-1840/a92b4802-3eb7-4780-b07e-993e74447029","properties":{"url":"https://bifmo.history.ac.uk/entry/haywood-isaac-co-1871","title":"Haywood, Isaac","address":"60 & 62 Norfolk terrace, Bayswater W","active":1871,"notes":"* Now 'Westbourne Grove'"},"geometry":{"coordinates":[-0.192016,51.515526]},"uuid":"a92b4802-3eb7-4780-b07e-993e74447029"},{"@id":"https://w3id.org/locolligo/BIFMO-post-1840/6c7901a2-0e58-4d10-aec3-7110480274d2","properties":{"url":"https://bifmo.history.ac.uk/entry/lawson-thomas-1871","title":"Lawson , Thos.","address":"36, High Street, Kensington, W","active":1871},"geometry":{"coordinates":[-0.189419,51.502493]},"uuid":"6c7901a2-0e58-4d10-aec3-7110480274d2"},{"@id":"https://w3id.org/locolligo/BIFMO-post-1840/c411d40c-632f-4fa1-bb4f-daf4ad69fd1a","properties":{"url":"https://bifmo.history.ac.uk/entry/chick-thomas-1839","title":"Chick, Thomas","address":"3 Mornington rd. Rgt's pk","active":1871,"notes":"Street not known as Mortimer Crescent and Mortimer Place."},"geometry":{"coordinates":[-0.188595,51.537984]},"uuid":"c411d40c-632f-4fa1-bb4f-daf4ad69fd1a"},{"@id":"https://w3id.org/locolligo/BIFMO-post-1840/6076e9da-a367-4111-9237-211a191650a8","properties":{"title":"Timbrell , Samuel","address":"2 Seymour rw. Lit. Chels","active":1871,"notes":"Approximate location, plotted with information from British History Online: Survey of London"},"geometry":{"coordinates":[-0.188527,51.480666]},"uuid":"6076e9da-a367-4111-9237-211a191650a8"},{"@id":"https://w3id.org/locolligo/BIFMO-post-1840/f902bf00-216e-47a4-834a-d263e10e2eb6","properties":{"url":"https://bifmo.history.ac.uk/entry/colbourne-james-1871","title":"Colbourne, Jas.","address":"19, Kensington High Street, W","active":1871},"geometry":{"coordinates":[-0.188336,51.502248]},"uuid":"f902bf00-216e-47a4-834a-d263e10e2eb6"},{"@id":"https://w3id.org/locolligo/BIFMO-post-1840/4796b32d-cbcd-41e5-a300-714b2cc7e36e","properties":{"url":"https://bifmo.history.ac.uk/entry/coldwell-robert-1839","title":"Coldwell, Robert","address":"19 Kensington High street W","active":1845},"geometry":{"coordinates":[-0.188336,51.502248]},"uuid":"4796b32d-cbcd-41e5-a300-714b2cc7e36e"},{"@id":"https://w3id.org/locolligo/BIFMO-post-1840/b51ba00b-675c-434b-9e65-e46d5cf3bba3","properties":{"url":"https://bifmo.history.ac.uk/entry/day-theophls-1845","title":"Day, Theophls","address":"4, Kensington High Street, W","active":1845},"geometry":{"coordinates":[-0.187963,51.502389]},"uuid":"b51ba00b-675c-434b-9e65-e46d5cf3bba3"},{"@id":"https://w3id.org/locolligo/BIFMO-post-1840/0434419d-a408-4b0d-9a87-f84d42746097","properties":{"url":"https://bifmo.history.ac.uk/entry/handy-samuel-1845","title":"Handy, Samuel","address":"8, Mortimer Road, N","active":1845,"notes":"Street not known as Mortimer Crescent and Mortimer Place."},"geometry":{"coordinates":[-0.187951,51.53769]},"uuid":"0434419d-a408-4b0d-9a87-f84d42746097"},{"@id":"https://w3id.org/locolligo/BIFMO-post-1840/66bfb88b-8786-4a8b-983d-ecfd8f048fb3","properties":{"url":"https://bifmo.history.ac.uk/entry/birks-charles-1871","title":"Birks , Charles","address":"95 Queen’s rd.Bayswater W","active":1871,"notes":"Street now known as Queensway"},"geometry":{"coordinates":[-0.187743,51.51262]},"uuid":"66bfb88b-8786-4a8b-983d-ecfd8f048fb3"},{"@id":"https://w3id.org/locolligo/BIFMO-post-1840/3648fa10-c867-43e8-9b48-fd0ac0104852","properties":{"url":"https://bifmo.history.ac.uk/entry/cummins-j-1845","title":"Cummins, J.","address":"59 Queen’s rd.BayswaterW","active":1845,"notes":"Street now known as Queensway"},"geometry":{"coordinates":[-0.187703,51.512041]},"uuid":"3648fa10-c867-43e8-9b48-fd0ac0104852"},{"@id":"https://w3id.org/locolligo/BIFMO-post-1840/d46ba411-dc7c-49ce-b868-106f9c091b35","properties":{"url":"https://bifmo.history.ac.uk/entry/fuller-james-1835-39","title":"Fuller, James","address":"39, Queen’s Road, Bayswater, W","active":1845,"notes":"Street now known as Queensway"},"geometry":{"coordinates":[-0.187538,51.511453]},"uuid":"d46ba411-dc7c-49ce-b868-106f9c091b35"},{"@id":"https://w3id.org/locolligo/BIFMO-post-1840/0adf2d12-772b-4141-9a33-7d9e62c8dbbf","properties":{"title":"Thompson, George","address":"35, Queen’s Road, Notting Hill, W","active":1845,"notes":"Street (probably) now known as Queensway, query as Queensway is referenced as Queen's Road, Bayswater in same directory.  "},"geometry":{"coordinates":[-0.18741,51.511431]},"uuid":"0adf2d12-772b-4141-9a33-7d9e62c8dbbf"},{"@id":"https://w3id.org/locolligo/BIFMO-post-1840/ef067622-608c-4486-b9a0-8be1c0b78345","properties":{"title":"Mead , Joseph","address":"25 Queen’s road, Bayswater W","active":1871,"notes":"Street now known as Queensway"},"geometry":{"coordinates":[-0.187318,51.511157]},"uuid":"ef067622-608c-4486-b9a0-8be1c0b78345"},{"@id":"https://w3id.org/locolligo/BIFMO-post-1840/dd4a3f7a-d31e-4a57-9ee9-37f6c47085f2","properties":{"url":"https://bifmo.history.ac.uk/entry/robbins-edward-1845","title":"Robbins, Edward","address":"22 Queen’s rd.BayswtrW","active":1845,"notes":"Street now known as Queensway"},"geometry":{"coordinates":[-0.187149,51.511141]},"uuid":"dd4a3f7a-d31e-4a57-9ee9-37f6c47085f2"},{"@id":"https://w3id.org/locolligo/BIFMO-post-1840/0f6713c1-3ff5-426b-96e6-9df8a66b94a3","properties":{"title":"Burr, R","address":"19, Inverness Road, Bayswater, W","active":1871,"notes":"also for hire "},"geometry":{"coordinates":[-0.186364,51.511565]},"uuid":"0f6713c1-3ff5-426b-96e6-9df8a66b94a3"},{"@id":"https://w3id.org/locolligo/BIFMO-post-1840/c09cac3d-5843-49c4-b25d-6ffd5e931687","properties":{"title":"Burr, R","address":"19 Inverness road W","active":1871},"geometry":{"coordinates":[-0.186364,51.511565]},"uuid":"c09cac3d-5843-49c4-b25d-6ffd5e931687"},{"@id":"https://w3id.org/locolligo/BIFMO-post-1840/06a93593-77e4-455d-96c2-7707b46690bc","properties":{"title":"Burr, R","address":"19Invrnss.rd W","active":1871},"geometry":{"coordinates":[-0.186364,51.511565]},"uuid":"06a93593-77e4-455d-96c2-7707b46690bc"},{"@id":"https://w3id.org/locolligo/BIFMO-post-1840/c5f33b45-f0c2-4a81-b571-250ddb09bf5a","properties":{"title":"Burr, R.","address":"19, Inverness Road, W","active":1871},"geometry":{"coordinates":[-0.186364,51.511565]},"uuid":"c5f33b45-f0c2-4a81-b571-250ddb09bf5a"},{"@id":"https://w3id.org/locolligo/BIFMO-post-1840/c1373418-03b3-4c11-a086-0985d78e07bb","properties":{"url":"https://bifmo.history.ac.uk/entry/levasseur-l-1871-1886","title":"Levasseur, Louis","address":"20A, Inverness Road, W","active":1871},"geometry":{"coordinates":[-0.185814,51.511461]},"uuid":"c1373418-03b3-4c11-a086-0985d78e07bb"},{"@id":"https://w3id.org/locolligo/BIFMO-post-1840/6c841cf7-486a-487c-9fbf-924780f2219d","properties":{"url":"https://bifmo.history.ac.uk/entry/calver-william-samuel-1871","title":"Calver, Wm. Samuel","address":"7, Harrow Road, Paddington, W","active":1871,"notes":-0.1714368},"geometry":{"coordinates":[-0.18527,51.514548]},"uuid":"6c841cf7-486a-487c-9fbf-924780f2219d"},{"@id":"https://w3id.org/locolligo/BIFMO-post-1840/40ca6855-ea8a-4adf-9eb5-12d42995b309","properties":{"url":"https://bifmo.history.ac.uk/entry/grossetete-armand-1871","title":"Grossetete, Armand","address":"4, Hanover Place, Regent’s Park, NW","active":1871},"geometry":{"coordinates":[-0.18527,51.514548]},"uuid":"40ca6855-ea8a-4adf-9eb5-12d42995b309"},{"@id":"https://w3id.org/locolligo/BIFMO-post-1840/53639a32-3915-42a2-87b5-b38ff8ee701e","properties":{"title":"Moore, William","address":"25 Hart st. Bloomsbury","active":1845,"notes":-0.1251787},"geometry":{"coordinates":[-0.18527,51.514548]},"uuid":"53639a32-3915-42a2-87b5-b38ff8ee701e"},{"@id":"https://w3id.org/locolligo/BIFMO-post-1840/d489e467-44d5-49b6-9786-9f313c7974d5","properties":{"url":"https://bifmo.history.ac.uk/entry/sams-j-j-1835-39","title":"Sams, John","address":"4 Hanover pl. Rgt's. pk. rd","active":1845},"geometry":{"coordinates":[-0.18527,51.514548]},"uuid":"d489e467-44d5-49b6-9786-9f313c7974d5"},{"@id":"https://w3id.org/locolligo/BIFMO-post-1840/feef8d8f-ed20-48ef-b6cf-25b001ad9e40","properties":{"url":"https://bifmo.history.ac.uk/entry/merrick-george-1823-39","title":"Merrick, George","address":"116, Boundary Road, NW","active":1845},"geometry":{"coordinates":[-0.18356,51.538444]},"uuid":"feef8d8f-ed20-48ef-b6cf-25b001ad9e40"},{"@id":"https://w3id.org/locolligo/BIFMO-post-1840/db702361-87f2-45b6-8cc3-6792fc0321d2","properties":{"url":"https://bifmo.history.ac.uk/entry/herring-william-1871","title":"Herring, William","address":"30, Leinster Terrace, W","active":1871,"notes":"Not on Goad or Horwood, used OS 40s-60s but could have been different numbering in 19th century"},"geometry":{"coordinates":[-0.183243,51.511929]},"uuid":"db702361-87f2-45b6-8cc3-6792fc0321d2"},{"@id":"https://w3id.org/locolligo/BIFMO-post-1840/caa2cd0a-27f9-4fea-aee0-41b0954289f9","properties":{"url":"https://bifmo.history.ac.uk/entry/blackman-george-1871-0","title":"Blackman, George","address":"3, Albert ter., Bishop’s Road, W","active":1871,"notes":"Approximate location, Bishops Road now Bishop's Bridge Road."},"geometry":{"coordinates":[-0.18309,51.517279]},"uuid":"caa2cd0a-27f9-4fea-aee0-41b0954289f9"},{"@id":"https://w3id.org/locolligo/BIFMO-post-1840/c0e9de85-e7c2-4888-aa67-ea75faaa4b4c","properties":{"url":"https://bifmo.history.ac.uk/entry/bagshaw-edward-1871","title":"Bagshaw, Edward","address":"97 Boundary road NW","active":1871},"geometry":{"coordinates":[-0.182788,51.538711]},"uuid":"c0e9de85-e7c2-4888-aa67-ea75faaa4b4c"},{"@id":"https://w3id.org/locolligo/BIFMO-post-1840/b973b3d6-d7f3-4e38-86dc-552228241e49","properties":{"url":"https://bifmo.history.ac.uk/entry/taylor-james-1871","title":"Taylor, James","address":"393, Fulham Road, SW","active":1871,"notes":"Current Fulham Road numbering, not in the Layers maps"},"geometry":{"coordinates":[-0.182346,51.48495]},"uuid":"b973b3d6-d7f3-4e38-86dc-552228241e49"},{"@id":"https://w3id.org/locolligo/BIFMO-post-1840/4e2858d4-a75d-46d4-a36c-ffddfe030b5e","properties":{"url":"https://bifmo.history.ac.uk/entry/teague-joseph-1871","title":"Teague , Joseph","address":"6 Odell place, Little Chelsea","active":1871},"geometry":{"coordinates":[-0.182066,51.485301]},"uuid":"4e2858d4-a75d-46d4-a36c-ffddfe030b5e"},{"@id":"https://w3id.org/locolligo/BIFMO-post-1840/5e59edf6-14d6-441d-94d1-d26842f80d88","properties":{"title":"Burr, R","address":"8 & 10 Bishop’s road, Paddington W","active":1871,"notes":"Now 'Bishop's Bridge Road'"},"geometry":{"coordinates":[-0.182016,51.51753]},"uuid":"5e59edf6-14d6-441d-94d1-d26842f80d88"},{"@id":"https://w3id.org/locolligo/BIFMO-post-1840/1e018476-2c1d-4f41-9d12-e5e318f64e33","properties":{"title":"Burr, R","address":"8 & 10, Bishop’s Road, Paddington, W","active":1871,"notes":"Now 'Bishop's Bridge Road'"},"geometry":{"coordinates":[-0.182016,51.51753]},"uuid":"1e018476-2c1d-4f41-9d12-e5e318f64e33"},{"@id":"https://w3id.org/locolligo/BIFMO-post-1840/fa629007-4c59-4b2e-aafb-07c581d9f6e8","properties":{"title":"Burr, R.","address":"8&10 Bishop’s rd. Paddington W","active":1871,"notes":"Now 'Bishop's Bridge Road'"},"geometry":{"coordinates":[-0.182016,51.51753]},"uuid":"fa629007-4c59-4b2e-aafb-07c581d9f6e8"},{"@id":"https://w3id.org/locolligo/BIFMO-post-1840/80bb1139-1767-4567-971b-f9de8bdf3bcb","properties":{"url":"https://bifmo.history.ac.uk/entry/burr-robert-1829-39","title":"Burr, Robert","address":"8 to 10, Bishop’s Road, W","active":1845,"notes":"Now 'Bishop's Bridge Road'"},"geometry":{"coordinates":[-0.182016,51.51753]},"uuid":"80bb1139-1767-4567-971b-f9de8bdf3bcb"},{"@id":"https://w3id.org/locolligo/BIFMO-post-1840/f4f75f24-2f47-466a-b3f1-08d5c4a93617","properties":{"url":"https://bifmo.history.ac.uk/entry/timothy-david-1827-35","title":"Timothy, David","address":"216 Fulham road SW","active":1845,"notes":"Current Fulham Road numbering, not in the Layers maps"},"geometry":{"coordinates":[-0.181906,51.485519]},"uuid":"f4f75f24-2f47-466a-b3f1-08d5c4a93617"},{"@id":"https://w3id.org/locolligo/BIFMO-post-1840/0f8a27d4-2ce5-4789-9427-74ab0e9d0fb0","properties":{"url":"https://bifmo.history.ac.uk/entry/jackson-joseph-1871","title":"Jackson, Joseph","address":"5, Violet Hill, St. John’s Wood, NW","active":1871},"geometry":{"coordinates":[-0.181343,51.532877]},"uuid":"0f8a27d4-2ce5-4789-9427-74ab0e9d0fb0"},{"@id":"https://w3id.org/locolligo/BIFMO-post-1840/f2b97278-1d24-4b58-bd07-544096140e2f","properties":{"url":"https://bifmo.history.ac.uk/entry/mote-edward-1835-39","title":"Mote, Edward","address":"12 Park ter. King's rd. Chls","active":1845,"notes":"Street lost, plotted with information from British History Online: Survey of London"},"geometry":{"coordinates":[-0.180268,51.485035]},"uuid":"f2b97278-1d24-4b58-bd07-544096140e2f"},{"@id":"https://w3id.org/locolligo/BIFMO-post-1840/c22f0629-ffee-40f4-ab88-8716f4464285","properties":{"url":"https://bifmo.history.ac.uk/entry/cubitt-thomas-riches-1845","title":"Cubitt, Thomas Riches","address":"5, Craven ter., Bayswater, W","active":1845},"geometry":{"coordinates":[-0.179382,51.513357]},"uuid":"c22f0629-ffee-40f4-ab88-8716f4464285"},{"@id":"https://w3id.org/locolligo/BIFMO-post-1840/8a8145a8-47d0-4ec6-ad82-e99e67571790","properties":{"url":"https://bifmo.history.ac.uk/entry/reynolds-henry-1823-28","title":"Reynolds, Henry","address":"41 Craven rd.Westbrn. ter W","active":1845},"geometry":{"coordinates":[-0.179326,51.513975]},"uuid":"8a8145a8-47d0-4ec6-ad82-e99e67571790"},{"@id":"https://w3id.org/locolligo/BIFMO-post-1840/40dce709-6987-4990-98bb-b6b0e3797c80","properties":{"url":"https://bifmo.history.ac.uk/entry/cotsford-edward-j-1871","title":"Cotsford, Edward J.","address":"5, Thistle Grove, West Brompton, SW","active":1871},"geometry":{"coordinates":[-0.179236,51.487877]},"uuid":"40dce709-6987-4990-98bb-b6b0e3797c80"},{"@id":"https://w3id.org/locolligo/BIFMO-post-1840/a20d9276-3d1a-4f09-b057-c2d66b98f9de","properties":{"url":"https://bifmo.history.ac.uk/entry/foster-william-1871","title":"Foster, Wm.","address":"19A, Hall park, Edgw. Rd","active":1871},"geometry":{"coordinates":[-0.178809,51.523555]},"uuid":"a20d9276-3d1a-4f09-b057-c2d66b98f9de"},{"@id":"https://w3id.org/locolligo/BIFMO-post-1840/e24f2b0f-2498-4d2a-8207-1e9892d25fed","properties":{"title":"Bower, Charles","address":"20, Craven ter., Bayswater, W","active":1871},"geometry":{"coordinates":[-0.178708,51.512738]},"uuid":"e24f2b0f-2498-4d2a-8207-1e9892d25fed"},{"@id":"https://w3id.org/locolligo/BIFMO-post-1840/9867058d-9d87-402f-ac83-57aa4b793a80","properties":{"url":"https://bifmo.history.ac.uk/entry/powell-thomas-1845","title":"Powell, Thomas","address":"5, Mansfield Place, Kentish Town, NW","active":1845},"geometry":{"coordinates":[-0.177795,51.558203]},"uuid":"9867058d-9d87-402f-ac83-57aa4b793a80"},{"@id":"https://w3id.org/locolligo/BIFMO-post-1840/eabf7ff8-18da-44e4-91c8-d8f0bb918230","properties":{"url":"https://bifmo.history.ac.uk/entry/lloyd-william-1839","title":"Lloyd, William","address":"35, Westbourne ter. north, W","active":1845},"geometry":{"coordinates":[-0.177482,51.51478]},"uuid":"eabf7ff8-18da-44e4-91c8-d8f0bb918230"},{"@id":"https://w3id.org/locolligo/BIFMO-post-1840/1824c6a5-ceed-43b1-aabb-a87c43f8de4d","properties":{"url":"https://bifmo.history.ac.uk/entry/tett-william-f-1845","title":"Tett, William F.","address":"80 Park walk, Chelsea SW","active":1845},"geometry":{"coordinates":[-0.177456,51.484027]},"uuid":"1824c6a5-ceed-43b1-aabb-a87c43f8de4d"},{"@id":"https://w3id.org/locolligo/BIFMO-post-1840/169481fd-d52e-450f-9f90-6b3b36406be6","properties":{"url":"https://bifmo.history.ac.uk/entry/crichton-john-1871","title":"Crichton, John","address":"2 High st. Newington butts, & 1 Marlboro' pl. Walworth rd","active":1871},"geometry":{"coordinates":[-0.177185,51.535783]},"uuid":"169481fd-d52e-450f-9f90-6b3b36406be6"},{"@id":"https://w3id.org/locolligo/BIFMO-post-1840/2bd1422c-f446-4748-86b3-b73d70c6f3b5","properties":{"url":"https://bifmo.history.ac.uk/entry/griffiths-griffith-1820-39","title":"Griffiths, Griffith","address":"125, Hall pl., Paddington grn, W","active":1871},"geometry":{"coordinates":[-0.176154,51.52306]},"uuid":"2bd1422c-f446-4748-86b3-b73d70c6f3b5"},{"@id":"https://w3id.org/locolligo/BIFMO-post-1840/40d4f752-3b75-4e51-971d-2396848f5982","properties":{"url":"https://bifmo.history.ac.uk/entry/dent-joseph-1871","title":"Dent, Joseph","address":"17 Spring st. Portman sq","active":1871,"notes":"now called St. Helena Street, https://www.maps.thehunthouse.com/Streets/Old_to_New_Abolished_London_Street_Names.htm#S"},"geometry":{"coordinates":[-0.176067,51.515002]},"uuid":"40d4f752-3b75-4e51-971d-2396848f5982"},{"@id":"https://w3id.org/locolligo/BIFMO-post-1840/ebda09a5-f7c8-41f5-8886-dd46da1a8137","properties":{"url":"https://bifmo.history.ac.uk/entry/moxey-james-1871","title":"Moxey, James","address":"114, Fulham Road, SW","active":1871,"notes":"Current Fulham Road numbering, not in the Layers maps"},"geometry":{"coordinates":[-0.176056,51.489344]},"uuid":"ebda09a5-f7c8-41f5-8886-dd46da1a8137"},{"@id":"https://w3id.org/locolligo/BIFMO-post-1840/99d5fd53-949d-4f93-aaa1-413cb56f4620","properties":{"url":"https://bifmo.history.ac.uk/entry/bragg-william-1845-1871","title":"Bragg, William","address":"21 Spring st. Marylebn","active":1871},"geometry":{"coordinates":[-0.176018,51.515144]},"uuid":"99d5fd53-949d-4f93-aaa1-413cb56f4620"},{"@id":"https://w3id.org/locolligo/BIFMO-post-1840/5ce55b98-c67d-4c37-a0f0-db3c02155456","properties":{"url":"https://bifmo.history.ac.uk/entry/moffatt-william-1871","title":"Moffatt, William","address":"14, Westbourne Street, SW","active":1871},"geometry":{"coordinates":[-0.175411,51.512849]},"uuid":"5ce55b98-c67d-4c37-a0f0-db3c02155456"},{"@id":"https://w3id.org/locolligo/BIFMO-post-1840/6697d8e0-24c3-4078-9fdc-e6460bfd5fd9","properties":{"url":"https://bifmo.history.ac.uk/entry/watson-george-1814-35","title":"Watson, George","address":"42 Spring st. Paddington","active":1845,"notes":"now called Panton Street, https://www.maps.thehunthouse.com/Streets/Old_to_New_Abolished_London_Street_Names.htm#S"},"geometry":{"coordinates":[-0.175214,51.514423]},"uuid":"6697d8e0-24c3-4078-9fdc-e6460bfd5fd9"},{"@id":"https://w3id.org/locolligo/BIFMO-post-1840/8c5398f7-ed81-4f1e-94e2-d9a7f1cae390","properties":{"url":"https://bifmo.history.ac.uk/entry/sweet-frederic-1871","title":"Sweet , Frederic","address":"35 North Whf. Rd. Pdngtn","active":1871},"geometry":{"coordinates":[-0.175084,51.518578]},"uuid":"8c5398f7-ed81-4f1e-94e2-d9a7f1cae390"},{"@id":"https://w3id.org/locolligo/BIFMO-post-1840/8efe4bbf-de2f-46ce-8dd5-c745b16283d9","properties":{"url":"https://bifmo.history.ac.uk/entry/purdon-thomas-1845","title":"Purdon, Thomas","address":"80, Fulham Road, SW","active":1845,"notes":"Current Fulham Road numbering, not in the Layers maps"},"geometry":{"coordinates":[-0.174747,51.490171]},"uuid":"8efe4bbf-de2f-46ce-8dd5-c745b16283d9"},{"@id":"https://w3id.org/locolligo/BIFMO-post-1840/d79ffdd8-77df-4784-9a76-e9bccd6e120f","properties":{"title":"Peacock , James","address":"9.5, King’s College Road, Hampstd., NW","active":1871},"geometry":{"coordinates":[-0.174167,51.541248]},"uuid":"d79ffdd8-77df-4784-9a76-e9bccd6e120f"},{"@id":"https://w3id.org/locolligo/BIFMO-post-1840/91dd2936-16fb-4208-9cf3-16fbc34f5d65","properties":{"url":"https://bifmo.history.ac.uk/entry/maxey-william-1845","title":"Maxey, William","address":"209, Fulham Road, SW","active":1845,"notes":"Current Fulham Road numbering, not in the Layers maps"},"geometry":{"coordinates":[-0.173438,51.490627]},"uuid":"91dd2936-16fb-4208-9cf3-16fbc34f5d65"},{"@id":"https://w3id.org/locolligo/BIFMO-post-1840/6c687db1-3a7f-47d8-9b99-c351ec7f6786","properties":{"url":"https://bifmo.history.ac.uk/entry/foulkes-frederick-1871","title":"Foulkes , Fredk.","address":"123 Praed st. Paddington","active":1871},"geometry":{"coordinates":[-0.1734,51.516774]},"uuid":"6c687db1-3a7f-47d8-9b99-c351ec7f6786"},{"@id":"https://w3id.org/locolligo/BIFMO-post-1840/f717aed0-662a-4a79-95b0-1465c705bea9","properties":{"url":"https://bifmo.history.ac.uk/entry/addis-thomas-1845","title":"Addis, Thomas","address":"31 Portman pl. Edgware rd","active":1845,"notes":"Street lost, plotted using Lockie's Topography of London (1810)"},"geometry":{"coordinates":[-0.173074,51.521679]},"uuid":"f717aed0-662a-4a79-95b0-1465c705bea9"},{"@id":"https://w3id.org/locolligo/BIFMO-post-1840/188b718f-6dc2-4ab5-bd43-9337b7ec8e3a","properties":{"url":"https://bifmo.history.ac.uk/entry/clark-w-sons-1871","title":"Clark, W.","address":"20 Portman pl. Edgware rd","active":1871,"notes":"Street lost, plotted using Lockie's Topography of London (1810)"},"geometry":{"coordinates":[-0.172698,51.521826]},"uuid":"188b718f-6dc2-4ab5-bd43-9337b7ec8e3a"},{"@id":"https://w3id.org/locolligo/BIFMO-post-1840/ebb7c8fc-ce78-4fe5-bc90-50cb76866b38","properties":{"url":"https://bifmo.history.ac.uk/entry/moss-saul-1810-1892","title":"Moss, Saul","address":"187, Fulham Road, SW","active":1871,"notes":"Current Fulham Road numbering, not in the Layers maps"},"geometry":{"coordinates":[-0.172325,51.491376]},"uuid":"ebb7c8fc-ce78-4fe5-bc90-50cb76866b38"},{"@id":"https://w3id.org/locolligo/BIFMO-post-1840/d1292f50-bf45-43db-b5c7-0bd270098113","properties":{"url":"https://bifmo.history.ac.uk/entry/metcalf-charles-1845","title":"Metcalf, Charles","address":"253, King’s Road, Chelsea, SW","active":1845},"geometry":{"coordinates":[-0.171951,51.48607]},"uuid":"d1292f50-bf45-43db-b5c7-0bd270098113"},{"@id":"https://w3id.org/locolligo/BIFMO-post-1840/896ad33f-214e-406a-8ee1-c332079227d3","properties":{"url":"https://bifmo.history.ac.uk/entry/baker-thomas-1839-0","title":"Baker, T. ","address":"121, Church Street, Lisson Grove, NW","active":1845},"geometry":{"coordinates":[-0.171909,51.522232]},"uuid":"896ad33f-214e-406a-8ee1-c332079227d3"},{"@id":"https://w3id.org/locolligo/BIFMO-post-1840/3a8b8dfa-0c1f-43e6-93cc-505f6c0631f2","properties":{"title":"Schade, Andrew F. ","address":"173, Fulham Road, SW","active":1845,"notes":"Current Fulham Road numbering, not in the Layers maps"},"geometry":{"coordinates":[-0.171847,51.491667]},"uuid":"3a8b8dfa-0c1f-43e6-93cc-505f6c0631f2"},{"@id":"https://w3id.org/locolligo/BIFMO-post-1840/9b5df73c-0967-4400-8ddf-d577b1b4aaaa","properties":{"url":"https://bifmo.history.ac.uk/entry/townshend-mary-ann-mrs-1845","title":"Townshend, Mary Ann","address":"5 Market street, Edgware rd W","active":1845,"notes":"Street lost, approximate location, street demolished in 20th century, location mapped using Report of the Medical Officer of Health for St. Marylebone, Metropolitan Borough, 1930. "},"geometry":{"coordinates":[-0.171831,51.523133]},"uuid":"9b5df73c-0967-4400-8ddf-d577b1b4aaaa"},{"@id":"https://w3id.org/locolligo/BIFMO-post-1840/ce0253fa-aac1-4b11-a99c-2efec8224243","properties":{"url":"https://bifmo.history.ac.uk/entry/larking-samuel-1871","title":"Larking, Samuel","address":"13, Stewart’s Grove, Fulham Road, DW","active":1871},"geometry":{"coordinates":[-0.171801,51.490851]},"uuid":"ce0253fa-aac1-4b11-a99c-2efec8224243"},{"@id":"https://w3id.org/locolligo/BIFMO-post-1840/bffcdc1b-0b47-49e4-a79c-cab150d93d7a","properties":{"url":"https://bifmo.history.ac.uk/entry/whitaker-joseph-1845","title":"Whitaker, Joseph","address":"9 to 15, Milner’s Mews, Edgware Road, W","active":1845,"notes":"Street lost, approximate location, street demolished in 20th century, location mapped using Report of the Medical Officer of Health for St. Marylebone, Metropolitan Borough, 1930. "},"geometry":{"coordinates":[-0.171606,51.522506]},"uuid":"bffcdc1b-0b47-49e4-a79c-cab150d93d7a"},{"@id":"https://w3id.org/locolligo/BIFMO-post-1840/b623f525-2305-4353-b813-cfe44c6d4fc9","properties":{"url":"https://bifmo.history.ac.uk/entry/rothwell-james-1871","title":"Rothwell, Jas.","address":"95, High Street, St. John’s Wood, NW","active":1871},"geometry":{"coordinates":[-0.171382,51.533885]},"uuid":"b623f525-2305-4353-b813-cfe44c6d4fc9"},{"@id":"https://w3id.org/locolligo/BIFMO-post-1840/9f0e1bca-9880-4921-96ec-2136c773911d","properties":{"url":"https://bifmo.history.ac.uk/entry/deeker-james-w-s-1871","title":"Deeker, Jas. W. S.","address":"30 Praed street, Paddington W","active":1871},"geometry":{"coordinates":[-0.17136,51.518075]},"uuid":"9f0e1bca-9880-4921-96ec-2136c773911d"},{"@id":"https://w3id.org/locolligo/BIFMO-post-1840/4f4c0652-7e20-47f6-ba56-3cef136b6298","properties":{"url":"https://bifmo.history.ac.uk/entry/pearson-john-1820-39","title":"Pearson, John","address":"77 High st. St. John’s wood NW","active":1845},"geometry":{"coordinates":[-0.171327,51.53385]},"uuid":"4f4c0652-7e20-47f6-ba56-3cef136b6298"},{"@id":"https://w3id.org/locolligo/BIFMO-post-1840/8925094a-8391-4c66-87b7-a14bfd3d7fdd","properties":{"url":"https://bifmo.history.ac.uk/entry/elliott-h-mrs-1871","title":"Elliot, H.","address":"97, Church Street, Edgware Road, NW","active":1871},"geometry":{"coordinates":[-0.171239,51.522588]},"uuid":"8925094a-8391-4c66-87b7-a14bfd3d7fdd"},{"@id":"https://w3id.org/locolligo/BIFMO-post-1840/4f9ffcf9-8189-4ee6-9e17-33ce5f6b9fd7","properties":{"url":"https://bifmo.history.ac.uk/entry/rothwell-james-1871","title":"Rothwell, Jas.","address":"35, Cochrane Street, St. John’s Wood, NW","active":1871},"geometry":{"coordinates":[-0.171207,51.532871]},"uuid":"4f9ffcf9-8189-4ee6-9e17-33ce5f6b9fd7"},{"@id":"https://w3id.org/locolligo/BIFMO-post-1840/c540fadd-ec00-4a7a-9a23-4c9a4c6f8369","properties":{"url":"https://bifmo.history.ac.uk/entry/dutton-samuel-g-1871","title":"Dutton, Saml. G.","address":"94 Grand Junction ter","active":1871},"geometry":{"coordinates":[-0.171098,51.516418]},"uuid":"c540fadd-ec00-4a7a-9a23-4c9a4c6f8369"},{"@id":"https://w3id.org/locolligo/BIFMO-post-1840/1aaf9e8a-0266-4a5f-9c43-d290629983b8","properties":{"url":"https://bifmo.history.ac.uk/entry/dew-charles-1871","title":"Dew, Charles","address":"49 High st.St.John’s wood NW","active":1871},"geometry":{"coordinates":[-0.170733,51.533254]},"uuid":"1aaf9e8a-0266-4a5f-9c43-d290629983b8"},{"@id":"https://w3id.org/locolligo/BIFMO-post-1840/7f238965-0faf-4376-84cb-cbe37ad75794","properties":{"url":"https://bifmo.history.ac.uk/entry/callow-francis-francis-callow-junior-1871","title":"Callow, Francis","address":"5 Wellington pl. Goswl. rd","active":1871},"geometry":{"coordinates":[-0.170501,51.531714]},"uuid":"7f238965-0faf-4376-84cb-cbe37ad75794"},{"@id":"https://w3id.org/locolligo/BIFMO-post-1840/272c6120-b164-467b-9992-f966cb676b1f","properties":{"url":"https://bifmo.history.ac.uk/entry/arrow-john-henry-1820-39","title":"Arrow, J. Henry","address":"20, Star Street, Edgware Road, W","active":1845},"geometry":{"coordinates":[-0.170033,51.517801]},"uuid":"272c6120-b164-467b-9992-f966cb676b1f"},{"@id":"https://w3id.org/locolligo/BIFMO-post-1840/361c3e5a-02f7-40ed-ba5c-1f8686d1f7f8","properties":{"url":"https://bifmo.history.ac.uk/entry/gates-richard-1835","title":"Gates, Richard","address":"15 Praed street W","active":1845},"geometry":{"coordinates":[-0.169989,51.518772]},"uuid":"361c3e5a-02f7-40ed-ba5c-1f8686d1f7f8"},{"@id":"https://w3id.org/locolligo/BIFMO-post-1840/1ba40591-b05f-472e-a560-c8eda02baed1","properties":{"url":"https://bifmo.history.ac.uk/entry/tiffin-henry-1871","title":"Tiffin, Henry","address":"17 Somers pl. east, New rd","active":1871,"notes":"now called Somers Crescent, http://www.rayment.info/general/road_name_changes/14_2S_Inner_London_Streets_Old_Names.html"},"geometry":{"coordinates":[-0.169979,51.515282]},"uuid":"1ba40591-b05f-472e-a560-c8eda02baed1"},{"@id":"https://w3id.org/locolligo/BIFMO-post-1840/33a3795d-53dc-43a9-8bdd-e19b03801016","properties":{"url":"https://bifmo.history.ac.uk/entry/rothwell-james-1871","title":"Rothwell, Jas.","address":"15, Portland pl., St. John’s Wood, NW","active":1871,"notes":"Stree now (possibly) known as St John’s Wood High Street"},"geometry":{"coordinates":[-0.169791,51.532567]},"uuid":"33a3795d-53dc-43a9-8bdd-e19b03801016"},{"@id":"https://w3id.org/locolligo/BIFMO-post-1840/225bca3a-afb3-4f6e-b8ae-62ecf6d31088","properties":{"url":"https://bifmo.history.ac.uk/entry/hewetson-thomas-william-john-hewetson-milner-hewetson-thexton-milner-1839-1900","title":"Hewetson, Thomas","address":"11, King’s College Road, NW","active":1871},"geometry":{"coordinates":[-0.169779,51.543844]},"uuid":"225bca3a-afb3-4f6e-b8ae-62ecf6d31088"},{"@id":"https://w3id.org/locolligo/BIFMO-post-1840/a6a41d98-3246-4e46-8ab2-a121c4ea0c63","properties":{"url":"https://bifmo.history.ac.uk/entry/handisyde-charles-1845-1871","title":"Handisyde, Charles","address":"1 Alexander pl. Brmptn","active":1871},"geometry":{"coordinates":[-0.169719,51.495066]},"uuid":"a6a41d98-3246-4e46-8ab2-a121c4ea0c63"},{"@id":"https://w3id.org/locolligo/BIFMO-post-1840/6c961a39-568d-460c-bafd-bd9a793c2641","properties":{"url":"https://bifmo.history.ac.uk/entry/lanson-edward-1845","title":"l'Anson, Edward","address":"20, Sale Street, Paddington, W","active":1845},"geometry":{"coordinates":[-0.169288,51.5179]},"uuid":"6c961a39-568d-460c-bafd-bd9a793c2641"},{"@id":"https://w3id.org/locolligo/BIFMO-post-1840/dfc19f8d-969b-416d-a398-34747358e400","properties":{"url":"https://bifmo.history.ac.uk/entry/ridley-john-1845","title":"Ridley, John","address":"45 Church st. Lisson grove NW","active":1845},"geometry":{"coordinates":[-0.169288,51.524018]},"uuid":"dfc19f8d-969b-416d-a398-34747358e400"},{"@id":"https://w3id.org/locolligo/BIFMO-post-1840/5ecb4517-4dfa-423e-bd54-ff76b7a5eaa5","properties":{"url":"https://bifmo.history.ac.uk/entry/bowman-brothers-1871-1915","title":"Bowman, Thos.","address":"97, Fulham Road, SW","active":1871,"notes":"Current Fulham Road numbering, not in the Layers maps"},"geometry":{"coordinates":[-0.169216,51.493051]},"uuid":"5ecb4517-4dfa-423e-bd54-ff76b7a5eaa5"},{"@id":"https://w3id.org/locolligo/BIFMO-post-1840/5dea790d-cbf7-4294-b299-1118cdf3e623","properties":{"url":"https://bifmo.history.ac.uk/entry/elliott-james-1845-1871","title":"Elliott, Jas.","address":"14 New Church st. we. Edgw.rd","active":1871,"notes":"New Church Street is now Church Street (cf. Greenwood 1828)"},"geometry":{"coordinates":[-0.169113,51.524319]},"uuid":"5dea790d-cbf7-4294-b299-1118cdf3e623"},{"@id":"https://w3id.org/locolligo/BIFMO-post-1840/653cdaa0-01e8-4ece-88b1-2363f95949f1","properties":{"url":"https://bifmo.history.ac.uk/entry/ager-stride-john-1845","title":"Ager, Stride John","address":"12 New Church st. Lisson gr","active":1845,"notes":"New Church Street is now Church Street (cf. Greenwood 1828)"},"geometry":{"coordinates":[-0.16907,51.524365]},"uuid":"653cdaa0-01e8-4ece-88b1-2363f95949f1"},{"@id":"https://w3id.org/locolligo/BIFMO-post-1840/2d051735-db27-4585-b4b1-768d902e8368","properties":{"url":"https://bifmo.history.ac.uk/entry/larlham-henry-1871","title":"Larlham, Henry","address":"Jubilee Place, Chelsea, SW","active":1871},"geometry":{"coordinates":[-0.169009,51.48954]},"uuid":"2d051735-db27-4585-b4b1-768d902e8368"},{"@id":"https://w3id.org/locolligo/BIFMO-post-1840/82bd13bb-1c87-4d45-b7f8-a694e31716de","properties":{"url":"https://bifmo.history.ac.uk/entry/schambers-joseph-1845","title":"Schambers, Joseph","address":"1 Cottage pl. Sloane st","active":1845},"geometry":{"coordinates":[-0.168995,51.497493]},"uuid":"82bd13bb-1c87-4d45-b7f8-a694e31716de"},{"@id":"https://w3id.org/locolligo/BIFMO-post-1840/85817c52-c2b9-4a2c-a4e0-864e616582ef","properties":{"url":"https://bifmo.history.ac.uk/entry/dear-w-b-1835-37","title":"Dear, William","address":"1 & 3, Fulham Road, SW","active":1871,"notes":"Current Fulham Road numbering, not in the Layers maps"},"geometry":{"coordinates":[-0.16892,51.493362]},"uuid":"85817c52-c2b9-4a2c-a4e0-864e616582ef"},{"@id":"https://w3id.org/locolligo/BIFMO-post-1840/725f7c72-dd71-4ee7-b812-b8b7e944eef4","properties":{"title":"Richardson, William","address":"44, High Street, St. John’s Wood, NW","active":1845},"geometry":{"coordinates":[-0.168872,51.531995]},"uuid":"725f7c72-dd71-4ee7-b812-b8b7e944eef4"},{"@id":"https://w3id.org/locolligo/BIFMO-post-1840/725da6fc-5b1c-4f82-9d18-dbd73cc0f6aa","properties":{"url":"https://bifmo.history.ac.uk/entry/allum-manoah-1845","title":"Allum, Manoah","address":"88, Leader Street, Chelsea, SW","active":1845,"notes":"Later renamed Ixworth Place, unable to work out numbers"},"geometry":{"coordinates":[-0.168724,51.491894]},"uuid":"725da6fc-5b1c-4f82-9d18-dbd73cc0f6aa"},{"@id":"https://w3id.org/locolligo/BIFMO-post-1840/8157cfcf-915d-4689-89e7-b5d5eb316d08","properties":{"url":"https://bifmo.history.ac.uk/entry/harris-charles-1871","title":"Harris, Charles","address":"41, Leader Street, Chelsea, SW","active":1871,"notes":"Later renamed Ixworth Place, unable to work out numbers"},"geometry":{"coordinates":[-0.168724,51.491894]},"uuid":"8157cfcf-915d-4689-89e7-b5d5eb316d08"},{"@id":"https://w3id.org/locolligo/BIFMO-post-1840/45d5c1bc-378d-4bd8-bc2a-e2ba7773d745","properties":{"url":"https://bifmo.history.ac.uk/entry/martin-frederick-1823-39","title":"Martin, Frederick","address":"28 Michael's pl. Bromptn","active":1845,"notes":"Street now part of Brompton Road. "},"geometry":{"coordinates":[-0.16833,51.497088]},"uuid":"45d5c1bc-378d-4bd8-bc2a-e2ba7773d745"},{"@id":"https://w3id.org/locolligo/BIFMO-post-1840/134f9f83-ce6c-4f74-83ab-b9d559f639e4","properties":{"url":"https://bifmo.history.ac.uk/entry/miles-george-1871","title":"Miles, George","address":"12, High Street, St. John’s Wood, NW","active":1871},"geometry":{"coordinates":[-0.168273,51.53171]},"uuid":"134f9f83-ce6c-4f74-83ab-b9d559f639e4"},{"@id":"https://w3id.org/locolligo/BIFMO-post-1840/ee6c29cd-ade7-4b9d-934a-daeb480b0adb","properties":{"url":"https://bifmo.history.ac.uk/entry/merriman-j-mrs-1845","title":"Merriman, J.","address":"200 Brompton road SW","active":1845},"geometry":{"coordinates":[-0.168223,51.49714]},"uuid":"ee6c29cd-ade7-4b9d-934a-daeb480b0adb"},{"@id":"https://w3id.org/locolligo/BIFMO-post-1840/f7405a9e-18f1-4f5f-b19e-1e1b7524d22a","properties":{"url":"https://bifmo.history.ac.uk/entry/arnold-thomas-1871","title":"Arnold, Thomas","address":"1 Michael's pl, Brompton","active":1871,"notes":"Street now part of Brompton Road. "},"geometry":{"coordinates":[-0.167997,51.497215]},"uuid":"f7405a9e-18f1-4f5f-b19e-1e1b7524d22a"},{"@id":"https://w3id.org/locolligo/BIFMO-post-1840/e936d872-106a-46d1-b91b-e0cca77dbb38","properties":{"title":"Rayner, Harry Ambrose","address":"60, Brompton Square, SW","active":1871},"geometry":{"coordinates":[-0.167842,51.497606]},"uuid":"e936d872-106a-46d1-b91b-e0cca77dbb38"},{"@id":"https://w3id.org/locolligo/BIFMO-post-1840/bf007acb-1748-425f-87e0-4a5fb74bed7e","properties":{"url":"https://bifmo.history.ac.uk/entry/green-charles-lindsey-1871","title":"Green, Charles Lindsey","address":"27, Blenheim Street, Chelsea, SW","active":1871,"notes":"Now 'Astell Street'"},"geometry":{"coordinates":[-0.167811,51.490158]},"uuid":"bf007acb-1748-425f-87e0-4a5fb74bed7e"},{"@id":"https://w3id.org/locolligo/BIFMO-post-1840/57e31441-deb4-40c1-9ec2-997748c1d521","properties":{"url":"https://bifmo.history.ac.uk/entry/callard-john-1845","title":"Callard, John","address":"20 Upper Lisson street NW","active":1845,"notes":"now called Lisson Street"},"geometry":{"coordinates":[-0.167729,51.521195]},"uuid":"57e31441-deb4-40c1-9ec2-997748c1d521"},{"@id":"https://w3id.org/locolligo/BIFMO-post-1840/514f3828-9539-4567-ab6d-2d09d31b5b57","properties":{"url":"https://bifmo.history.ac.uk/entry/smith-james-1871","title":"Smith, James","address":"213, Brompton Road, SW","active":1871},"geometry":{"coordinates":[-0.167507,51.497321]},"uuid":"514f3828-9539-4567-ab6d-2d09d31b5b57"},{"@id":"https://w3id.org/locolligo/BIFMO-post-1840/e714bdf8-5b75-485b-ba1a-f8ed2b8e96df","properties":{"title":"Sutton, Henry","address":"154, Walton Street, SW","active":1845},"geometry":{"coordinates":[-0.167405,51.494846]},"uuid":"e714bdf8-5b75-485b-ba1a-f8ed2b8e96df"},{"@id":"https://w3id.org/locolligo/BIFMO-post-1840/d1081b50-5a95-4735-b79a-f1c67a6ba25e","properties":{"title":"Cox, ","address":"209A, Brompton Road, SW","active":1871},"geometry":{"coordinates":[-0.167297,51.497474]},"uuid":"d1081b50-5a95-4735-b79a-f1c67a6ba25e"},{"@id":"https://w3id.org/locolligo/BIFMO-post-1840/19abd148-cffa-45eb-88fe-836aef3f53a3","properties":{"url":"https://bifmo.history.ac.uk/entry/cox-george-1835-39","title":"Cox, George","address":"209A, Brompton Road, SW","active":1871},"geometry":{"coordinates":[-0.167297,51.497474]},"uuid":"19abd148-cffa-45eb-88fe-836aef3f53a3"},{"@id":"https://w3id.org/locolligo/BIFMO-post-1840/60ebf59c-4c5a-4746-8fc3-0ad30b14e6ed","properties":{"url":"https://bifmo.history.ac.uk/entry/smith-edward-1871","title":"Smith, Edwd.","address":"209, Brompton Road, SW","active":1871},"geometry":{"coordinates":[-0.167297,51.497474]},"uuid":"60ebf59c-4c5a-4746-8fc3-0ad30b14e6ed"},{"@id":"https://w3id.org/locolligo/BIFMO-post-1840/da8e0e45-692a-4bde-b8b3-b87eb8924e9a","properties":{"url":"https://bifmo.history.ac.uk/entry/jenkins-william-1871-0","title":"Jenkins, Wm.","address":"5, Brown’s Court, Edgware Road, W","active":1871,"notes":"Street lost, plotted using Charles E. Goad Ltd's 1887 map."},"geometry":{"coordinates":[-0.166847,51.517942]},"uuid":"da8e0e45-692a-4bde-b8b3-b87eb8924e9a"},{"@id":"https://w3id.org/locolligo/BIFMO-post-1840/32222726-96a4-4e83-a0e5-d4608c7f890d","properties":{"url":"https://bifmo.history.ac.uk/entry/barr-charles-joseph-1871","title":"Barr, Chas. Jsph.","address":"1 Golden lion ct. Aldgs. St","active":1871},"geometry":{"coordinates":[-0.16679,51.489805]},"uuid":"32222726-96a4-4e83-a0e5-d4608c7f890d"},{"@id":"https://w3id.org/locolligo/BIFMO-post-1840/1eea5e92-3155-4701-bc18-6878579142ba","properties":{"url":"https://bifmo.history.ac.uk/entry/eibel-joseph-1871","title":"Eibel, Jospeh","address":"20, Godfrey Street, Chelsea, SW","active":1871},"geometry":{"coordinates":[-0.16679,51.489805]},"uuid":"1eea5e92-3155-4701-bc18-6878579142ba"},{"@id":"https://w3id.org/locolligo/BIFMO-post-1840/0625951b-862f-4096-b99f-0a7c94f2a774","properties":{"url":"https://bifmo.history.ac.uk/entry/paskell-william-1845","title":"Paskell, William","address":"162 Brompton road SW","active":1845},"geometry":{"coordinates":[-0.166726,51.498213]},"uuid":"0625951b-862f-4096-b99f-0a7c94f2a774"},{"@id":"https://w3id.org/locolligo/BIFMO-post-1840/633af4da-b823-4ef6-a85a-e0748781eba4","properties":{"title":"Rolls, James","address":"Marlborough Road, SE","active":1871,"notes":"Street now known as Draycott avenue"},"geometry":{"coordinates":[-0.166709,51.493254]},"uuid":"633af4da-b823-4ef6-a85a-e0748781eba4"},{"@id":"https://w3id.org/locolligo/BIFMO-post-1840/3dc23303-830e-4901-809d-afaebcf87279","properties":{"title":"Williams , James","address":"135, King’s Road, Chelsea, SW","active":1871},"geometry":{"coordinates":[-0.166695,51.488155]},"uuid":"3dc23303-830e-4901-809d-afaebcf87279"},{"@id":"https://w3id.org/locolligo/BIFMO-post-1840/30b97dcd-6086-4d27-92c2-e8ee7ba4c661","properties":{"url":"https://bifmo.history.ac.uk/entry/perry-john-1826-39","title":"Perry, John","address":"44 Manor street, Chelsea SW","active":1845,"notes":"Street now known as Chelsea Manor Street"},"geometry":{"coordinates":[-0.166691,51.486159]},"uuid":"30b97dcd-6086-4d27-92c2-e8ee7ba4c661"},{"@id":"https://w3id.org/locolligo/BIFMO-post-1840/815c50ac-919e-4776-b430-762144c52303","properties":{"url":"https://bifmo.history.ac.uk/entry/andrews-william-1871","title":"Andrews, Wm.","address":"147 Marlborough road SW","active":1871,"notes":"Street now known as Draycott avenue"},"geometry":{"coordinates":[-0.166505,51.493229]},"uuid":"815c50ac-919e-4776-b430-762144c52303"},{"@id":"https://w3id.org/locolligo/BIFMO-post-1840/690f7a56-a07f-4880-b525-bdfe0dbe9b28","properties":{"url":"https://bifmo.history.ac.uk/entry/smith-richard-1832-39","title":"Smith , Richd.","address":"148, Brompton Road, SW","active":1871},"geometry":{"coordinates":[-0.166234,51.498418]},"uuid":"690f7a56-a07f-4880-b525-bdfe0dbe9b28"},{"@id":"https://w3id.org/locolligo/BIFMO-post-1840/0f902b9d-9ade-41f8-832f-d6710534ea6d","properties":{"url":"https://bifmo.history.ac.uk/entry/hughes-robert-1835-39","title":"Hughes, Robert","address":"3, Oakley Crescent, Chelsea, SW","active":1845},"geometry":{"coordinates":[-0.166219,51.485011]},"uuid":"0f902b9d-9ade-41f8-832f-d6710534ea6d"},{"@id":"https://w3id.org/locolligo/BIFMO-post-1840/42c1ae26-22ad-43ac-92ee-e1e7c81991c4","properties":{"title":"Moate , Samuel","address":"131 & 133 Marlborough road, Chelsea SW","active":1871,"notes":"Street now known as Draycott avenue"},"geometry":{"coordinates":[-0.166194,51.493221]},"uuid":"42c1ae26-22ad-43ac-92ee-e1e7c81991c4"},{"@id":"https://w3id.org/locolligo/BIFMO-post-1840/dbcdd5bb-54fd-41cd-99de-62e5a6a9e65b","properties":{"url":"https://bifmo.history.ac.uk/entry/king-william-1839","title":"King, William","address":"43, Hartland Road, NW","active":1845,"notes":-0.147354},"geometry":{"coordinates":[-0.166174,51.518978]},"uuid":"dbcdd5bb-54fd-41cd-99de-62e5a6a9e65b"},{"@id":"https://w3id.org/locolligo/BIFMO-post-1840/e15a694b-15dc-4144-9948-a43330ca35e3","properties":{"url":"https://bifmo.history.ac.uk/entry/bow-charles-1826-39","title":"Bow, Charles","address":"21 Crawford st. Portmn. Sq; 23 Harcourt street, New road","active":1845},"geometry":{"coordinates":[-0.166174,51.518978]},"uuid":"e15a694b-15dc-4144-9948-a43330ca35e3"},{"@id":"https://w3id.org/locolligo/BIFMO-post-1840/285c6e2a-db91-4ce4-9974-a19b58d3b956","properties":{"title":"Schofield , John T.","address":"12, Hart’s Lane, Bethnal Green Road, E","active":1871,"notes":-0.0664505},"geometry":{"coordinates":[-0.166174,51.518978]},"uuid":"285c6e2a-db91-4ce4-9974-a19b58d3b956"},{"@id":"https://w3id.org/locolligo/BIFMO-post-1840/3c9d3b62-73e2-4b54-b103-fb44ab4d07e1","properties":{"url":"https://bifmo.history.ac.uk/entry/matthews-stephen-1871","title":"Matthews, Stephen","address":"23 Harcourt st., New road","active":1871},"geometry":{"coordinates":[-0.166174,51.554442]},"uuid":"3c9d3b62-73e2-4b54-b103-fb44ab4d07e1"},{"@id":"https://w3id.org/locolligo/BIFMO-post-1840/d989dc8e-f1da-4e7b-9605-b4fed3e2c336","properties":{"url":"https://bifmo.history.ac.uk/entry/dawes-thomas-1871","title":"Dawes, Thomas","address":"174 & 176, King’s Road, SW","active":1871},"geometry":{"coordinates":[-0.166127,51.488694]},"uuid":"d989dc8e-f1da-4e7b-9605-b4fed3e2c336"},{"@id":"https://w3id.org/locolligo/BIFMO-post-1840/53f0b370-c8b9-4dbf-b3cc-4dd295fd5031","properties":{"url":"https://bifmo.history.ac.uk/entry/matthews-thomas-1845","title":"Matthews, Thomas","address":"79 Manor st. Chelsea SW","active":1845,"notes":"Street now known as Chelsea Manor Street"},"geometry":{"coordinates":[-0.166042,51.48541]},"uuid":"53f0b370-c8b9-4dbf-b3cc-4dd295fd5031"},{"@id":"https://w3id.org/locolligo/BIFMO-post-1840/1c825a6e-3d4c-446c-bdf3-9439c5cebd0f","properties":{"url":"https://bifmo.history.ac.uk/entry/jones-samuel-1845","title":"Jones, Samuel","address":"2 Broadley ter. Blandfd. Sq","active":1845},"geometry":{"coordinates":[-0.166015,51.524331]},"uuid":"1c825a6e-3d4c-446c-bdf3-9439c5cebd0f"},{"@id":"https://w3id.org/locolligo/BIFMO-post-1840/636350b6-c903-472f-9b6e-8feb7b7e57cd","properties":{"url":"https://bifmo.history.ac.uk/entry/deighton-samuel-1871","title":"Deighton , Samuel","address":"1, Chapel Plac, Bromptn, S","active":1871,"notes":"Street now known as Cheval Place"},"geometry":{"coordinates":[-0.165994,51.499068]},"uuid":"636350b6-c903-472f-9b6e-8feb7b7e57cd"},{"@id":"https://w3id.org/locolligo/BIFMO-post-1840/06b74185-ced6-4a28-9a3d-0a7ddbd9f92f","properties":{"url":"https://bifmo.history.ac.uk/entry/bartholomew-george-co-1871-1880","title":"Bartholomew, Geo.","address":"8 Jubilee ter. Chels","active":1871},"geometry":{"coordinates":[-0.165982,51.489661]},"uuid":"06b74185-ced6-4a28-9a3d-0a7ddbd9f92f"},{"@id":"https://w3id.org/locolligo/BIFMO-post-1840/ce5d507a-9ae5-43cb-9166-6992cf2d9bc6","properties":{"url":"https://bifmo.history.ac.uk/entry/hubbard-william-1871","title":"Hubbard, William","address":"168, King’s Road, Chelsea, SW","active":1871},"geometry":{"coordinates":[-0.16592,51.488727]},"uuid":"ce5d507a-9ae5-43cb-9166-6992cf2d9bc6"},{"@id":"https://w3id.org/locolligo/BIFMO-post-1840/1839168c-8549-42d4-a1e3-ee40b00f04ad","properties":{"url":"https://bifmo.history.ac.uk/entry/brown-robert-1871","title":"Brown, Robt.","address":"43 Chapel st. Edg. Rd","active":1871},"geometry":{"coordinates":[-0.165908,51.519983]},"uuid":"1839168c-8549-42d4-a1e3-ee40b00f04ad"},{"@id":"https://w3id.org/locolligo/BIFMO-post-1840/7599a4c2-bfab-48ab-bf4c-16d8570410ad","properties":{"url":"https://bifmo.history.ac.uk/entry/larking-samuel-1871","title":"Larking, Samuel","address":"36 Queen st. Chlse","active":1871,"notes":"Street now known as Flood Street"},"geometry":{"coordinates":[-0.165876,51.486885]},"uuid":"7599a4c2-bfab-48ab-bf4c-16d8570410ad"},{"@id":"https://w3id.org/locolligo/BIFMO-post-1840/f3a3d678-5424-4670-a53f-9b56a05d171f","properties":{"url":"https://bifmo.history.ac.uk/entry/dyer-edward-1871","title":"Dyer, Edward","address":"90 Walton street, ChelseaSW","active":1871},"geometry":{"coordinates":[-0.165779,51.495853]},"uuid":"f3a3d678-5424-4670-a53f-9b56a05d171f"},{"@id":"https://w3id.org/locolligo/BIFMO-post-1840/50bc17af-67c0-403d-b0ad-5e50cd16bd49","properties":{"title":"Roberts , George","address":"51 Lisson grove NW","active":1871,"notes":"Not on Horwood or Goad, estimated using OS 40s-60s"},"geometry":{"coordinates":[-0.165735,51.522761]},"uuid":"50bc17af-67c0-403d-b0ad-5e50cd16bd49"},{"@id":"https://w3id.org/locolligo/BIFMO-post-1840/2cd187e6-e0f0-4b5c-a458-d62e7e537be8","properties":{"url":"https://bifmo.history.ac.uk/entry/wilkie-john-1845","title":"Wilkie, John","address":"31, Upper Berkeley Street West, W","active":1845,"notes":"https://www.maps.thehunthouse.com/Streets/Old_to_New_Abolished_London_Street_Names.htm#U"},"geometry":{"coordinates":[-0.165667,51.514473]},"uuid":"2cd187e6-e0f0-4b5c-a458-d62e7e537be8"},{"@id":"https://w3id.org/locolligo/BIFMO-post-1840/d3cb8df3-7820-46b0-9c0c-80bb1a283ab2","properties":{"url":"https://bifmo.history.ac.uk/entry/lee-george-1871","title":"Lee, Stephen","address":"22, Orford Street, Chelsea, SW","active":1871},"geometry":{"coordinates":[-0.165381,51.49315]},"uuid":"d3cb8df3-7820-46b0-9c0c-80bb1a283ab2"},{"@id":"https://w3id.org/locolligo/BIFMO-post-1840/9eac4c7a-84ff-49eb-a54d-b6fc29aa93dc","properties":{"url":"https://bifmo.history.ac.uk/entry/duppa-co-1871","title":"Duppa, ","address":"3, Upper Porchester Street, W","active":1871,"notes":"Street now called Porchester Place. Porchester Place was previously divided into Lower Porchester Street and Upper Porchester Street. This address iin google maps located the shop on what was previously called Lower Porchester Street. https://www.loc.gov/resource/g5754l.fi000101/?r=0.148,0.297,0.192,0.094,0 https://www.british-history.ac.uk/vch/middx/vol9/pp190-198 "},"geometry":{"coordinates":[-0.165362,51.514803]},"uuid":"9eac4c7a-84ff-49eb-a54d-b6fc29aa93dc"},{"@id":"https://w3id.org/locolligo/BIFMO-post-1840/b483c5e5-ba1a-4e8c-aa31-1520a3c2cd4b","properties":{"url":"https://bifmo.history.ac.uk/entry/connolly-joseph-1871","title":"Connelly, Joseph","address":"18, Markham Street, Chelsea, SW","active":1871},"geometry":{"coordinates":[-0.165289,51.489956]},"uuid":"b483c5e5-ba1a-4e8c-aa31-1520a3c2cd4b"},{"@id":"https://w3id.org/locolligo/BIFMO-post-1840/50e2e017-9533-4366-89ea-282db950bec0","properties":{"url":"https://bifmo.history.ac.uk/entry/clare-henry-samuel-1845","title":"Clare, Henry & Samuel","address":"11, Newnham Street, Edgware Road, W","active":1845},"geometry":{"coordinates":[-0.165199,51.517591]},"uuid":"50e2e017-9533-4366-89ea-282db950bec0"},{"@id":"https://w3id.org/locolligo/BIFMO-post-1840/cf9437ad-c6f0-4a29-8052-afd67db5f135","properties":{"title":"Warren, James","address":"38 Homer street, Marylebone W","active":1845},"geometry":{"coordinates":[-0.165008,51.519617]},"uuid":"cf9437ad-c6f0-4a29-8052-afd67db5f135"},{"@id":"https://w3id.org/locolligo/BIFMO-post-1840/4968b077-5627-4c2e-8fab-e2c2bee7099f","properties":{"url":"https://bifmo.history.ac.uk/entry/charles-reynolds-co-1871","title":"Charles, ","address":"3, Markham Street, Chelsea, SW","active":1871},"geometry":{"coordinates":[-0.164939,51.48934]},"uuid":"4968b077-5627-4c2e-8fab-e2c2bee7099f"},{"@id":"https://w3id.org/locolligo/BIFMO-post-1840/6c5cd623-c75c-441d-9b3c-8dbd6defdb34","properties":{"url":"https://bifmo.history.ac.uk/entry/catherick-henry-1839","title":"Catherick, Henry","address":"20, Lisson Grove, NW","active":1845,"notes":"Not on Horwood or Goad, estimated using OS 40s-60s"},"geometry":{"coordinates":[-0.164841,51.521933]},"uuid":"6c5cd623-c75c-441d-9b3c-8dbd6defdb34"},{"@id":"https://w3id.org/locolligo/BIFMO-post-1840/2986de82-cdcb-40dd-8b74-e2fb947f5489","properties":{"url":"https://bifmo.history.ac.uk/entry/hicks-james-1835-39","title":"Hicks, James","address":"54 Walton street, Chelsea SW","active":1871},"geometry":{"coordinates":[-0.164813,51.496364]},"uuid":"2986de82-cdcb-40dd-8b74-e2fb947f5489"},{"@id":"https://w3id.org/locolligo/BIFMO-post-1840/d82f64d4-15da-477b-8bdd-0acf8a2fd061","properties":{"url":"https://bifmo.history.ac.uk/entry/davis-charles-frederick-1871","title":"Davis, Charles Fredk.","address":"9 Homer st. Marylebone rd W","active":1871},"geometry":{"coordinates":[-0.16478,51.519427]},"uuid":"d82f64d4-15da-477b-8bdd-0acf8a2fd061"},{"@id":"https://w3id.org/locolligo/BIFMO-post-1840/340c645d-3f5d-44e2-841d-7f66c9a18cb0","properties":{"url":"https://bifmo.history.ac.uk/entry/law-brothers-1871-1905","title":"Law, ","address":"9, Upper Berkeley Street West, W","active":1871,"notes":"https://www.maps.thehunthouse.com/Streets/Old_to_New_Abolished_London_Street_Names.htm#U"},"geometry":{"coordinates":[-0.164759,51.514571]},"uuid":"340c645d-3f5d-44e2-841d-7f66c9a18cb0"},{"@id":"https://w3id.org/locolligo/BIFMO-post-1840/0f32e989-3813-4cd4-ad97-aa549484deea","properties":{"url":"https://bifmo.history.ac.uk/entry/connor-richard-1845","title":"Connor, Richard","address":"30 Homer st. Marylebone W","active":1845},"geometry":{"coordinates":[-0.164717,51.519398]},"uuid":"0f32e989-3813-4cd4-ad97-aa549484deea"},{"@id":"https://w3id.org/locolligo/BIFMO-post-1840/a9649ae3-2bf6-4e98-90b3-1eba7eeaf93f","properties":{"url":"https://bifmo.history.ac.uk/entry/dalby-thomas-1871","title":"Dalby, Thos.","address":"28, Dorchester pl., Blandford sq., NW","active":1871,"notes":"Street lost, approximate location"},"geometry":{"coordinates":[-0.164707,51.523683]},"uuid":"a9649ae3-2bf6-4e98-90b3-1eba7eeaf93f"},{"@id":"https://w3id.org/locolligo/BIFMO-post-1840/ef103948-2ed7-4247-91b6-242949c00e58","properties":{"title":"Wright , Rd.","address":"258, Marylebone Road, NW","active":1871,"notes":"Street (partially) lost, approximate location"},"geometry":{"coordinates":[-0.164705,51.521368]},"uuid":"ef103948-2ed7-4247-91b6-242949c00e58"},{"@id":"https://w3id.org/locolligo/BIFMO-post-1840/964d7bb6-e106-4a65-846c-a1d59bd0cfd0","properties":{"url":"https://bifmo.history.ac.uk/entry/hawkins-charles-1839","title":"Hawkins, Charles","address":"6 Lisson grove north","active":1871,"notes":"Not on Horwood or Goad, estimated using OS 40s-60s"},"geometry":{"coordinates":[-0.164667,51.521566]},"uuid":"964d7bb6-e106-4a65-846c-a1d59bd0cfd0"},{"@id":"https://w3id.org/locolligo/BIFMO-post-1840/7e318d0e-4430-4b1c-8a32-c051b62acff5","properties":{"url":"https://bifmo.history.ac.uk/entry/wellsted-james-1820-39","title":"Wellsted, James","address":"12 & 13 Molyneux st. Bryanstone sq. ; 30 Shouldham st. ; & Welsted yard, Seymour place","active":1845},"geometry":{"coordinates":[-0.164614,51.518134]},"uuid":"7e318d0e-4430-4b1c-8a32-c051b62acff5"},{"@id":"https://w3id.org/locolligo/BIFMO-post-1840/ab79436b-34d2-443d-b918-d2ddc456606f","properties":{"url":"https://bifmo.history.ac.uk/entry/thick-robert-1845","title":"Thick, Robert","address":"14 Molyneux st. Bryanstn.sq","active":1845},"geometry":{"coordinates":[-0.164556,51.517969]},"uuid":"ab79436b-34d2-443d-b918-d2ddc456606f"},{"@id":"https://w3id.org/locolligo/BIFMO-post-1840/1fcf22b1-932f-49e5-a478-18a019890b05","properties":{"title":"Taylor, Daniel","address":"20 Portsea pl. Edgware rd","active":1845},"geometry":{"coordinates":[-0.16446,51.515243]},"uuid":"1fcf22b1-932f-49e5-a478-18a019890b05"},{"@id":"https://w3id.org/locolligo/BIFMO-post-1840/a9e9aab2-229d-4835-9e4d-ad77c7ce8cf0","properties":{"url":"https://bifmo.history.ac.uk/entry/jacobs-brothers-1871","title":"Jacobs, ","address":"137, Brompton Road, SW","active":1871},"geometry":{"coordinates":[-0.164413,51.499004]},"uuid":"a9e9aab2-229d-4835-9e4d-ad77c7ce8cf0"},{"@id":"https://w3id.org/locolligo/BIFMO-post-1840/514c9db8-fc92-49d9-95e5-3a4243efee37","properties":{"url":"https://bifmo.history.ac.uk/entry/hampton-sons-1830-1957","title":"Hampton, ","address":"1 Queen st. Brmptn. Rd","active":1871,"notes":"Street now known as Hans Road"},"geometry":{"coordinates":[-0.164386,51.499026]},"uuid":"514c9db8-fc92-49d9-95e5-3a4243efee37"},{"@id":"https://w3id.org/locolligo/BIFMO-post-1840/4ee04e9f-3927-450e-b5b3-09905239a6a2","properties":{"url":"https://bifmo.history.ac.uk/entry/lewis-frederick-1871","title":"Lewis, Frederick","address":"28, Hartlnd.rd.ChalkFrm.rd, NW","active":1871,"notes":-0.1481156},"geometry":{"coordinates":[-0.16431,51.519626]},"uuid":"4ee04e9f-3927-450e-b5b3-09905239a6a2"},{"@id":"https://w3id.org/locolligo/BIFMO-post-1840/5fb24d88-8dba-4f96-ade9-be0296e57ff5","properties":{"title":"Simmonds, Richard","address":"13, Trevor sq.Knightsbdge, SW","active":1845},"geometry":{"coordinates":[-0.16425,51.500466]},"uuid":"5fb24d88-8dba-4f96-ade9-be0296e57ff5"},{"@id":"https://w3id.org/locolligo/BIFMO-post-1840/0b85292e-5d5e-410c-8143-6da1d517f2a3","properties":{"url":"https://bifmo.history.ac.uk/entry/bozier-joseph-1845-1871","title":"Bozier, Joseph","address":"15, Trevor sq., Knightsbridge, SW","active":1871},"geometry":{"coordinates":[-0.164216,51.500398]},"uuid":"0b85292e-5d5e-410c-8143-6da1d517f2a3"},{"@id":"https://w3id.org/locolligo/BIFMO-post-1840/f9cc6bdc-17d5-48ae-8cb3-2e340e1f617b","properties":{"url":"https://bifmo.history.ac.uk/entry/moore-hunton-1871-1886","title":"Moore & Hunton, ","address":"88, Brompton Road, SW","active":1871},"geometry":{"coordinates":[-0.163854,51.499694]},"uuid":"f9cc6bdc-17d5-48ae-8cb3-2e340e1f617b"},{"@id":"https://w3id.org/locolligo/BIFMO-post-1840/28fc9ee6-a86a-492e-a24b-102f87a1338f","properties":{"url":"https://bifmo.history.ac.uk/entry/smith-thomas-1871-1","title":"Smith, Thos.","address":"41 Brompton row","active":1871,"notes":"Brompton Row is now part of Brompton Road, plotted with information from British History Online: Survey of London"},"geometry":{"coordinates":[-0.163515,51.49985]},"uuid":"28fc9ee6-a86a-492e-a24b-102f87a1338f"},{"@id":"https://w3id.org/locolligo/BIFMO-post-1840/311f4d20-de18-40fc-bcca-878d0f898d1f","properties":{"title":"Smith, William Henry","address":"63 & 65, King’s Road, Chelsea, SW","active":1871},"geometry":{"coordinates":[-0.16343,51.489462]},"uuid":"311f4d20-de18-40fc-bcca-878d0f898d1f"},{"@id":"https://w3id.org/locolligo/BIFMO-post-1840/de18c748-1881-4856-b0a1-f2e0bd207e89","properties":{"url":"https://bifmo.history.ac.uk/entry/smith-holmes-1826","title":"Smith, Jas.","address":"29.5, Shouldham Street, Bryanston Square, W","active":1845},"geometry":{"coordinates":[-0.163391,51.517917]},"uuid":"de18c748-1881-4856-b0a1-f2e0bd207e89"},{"@id":"https://w3id.org/locolligo/BIFMO-post-1840/f80e7308-9548-41fc-9f68-255010edd857","properties":{"url":"https://bifmo.history.ac.uk/entry/wellsted-james-1820-39","title":"Wellsted, James","address":"12 & 13 Molyneux st. Bryanstone sq. ; 30 Shouldham st. ; & Welsted yard, Seymour place","active":1845},"geometry":{"coordinates":[-0.163388,51.517913]},"uuid":"f80e7308-9548-41fc-9f68-255010edd857"},{"@id":"https://w3id.org/locolligo/BIFMO-post-1840/8013f044-98f5-485a-836d-a3d17e8acdea","properties":{"url":"https://bifmo.history.ac.uk/entry/smith-w-h-1835-37","title":"Smith, William Henry","address":"94 York street, Westminster","active":1845},"geometry":{"coordinates":[-0.163127,51.519944]},"uuid":"8013f044-98f5-485a-836d-a3d17e8acdea"},{"@id":"https://w3id.org/locolligo/BIFMO-post-1840/84b372dd-f522-49b8-ab2e-d359fac03550","properties":{"url":"https://bifmo.history.ac.uk/entry/fear-william-1845","title":"Fear, William","address":"36 Nutford pl. Bryanst. Sq","active":1845},"geometry":{"coordinates":[-0.163124,51.51677]},"uuid":"84b372dd-f522-49b8-ab2e-d359fac03550"},{"@id":"https://w3id.org/locolligo/BIFMO-post-1840/f2eec143-c83c-4a56-8044-eb5ded5f96ef","properties":{"url":"https://bifmo.history.ac.uk/entry/catesby-frederick-1837-39","title":"Catesby, Frederick","address":"14 Brown st. Bryanstn.sq","active":1871},"geometry":{"coordinates":[-0.162675,51.516718]},"uuid":"f2eec143-c83c-4a56-8044-eb5ded5f96ef"},{"@id":"https://w3id.org/locolligo/BIFMO-post-1840/0357ec6a-736c-4c0f-abc7-cc4a69288f9c","properties":{"url":"https://bifmo.history.ac.uk/entry/brafield-edward-1845","title":"Brafield, Edward","address":"4 Crawford st. Portman sq","active":1845},"geometry":{"coordinates":[-0.162621,51.519746]},"uuid":"0357ec6a-736c-4c0f-abc7-cc4a69288f9c"},{"@id":"https://w3id.org/locolligo/BIFMO-post-1840/482ad5f1-ef5d-444f-8ab0-1aea6da39721","properties":{"url":"https://bifmo.history.ac.uk/entry/donne-george-j-1826-37","title":"Donne, Geo. J. & Joseph","address":"9 Knightsbridge green SW","active":1871},"geometry":{"coordinates":[-0.162596,51.501446]},"uuid":"482ad5f1-ef5d-444f-8ab0-1aea6da39721"},{"@id":"https://w3id.org/locolligo/BIFMO-post-1840/b220e97b-7ab2-4756-970a-6cba1c14d90d","properties":{"title":"Rowe , Thos.","address":"13 High rd. Knightsbridge","active":1871},"geometry":{"coordinates":[-0.162426,51.50137]},"uuid":"b220e97b-7ab2-4756-970a-6cba1c14d90d"},{"@id":"https://w3id.org/locolligo/BIFMO-post-1840/62342874-c751-442c-915d-f5e8fa00660c","properties":{"url":"https://bifmo.history.ac.uk/entry/crawley-henry-1871","title":"Crawley, Henry","address":"73, 75 & 81, Brmptn. Road, SW","active":1871},"geometry":{"coordinates":[-0.162422,51.500211]},"uuid":"62342874-c751-442c-915d-f5e8fa00660c"},{"@id":"https://w3id.org/locolligo/BIFMO-post-1840/b4dc2ae7-8141-4552-8aeb-6c0b3258495c","properties":{"url":"https://bifmo.history.ac.uk/entry/anderson-william-1820-39","title":"Anderson, William","address":"27 Circus st. New rd. Mrylb","active":1845},"geometry":{"coordinates":[-0.162401,51.520536]},"uuid":"b4dc2ae7-8141-4552-8aeb-6c0b3258495c"},{"@id":"https://w3id.org/locolligo/BIFMO-post-1840/4ff26de1-6330-4487-b47e-b04f65d8f4f9","properties":{"url":"https://bifmo.history.ac.uk/entry/andrews-alfred-1871","title":"Andrews, Alfred","address":"27 Circus st. New road","active":1871},"geometry":{"coordinates":[-0.162401,51.520536]},"uuid":"4ff26de1-6330-4487-b47e-b04f65d8f4f9"},{"@id":"https://w3id.org/locolligo/BIFMO-post-1840/568d9c13-e408-4880-964b-9d8cde0688aa","properties":{"title":"Seagrave, Mary","address":"17 Queen street, Brompton SW","active":1845,"notes":"Street now known as Hans Road"},"geometry":{"coordinates":[-0.162372,51.498525]},"uuid":"568d9c13-e408-4880-964b-9d8cde0688aa"},{"@id":"https://w3id.org/locolligo/BIFMO-post-1840/d0f795b6-e8ae-4c78-944e-39ac5cf5b1be","properties":{"url":"https://bifmo.history.ac.uk/entry/taylor-william-1871","title":"Taylor, Wm.","address":"28, Circus Street, Marylebne, W","active":1871},"geometry":{"coordinates":[-0.162358,51.520606]},"uuid":"d0f795b6-e8ae-4c78-944e-39ac5cf5b1be"},{"@id":"https://w3id.org/locolligo/BIFMO-post-1840/89964e06-e46f-4588-84a4-5ec9253d6fe6","properties":{"url":"https://bifmo.history.ac.uk/entry/case-matthew-1845","title":"Case, Matthew","address":"25, Circus Street, Marylebone Road, W","active":1845},"geometry":{"coordinates":[-0.162344,51.520475]},"uuid":"89964e06-e46f-4588-84a4-5ec9253d6fe6"},{"@id":"https://w3id.org/locolligo/BIFMO-post-1840/e65f72cb-091e-4a48-b42b-4cd2119a8acc","properties":{"url":"https://bifmo.history.ac.uk/entry/jay-joseph-1835-39","title":"Jay, Joseph","address":"7, New Street, Brompton Road, SW","active":1845,"notes":"approx.; New Street is now the part of Hans Crescent which forms the northeast boundary of Harrods (cf. Greenwood 1828)"},"geometry":{"coordinates":[-0.162282,51.499723]},"uuid":"e65f72cb-091e-4a48-b42b-4cd2119a8acc"},{"@id":"https://w3id.org/locolligo/BIFMO-post-1840/8419abdf-82d1-483c-ac30-f35d6a32fa4a","properties":{"title":"Utting, Henry","address":"11, York Street, Chelsea, SW","active":1845,"notes":"*Name change to Hans Crescent "},"geometry":{"coordinates":[-0.162214,51.499672]},"uuid":"8419abdf-82d1-483c-ac30-f35d6a32fa4a"},{"@id":"https://w3id.org/locolligo/BIFMO-post-1840/71342481-26ce-404b-aa8c-6d921b89adc0","properties":{"url":"https://bifmo.history.ac.uk/entry/montague-john-new-1871","title":"Montague , John New","address":"26, Wyndham Street, Bryanston sq, W","active":1871},"geometry":{"coordinates":[-0.162,51.520394]},"uuid":"71342481-26ce-404b-aa8c-6d921b89adc0"},{"@id":"https://w3id.org/locolligo/BIFMO-post-1840/06b3ef1d-56f8-43af-869f-5d14425e87ca","properties":{"url":"https://bifmo.history.ac.uk/entry/keliher-michael-1871","title":"Keliher, Michael","address":"10 King's road, Pimlico","active":1871},"geometry":{"coordinates":[-0.161992,51.48606]},"uuid":"06b3ef1d-56f8-43af-869f-5d14425e87ca"},{"@id":"https://w3id.org/locolligo/BIFMO-post-1840/f92acee7-f567-454f-9787-171809fea1ee","properties":{"url":"https://bifmo.history.ac.uk/entry/painter-george-co-1835","title":"Painter, George","address":"8 Wyndham pl. Bryanstn. sq","active":1845},"geometry":{"coordinates":[-0.16199,51.519528]},"uuid":"f92acee7-f567-454f-9787-171809fea1ee"},{"@id":"https://w3id.org/locolligo/BIFMO-post-1840/3ec46050-ed69-4f64-bd32-b10eda9d2aa1","properties":{"url":"https://bifmo.history.ac.uk/entry/king-charles-1835-39","title":"King, Charles","address":"2 Brompton rd. Brompton","active":1845},"geometry":{"coordinates":[-0.161927,51.501194]},"uuid":"3ec46050-ed69-4f64-bd32-b10eda9d2aa1"},{"@id":"https://w3id.org/locolligo/BIFMO-post-1840/68516bf4-350e-47d7-ac3e-8521d5716467","properties":{"url":"https://bifmo.history.ac.uk/entry/critchfield-henry-1871","title":"Critchfield , Henry","address":"43 King's rd. east, Chelsea","active":1871},"geometry":{"coordinates":[-0.161904,51.490274]},"uuid":"68516bf4-350e-47d7-ac3e-8521d5716467"},{"@id":"https://w3id.org/locolligo/BIFMO-post-1840/c4720071-b715-4a0e-8fd8-5606e31b12d6","properties":{"url":"https://bifmo.history.ac.uk/entry/pitman-co-pitman-cuthbertson-1871-1886","title":"Pitman , ","address":"38, Moore Street, Chelsea, SW","active":1871},"geometry":{"coordinates":[-0.161886,51.493833]},"uuid":"c4720071-b715-4a0e-8fd8-5606e31b12d6"},{"@id":"https://w3id.org/locolligo/BIFMO-post-1840/ced99899-3022-45b5-9bee-38d5a0b57aef","properties":{"url":"https://bifmo.history.ac.uk/entry/fox-henry-h-1845","title":"Fox, Henry H.","address":"59 Seymour pl. Bryanston sq W","active":1845},"geometry":{"coordinates":[-0.16188,51.516279]},"uuid":"ced99899-3022-45b5-9bee-38d5a0b57aef"},{"@id":"https://w3id.org/locolligo/BIFMO-post-1840/0ab96e02-1ac5-4747-9144-0f62ad69bc90","properties":{"url":"https://bifmo.history.ac.uk/entry/dench-henry-1826-39","title":"Dench, Henry","address":"65 Seymour place","active":1845},"geometry":{"coordinates":[-0.161781,51.516381]},"uuid":"0ab96e02-1ac5-4747-9144-0f62ad69bc90"},{"@id":"https://w3id.org/locolligo/BIFMO-post-1840/4f72a6f6-fd8d-4c54-a33e-7b7c932adc90","properties":{"url":"https://bifmo.history.ac.uk/entry/clark-francis-1871","title":"Clark, Francis","address":"10 Wyndham st. Bryanstn. Sq","active":1871},"geometry":{"coordinates":[-0.16178,51.520633]},"uuid":"4f72a6f6-fd8d-4c54-a33e-7b7c932adc90"},{"@id":"https://w3id.org/locolligo/BIFMO-post-1840/17418d3a-dc5d-40d8-81b3-8e8d0bbcbd6e","properties":{"url":"https://bifmo.history.ac.uk/entry/butti-alex-1845","title":"Butti, Alex","address":"1 Davis pl. Marlbro' rd. Chels","active":1845,"notes":"Street lost, approximate location"},"geometry":{"coordinates":[-0.161776,51.491946]},"uuid":"17418d3a-dc5d-40d8-81b3-8e8d0bbcbd6e"},{"@id":"https://w3id.org/locolligo/BIFMO-post-1840/737087ee-183c-4f20-9fe6-bedb9a6fb623","properties":{"url":"https://bifmo.history.ac.uk/entry/dench-william-1871","title":"Dench, Wm.","address":"58 Seymour place","active":1871},"geometry":{"coordinates":[-0.16175,51.516728]},"uuid":"737087ee-183c-4f20-9fe6-bedb9a6fb623"},{"@id":"https://w3id.org/locolligo/BIFMO-post-1840/f7a9658a-74c2-4540-bc5d-3a880c904684","properties":{"url":"https://bifmo.history.ac.uk/entry/shuffrey-william-henry-1826-39","title":"Shuffrey, William Henry","address":"54 Seymour pl. Bryanst. Sq","active":1845},"geometry":{"coordinates":[-0.161744,51.516711]},"uuid":"f7a9658a-74c2-4540-bc5d-3a880c904684"},{"@id":"https://w3id.org/locolligo/BIFMO-post-1840/b8dad594-a1d5-456d-b474-962e3924f899","properties":{"url":"https://bifmo.history.ac.uk/entry/fayrer-john-t-1826-39","title":"Fayrer, John","address":"52 Seymour pl. Bryanston sq","active":1845},"geometry":{"coordinates":[-0.161739,51.516702]},"uuid":"b8dad594-a1d5-456d-b474-962e3924f899"},{"@id":"https://w3id.org/locolligo/BIFMO-post-1840/2b17839f-7df8-4cc9-a417-54946b16d646","properties":{"url":"https://bifmo.history.ac.uk/entry/couty-david-jnr-1823-35","title":"Couty, D.","address":"3 Boston street, Dorset sq NW","active":1845,"notes":"Now 'Taunton Place'"},"geometry":{"coordinates":[-0.161687,51.525451]},"uuid":"2b17839f-7df8-4cc9-a417-54946b16d646"},{"@id":"https://w3id.org/locolligo/BIFMO-post-1840/47b51d86-fd17-4bb2-b3bf-dba64e743be0","properties":{"title":"Smith, John James, jun.","address":"2, Boston Street, Park Road, NW","active":1871,"notes":"Now 'Taunton Place'"},"geometry":{"coordinates":[-0.161687,51.525451]},"uuid":"47b51d86-fd17-4bb2-b3bf-dba64e743be0"},{"@id":"https://w3id.org/locolligo/BIFMO-post-1840/20a5c2e1-11e1-47cf-815f-6d5aff196d49","properties":{"url":"https://bifmo.history.ac.uk/entry/kedge-william-1845","title":"Kedge, William","address":"28, Upper Berkeley Street, W","active":1845},"geometry":{"coordinates":[-0.161615,51.515411]},"uuid":"20a5c2e1-11e1-47cf-815f-6d5aff196d49"},{"@id":"https://w3id.org/locolligo/BIFMO-post-1840/7e3c322c-0b85-4437-92d6-c40954aaef09","properties":{"url":"https://bifmo.history.ac.uk/entry/crowhurst-edwin-1871","title":"Crowhurst , Edwin","address":"32Milton st.Dorset sq NW","active":1871,"notes":"Street now known as Balcombe Street"},"geometry":{"coordinates":[-0.161335,51.52201]},"uuid":"7e3c322c-0b85-4437-92d6-c40954aaef09"},{"@id":"https://w3id.org/locolligo/BIFMO-post-1840/8d862954-5f03-440e-bf00-e4794ffe2657","properties":{"url":"https://bifmo.history.ac.uk/entry/hodges-richard-1835-39","title":"Hodges, Richard","address":"68, Milton Street, Dorset Square, NW","active":1845,"notes":"Street now known as Balcombe Street"},"geometry":{"coordinates":[-0.161292,51.521863]},"uuid":"8d862954-5f03-440e-bf00-e4794ffe2657"},{"@id":"https://w3id.org/locolligo/BIFMO-post-1840/dda4a33b-a171-4b91-82d3-aa0e094a25c4","properties":{"url":"https://bifmo.history.ac.uk/entry/shakespear-alfred-1871","title":"Shakespear, Alfd.","address":"7 Seymour pl. Brnst. Sq","active":1871},"geometry":{"coordinates":[-0.161218,51.514708]},"uuid":"dda4a33b-a171-4b91-82d3-aa0e094a25c4"},{"@id":"https://w3id.org/locolligo/BIFMO-post-1840/a13bc558-149d-4fb8-8eab-2e14a5707ce7","properties":{"url":"https://bifmo.history.ac.uk/entry/terry-john-1871","title":"Terry , John","address":"7, Little Exeter Street, Chelsea, SW","active":1871,"notes":"Now Landon Place, generic coordinate for road"},"geometry":{"coordinates":[-0.161206,51.498953]},"uuid":"a13bc558-149d-4fb8-8eab-2e14a5707ce7"},{"@id":"https://w3id.org/locolligo/BIFMO-post-1840/df98441b-436d-44cc-98ae-13fa55400753","properties":{"url":"https://bifmo.history.ac.uk/entry/winks-joseph-woodward-1871","title":"Winks, Joseph Woodward","address":"24, Moore Street, Bryanston sq, W","active":1871,"notes":"Street lost, approximate location"},"geometry":{"coordinates":[-0.1612,51.517568]},"uuid":"df98441b-436d-44cc-98ae-13fa55400753"},{"@id":"https://w3id.org/locolligo/BIFMO-post-1840/1286e916-e898-451c-a2d6-057651d14d05","properties":{"url":"https://bifmo.history.ac.uk/entry/king-arthur-1845-1871","title":"King, Arthur","address":"16, Adam Street West, Bryanston sq, W","active":1845,"notes":"*Now 'Seymour Place'"},"geometry":{"coordinates":[-0.161181,51.514913]},"uuid":"1286e916-e898-451c-a2d6-057651d14d05"},{"@id":"https://w3id.org/locolligo/BIFMO-post-1840/299f2b76-9bdd-4a48-94b6-302bc263a287","properties":{"url":"https://bifmo.history.ac.uk/entry/deane-co-1850-1871","title":"Deane, ","address":"24 Seymour place","active":1871},"geometry":{"coordinates":[-0.161176,51.515095]},"uuid":"299f2b76-9bdd-4a48-94b6-302bc263a287"},{"@id":"https://w3id.org/locolligo/BIFMO-post-1840/8941e0d2-550b-4b77-828d-1a35a41f7078","properties":{"url":"https://bifmo.history.ac.uk/entry/nicholson-william-1871","title":"Nichols, William","address":"25, Brompton Road, SW","active":1871},"geometry":{"coordinates":[-0.161099,51.501294]},"uuid":"8941e0d2-550b-4b77-828d-1a35a41f7078"},{"@id":"https://w3id.org/locolligo/BIFMO-post-1840/8a300501-710a-4c71-b91b-5318089725cc","properties":{"url":"https://bifmo.history.ac.uk/entry/buckingham-george-1860-1871","title":"Buckingham , George","address":"48 Park st. Dorset sq","active":1871,"notes":"Street lost, approximate location"},"geometry":{"coordinates":[-0.161041,51.522571]},"uuid":"8a300501-710a-4c71-b91b-5318089725cc"},{"@id":"https://w3id.org/locolligo/BIFMO-post-1840/7c7ad52c-fcce-4719-8031-fff180921665","properties":{"title":"Tappy , Albert","address":"29 Park st. Dorset sq NW","active":1871,"notes":"Street lost, approximate location"},"geometry":{"coordinates":[-0.161041,51.522571]},"uuid":"7c7ad52c-fcce-4719-8031-fff180921665"},{"@id":"https://w3id.org/locolligo/BIFMO-post-1840/b3333bed-7a8d-417a-b767-9c976881eaad","properties":{"url":"https://bifmo.history.ac.uk/entry/white-antony-1871","title":"White, Antony","address":"29 Park st. Dorset sq","active":1871,"notes":"Street lost, approximate location"},"geometry":{"coordinates":[-0.161041,51.522571]},"uuid":"b3333bed-7a8d-417a-b767-9c976881eaad"},{"@id":"https://w3id.org/locolligo/BIFMO-post-1840/60954190-2b63-4fdc-a374-98bb8ea3811a","properties":{"url":"https://bifmo.history.ac.uk/entry/leuty-john-austin-1845-1871","title":"Leuty, John Austin","address":"12 Adam st. west","active":1871,"notes":"*Now 'Seymour Place'"},"geometry":{"coordinates":[-0.160947,51.514773]},"uuid":"60954190-2b63-4fdc-a374-98bb8ea3811a"},{"@id":"https://w3id.org/locolligo/BIFMO-post-1840/d163e0a6-38b0-4018-bf76-ff14973fac39","properties":{"url":"https://bifmo.history.ac.uk/entry/hyslop-joseph-1871","title":"Hyslop, Joseph","address":"21 Croydon st. Bryanston Sq","active":1871,"notes":"Street lost, approximate location"},"geometry":{"coordinates":[-0.160793,51.517994]},"uuid":"d163e0a6-38b0-4018-bf76-ff14973fac39"},{"@id":"https://w3id.org/locolligo/BIFMO-post-1840/68245ea6-5b2b-450c-8ef8-bd5bf0820386","properties":{"url":"https://bifmo.history.ac.uk/entry/solomons-nathan-1871","title":"Solomons , Nathan","address":"1 Sloane st. Chelsea","active":1871},"geometry":{"coordinates":[-0.160517,51.501557]},"uuid":"68245ea6-5b2b-450c-8ef8-bd5bf0820386"},{"@id":"https://w3id.org/locolligo/BIFMO-post-1840/8a43e823-f1ce-48cb-8191-b84f2efaedd6","properties":{"url":"https://bifmo.history.ac.uk/entry/dolman-george-1824-39","title":"Dolman , Geo.","address":"3 Brompton road","active":1871},"geometry":{"coordinates":[-0.160486,51.501563]},"uuid":"8a43e823-f1ce-48cb-8191-b84f2efaedd6"},{"@id":"https://w3id.org/locolligo/BIFMO-post-1840/6dbe0885-85a3-4223-98a8-320a56efc8d5","properties":{"url":"https://bifmo.history.ac.uk/entry/mortimer-william-1871","title":"Mortimer, William","address":"1Gt.Quebec st.Montagu sqW","active":1871},"geometry":{"coordinates":[-0.160398,51.519416]},"uuid":"6dbe0885-85a3-4223-98a8-320a56efc8d5"},{"@id":"https://w3id.org/locolligo/BIFMO-post-1840/175f2974-646d-400a-917f-db9b1c65ca06","properties":{"url":"https://bifmo.history.ac.uk/entry/watson-louisa-mrs-1871","title":"Watson, Louisa","address":"15 Gt. Quebec st. Montg.sq","active":1871},"geometry":{"coordinates":[-0.160398,51.519416]},"uuid":"175f2974-646d-400a-917f-db9b1c65ca06"},{"@id":"https://w3id.org/locolligo/BIFMO-post-1840/6e2f360e-763f-417a-aff9-175523d5a23c","properties":{"url":"https://bifmo.history.ac.uk/entry/machen-henry-1845","title":"Machen, Henry","address":"3 Thornton pl. Prtmn. Sq","active":1845},"geometry":{"coordinates":[-0.160112,51.521094]},"uuid":"6e2f360e-763f-417a-aff9-175523d5a23c"},{"@id":"https://w3id.org/locolligo/BIFMO-post-1840/f8e5172f-2a70-46bd-bd25-f82b0cdab988","properties":{"url":"https://bifmo.history.ac.uk/entry/bowden-george-1820-39","title":"Bowden, G.","address":"21 Crawford st. Portmn. Sq.; 23 Harcourt street, New road ","active":1871},"geometry":{"coordinates":[-0.159911,51.519977]},"uuid":"f8e5172f-2a70-46bd-bd25-f82b0cdab988"},{"@id":"https://w3id.org/locolligo/BIFMO-post-1840/8eda4c8b-81ac-4024-a313-6204e4fe77b1","properties":{"url":"https://bifmo.history.ac.uk/entry/estcourt-williams-1871","title":"Estcourt, ","address":"22 Crawford st. Ptmn. Sq","active":1871},"geometry":{"coordinates":[-0.159911,51.519977]},"uuid":"8eda4c8b-81ac-4024-a313-6204e4fe77b1"},{"@id":"https://w3id.org/locolligo/BIFMO-post-1840/4ca27c0c-6064-4c70-846b-76f89a186e8f","properties":{"url":"https://bifmo.history.ac.uk/entry/day-john-1871","title":"Day, John","address":"31 Sloane street, Chelsea SW","active":1871},"geometry":{"coordinates":[-0.159901,51.499431]},"uuid":"4ca27c0c-6064-4c70-846b-76f89a186e8f"},{"@id":"https://w3id.org/locolligo/BIFMO-post-1840/cf451ad9-12c9-456d-b6b2-800014cd37e1","properties":{"url":"https://bifmo.history.ac.uk/entry/morandi-joseph-1871","title":"Morandi, Joseph","address":"21, Crawford Street, Portman sq, W","active":1871},"geometry":{"coordinates":[-0.159893,51.520092]},"uuid":"cf451ad9-12c9-456d-b6b2-800014cd37e1"},{"@id":"https://w3id.org/locolligo/BIFMO-post-1840/2887217a-bcfb-4571-ac0f-e561647a1b07","properties":{"url":"https://bifmo.history.ac.uk/entry/anderson-samuel-1872","title":"Anderson, Samuel","address":"25, New Street, Dorset sq, NW","active":1871,"notes":"New Street is now Melcombe Street (cf. Greenwood 1828)"},"geometry":{"coordinates":[-0.159849,51.523671]},"uuid":"2887217a-bcfb-4571-ac0f-e561647a1b07"},{"@id":"https://w3id.org/locolligo/BIFMO-post-1840/17e38d63-0d4b-4d1a-8fe9-e9884fc9a603","properties":{"url":"https://bifmo.history.ac.uk/entry/bourlet-james-1871","title":"Bourlet , James","address":"30, Sloane Street, Chelsea, SW","active":1871},"geometry":{"coordinates":[-0.159814,51.499531]},"uuid":"17e38d63-0d4b-4d1a-8fe9-e9884fc9a603"},{"@id":"https://w3id.org/locolligo/BIFMO-post-1840/a3ce700d-d27e-411c-ac9a-90187aa12bfb","properties":{"url":"https://bifmo.history.ac.uk/entry/dallas-john-1871","title":"Dallas, John","address":"40, Up. York Street, Bryanston sq, W","active":1871},"geometry":{"coordinates":[-0.159807,51.520639]},"uuid":"a3ce700d-d27e-411c-ac9a-90187aa12bfb"},{"@id":"https://w3id.org/locolligo/BIFMO-post-1840/dfc27a01-0571-4d89-a3e4-50b81215fdcd","properties":{"url":"https://bifmo.history.ac.uk/entry/dalton-thomas-1829-39","title":"Dalton, Thomas","address":"11, Leete Street, Chelsea, SW","active":1845,"notes":"Not on any maps, did a quick search and seems that Leete Street was previously South Street and now part of Cadogan Gardens, general coordinates for road"},"geometry":{"coordinates":[-0.159725,51.492153]},"uuid":"dfc27a01-0571-4d89-a3e4-50b81215fdcd"},{"@id":"https://w3id.org/locolligo/BIFMO-post-1840/0ab2a3b4-060b-4744-ad18-61dff4ee44f7","properties":{"title":"Watkins, Jas.","address":"110, Gloucester Road, NW","active":1845},"geometry":{"coordinates":[-0.159716,51.494137]},"uuid":"0ab2a3b4-060b-4744-ad18-61dff4ee44f7"},{"@id":"https://w3id.org/locolligo/BIFMO-post-1840/cff42dfa-0db2-4639-845e-979649c25fd1","properties":{"url":"https://bifmo.history.ac.uk/entry/bateman-john-1839","title":"Bateman, John","address":"111, Crawford Street, W","active":1845},"geometry":{"coordinates":[-0.159706,51.519904]},"uuid":"cff42dfa-0db2-4639-845e-979649c25fd1"},{"@id":"https://w3id.org/locolligo/BIFMO-post-1840/4bb5b0ef-035a-4b7a-85dd-d0cae737aaf8","properties":{"title":"Spokes, Joseph","address":"34 Sloane street","active":1871},"geometry":{"coordinates":[-0.15956,51.499293]},"uuid":"4bb5b0ef-035a-4b7a-85dd-d0cae737aaf8"},{"@id":"https://w3id.org/locolligo/BIFMO-post-1840/309a33c3-dbd1-4aff-8481-db25404b2b29","properties":{"url":"https://bifmo.history.ac.uk/entry/hay-george-1871","title":"Hay, Geo.","address":"5 Gloucester pl. Chelsea","active":1871},"geometry":{"coordinates":[-0.159482,51.499942]},"uuid":"309a33c3-dbd1-4aff-8481-db25404b2b29"},{"@id":"https://w3id.org/locolligo/BIFMO-post-1840/3804353f-2f8c-4749-9d8a-b6f88df058ac","properties":{"url":"https://bifmo.history.ac.uk/entry/buckingham-henry-1827-39","title":"Buckingham, H.","address":"24 New st. Dorset sq NW","active":1845,"notes":"New Street is now Melcombe Street (cf. Greenwood 1828)"},"geometry":{"coordinates":[-0.159406,51.522797]},"uuid":"3804353f-2f8c-4749-9d8a-b6f88df058ac"},{"@id":"https://w3id.org/locolligo/BIFMO-post-1840/945884c1-4617-429b-8876-5f38a0f29198","properties":{"url":"https://bifmo.history.ac.uk/entry/ayerst-francis-co-1871","title":"Ayerst, Francis","address":"38, Up. York Street, Bryanstn. Sqaure, W","active":1871},"geometry":{"coordinates":[-0.159353,51.520657]},"uuid":"945884c1-4617-429b-8876-5f38a0f29198"},{"@id":"https://w3id.org/locolligo/BIFMO-post-1840/85f57b55-148f-4436-9a02-affcfe3a797a","properties":{"title":"Williams, James","address":"166 Sloane street SW","active":1871},"geometry":{"coordinates":[-0.159238,51.498884]},"uuid":"85f57b55-148f-4436-9a02-affcfe3a797a"},{"@id":"https://w3id.org/locolligo/BIFMO-post-1840/384ee78b-3abf-4745-a3b2-67056a271244","properties":{"url":"https://bifmo.history.ac.uk/entry/brooker-or-brocker-john-1820-39","title":"Brooker, John","address":"14, Charles Street, Knightsbridge, SW","active":1845,"notes":"Street now known as Seville Street"},"geometry":{"coordinates":[-0.159189,51.501872]},"uuid":"384ee78b-3abf-4745-a3b2-67056a271244"},{"@id":"https://w3id.org/locolligo/BIFMO-post-1840/e6eb1c37-89e6-4c2e-89f1-3edec5b14cdf","properties":{"url":"https://bifmo.history.ac.uk/entry/hobbs-william-1871","title":"Hobbs, William","address":"25 King's rd. ea. Chelsea","active":1871},"geometry":{"coordinates":[-0.159007,51.491854]},"uuid":"e6eb1c37-89e6-4c2e-89f1-3edec5b14cdf"},{"@id":"https://w3id.org/locolligo/BIFMO-post-1840/91a54604-b8b4-4429-9d6f-1410f6ce1c5c","properties":{"url":"https://bifmo.history.ac.uk/entry/pateman-joseph-1845","title":"Pateman, Joseph","address":"7 Park ter. Regent's pk","active":1845,"notes":"Street now known as Park Road"},"geometry":{"coordinates":[-0.15878,51.524195]},"uuid":"91a54604-b8b4-4429-9d6f-1410f6ce1c5c"},