{"@id":"https://w3id.org/locolligo/BIFMO-post-1840","type":"FeatureCollection","features":[{"@id":"https://w3id.org/locolligo/BIFMO-post-1840/261c6c31-1f7d-42ac-8134-c8407cf95803","properties":{"url":"https://bifmo.history.ac.uk/entry/gaskin-george-1871","title":"Gaskin, George","address":"15A, Queen Street, Oxford Street, W","active":1871},"geometry":{"type":"Point","coordinates":[-1.259267,51.751627],"certainty":"certain"},"uuid":"261c6c31-1f7d-42ac-8134-c8407cf95803"},{"@id":"https://w3id.org/locolligo/BIFMO-post-1840/4f386efa-4669-41e6-a5e3-2516a7983a1e","properties":{"title":"Wenman, John","address":"26 Wh. Hart. pl. Lo. Kenngtn. La","active":1871},"geometry":{"type":"Point","coordinates":[-0.39022,51.535793],"certainty":"certain"},"uuid":"4f386efa-4669-41e6-a5e3-2516a7983a1e"},{"@id":"https://w3id.org/locolligo/BIFMO-post-1840/7db4fd69-c2f6-49b2-8397-44902aa44ccd","properties":{"url":"https://bifmo.history.ac.uk/entry/stannard-robert-1871","title":"Stannard , Robert","address":"1 Vine pl. Old st. rd","active":1871},"geometry":{"type":"Point","coordinates":[-0.296056,51.508922],"certainty":"certain"},"uuid":"7db4fd69-c2f6-49b2-8397-44902aa44ccd"},{"@id":"https://w3id.org/locolligo/BIFMO-post-1840/d264a026-b123-4260-8e81-69094e04b002","properties":{"url":"https://bifmo.history.ac.uk/entry/ayres-thomas-1871","title":"Ayres, Thos.","address":"28 & 29, Great Bath Street, Clerkenwell, EC","active":1871},"geometry":{"type":"Point","coordinates":[-0.22036,51.523941],"certainty":"certain"},"uuid":"d264a026-b123-4260-8e81-69094e04b002"},{"@id":"https://w3id.org/locolligo/BIFMO-post-1840/cc91d6a6-01e7-4f16-a9d2-eff7d4a59783","properties":{"url":"https://bifmo.history.ac.uk/entry/ethridge-robert-co-1871","title":"Ethridge , Robert","address":"Blechynden Mews, Notting Hil, W","active":1871,"notes":"Road is no longer there, but would have been approximately here"},"geometry":{"type":"Point","coordinates":[-0.217357,51.514694],"certainty":"certain"},"uuid":"cc91d6a6-01e7-4f16-a9d2-eff7d4a59783"},{"@id":"https://w3id.org/locolligo/BIFMO-post-1840/a511cf9d-e290-481c-9db8-2f95a2b1fa1f","properties":{"url":"https://bifmo.history.ac.uk/entry/holmes-william-1871","title":"Holmes, William","address":"140, Portland Road, Notting Hill, W","active":1871},"geometry":{"type":"Point","coordinates":[-0.211127,51.511438],"certainty":"certain"},"uuid":"a511cf9d-e290-481c-9db8-2f95a2b1fa1f"},{"@id":"https://w3id.org/locolligo/BIFMO-post-1840/4b12562e-6c1d-4281-87bb-2f55a7d80091","properties":{"url":"https://bifmo.history.ac.uk/entry/smith-thomas-1835-39-0","title":"Smith, Thomas","address":"113, Clarendon Road, W","active":1845},"geometry":{"type":"Point","coordinates":[-0.211051,51.512366],"certainty":"certain"},"uuid":"4b12562e-6c1d-4281-87bb-2f55a7d80091"},{"@id":"https://w3id.org/locolligo/BIFMO-post-1840/73929757-d005-4134-b597-dd6cd2c78aed","properties":{"url":"https://bifmo.history.ac.uk/entry/weedon-william-1845","title":"Weedon, William","address":"137, Clarendon Road, W","active":1845},"geometry":{"type":"Point","coordinates":[-0.209468,51.510449],"certainty":"certain"},"uuid":"73929757-d005-4134-b597-dd6cd2c78aed"},{"@id":"https://w3id.org/locolligo/BIFMO-post-1840/79cce1d0-1723-4999-878d-988509a55e4d","properties":{"url":"https://bifmo.history.ac.uk/entry/card-john-1845","title":"Card, John","address":"173&175, Clarendon Road, W","active":1845},"geometry":{"type":"Point","coordinates":[-0.209468,51.510449],"certainty":"certain"},"uuid":"79cce1d0-1723-4999-878d-988509a55e4d"},{"@id":"https://w3id.org/locolligo/BIFMO-post-1840/4658b801-3bf6-42f7-b3fe-d22a852ed1d0","properties":{"url":"https://bifmo.history.ac.uk/entry/dickens-william-1835-39","title":"Dickens, William","address":"119 Clarendon rd.Notting hill W","active":1845},"geometry":{"type":"Point","coordinates":[-0.209468,51.510449],"certainty":"certain"},"uuid":"4658b801-3bf6-42f7-b3fe-d22a852ed1d0"},{"@id":"https://w3id.org/locolligo/BIFMO-post-1840/ab1c0ab7-4156-41ac-82ac-3ccb8ec57b09","properties":{"url":"https://bifmo.history.ac.uk/entry/rose-william-1871","title":"Rose, William","address":"47, Portland Road, W","active":1871},"geometry":{"type":"Point","coordinates":[-0.20896,51.508151],"certainty":"certain"},"uuid":"ab1c0ab7-4156-41ac-82ac-3ccb8ec57b09"},{"@id":"https://w3id.org/locolligo/BIFMO-post-1840/d328e4ca-fed2-4a90-8c42-0e51393a891d","properties":{"url":"https://bifmo.history.ac.uk/entry/hannah-george-1845","title":"Hannah, George","address":"2 Portland rd. Notting hill W","active":1845},"geometry":{"type":"Point","coordinates":[-0.208023,51.507079],"certainty":"certain"},"uuid":"d328e4ca-fed2-4a90-8c42-0e51393a891d"},{"@id":"https://w3id.org/locolligo/BIFMO-post-1840/41d76fcb-17f9-492e-80b3-debb25d5189c","properties":{"url":"https://bifmo.history.ac.uk/entry/sutters-john-thomas-1871","title":"Sutters, Thomas Fergus","address":"5, Holland Road, Notting Hill, W","active":1871},"geometry":{"type":"Point","coordinates":[-0.206648,51.49679],"certainty":"certain"},"uuid":"41d76fcb-17f9-492e-80b3-debb25d5189c"},{"@id":"https://w3id.org/locolligo/BIFMO-post-1840/65f1dab7-4422-4c44-a959-266194bb7214","properties":{"url":"https://bifmo.history.ac.uk/entry/scott-james-junior-1871","title":"Scott , James, sen.","address":"41, Kensington Park Road, W","active":1871},"geometry":{"type":"Point","coordinates":[-0.206181,51.515831],"certainty":"certain"},"uuid":"65f1dab7-4422-4c44-a959-266194bb7214"},{"@id":"https://w3id.org/locolligo/BIFMO-post-1840/ba14633b-481f-4f6b-a5f9-fac112922fd7","properties":{"title":"Strugnell, Charles E. ","address":"35, Kensington pk. rd","active":1845},"geometry":{"type":"Point","coordinates":[-0.20595,51.515502],"certainty":"certain"},"uuid":"ba14633b-481f-4f6b-a5f9-fac112922fd7"},{"@id":"https://w3id.org/locolligo/BIFMO-post-1840/9b73394e-bebf-4872-a920-847455a48d64","properties":{"url":"https://bifmo.history.ac.uk/entry/benson-jabez-91845","title":"Benson, Jabez","address":"10, Blenheim Crescent, W","active":1845},"geometry":{"type":"Point","coordinates":[-0.20569,51.515882],"certainty":"certain"},"uuid":"9b73394e-bebf-4872-a920-847455a48d64"},{"@id":"https://w3id.org/locolligo/BIFMO-post-1840/9bffffeb-4412-4012-b40a-a2e6fa11a7f2","properties":{"url":"https://bifmo.history.ac.uk/entry/cole-william-1835-39","title":"Cole, William","address":"13, Blenheim Crescent, Notting Hill, W","active":1845},"geometry":{"type":"Point","coordinates":[-0.205512,51.515679],"certainty":"certain"},"uuid":"9bffffeb-4412-4012-b40a-a2e6fa11a7f2"},{"@id":"https://w3id.org/locolligo/BIFMO-post-1840/9887da55-9424-45ae-8937-5aea4163bf7e","properties":{"url":"https://bifmo.history.ac.uk/entry/turner-barr-1871-1886","title":"Turner, ","address":"4 Blenheim crescent W","active":1871},"geometry":{"type":"Point","coordinates":[-0.205429,51.515947],"certainty":"certain"},"uuid":"9887da55-9424-45ae-8937-5aea4163bf7e"},{"@id":"https://w3id.org/locolligo/BIFMO-post-1840/98355191-710f-4332-96ea-a727cad82ce9","properties":{"url":"https://bifmo.history.ac.uk/entry/hudson-thomas-1839","title":"Hudson, Ths.","address":"195, Portobello Road, W","active":1871},"geometry":{"type":"Point","coordinates":[-0.205098,51.515796],"certainty":"certain"},"uuid":"98355191-710f-4332-96ea-a727cad82ce9"},{"@id":"https://w3id.org/locolligo/BIFMO-post-1840/68574b8b-8cc8-45b7-afd0-5543e6628504","properties":{"title":"Bacon, James","address":"31, Denbigh Place, Pimlico, SW","active":1845},"geometry":{"type":"Point","coordinates":[-0.20211,51.513559],"certainty":"certain"},"uuid":"68574b8b-8cc8-45b7-afd0-5543e6628504"},{"@id":"https://w3id.org/locolligo/BIFMO-post-1840/d35d2ddc-3e70-49eb-a486-e25469ed42d8","properties":{"url":"https://bifmo.history.ac.uk/entry/bishop-henry-1845","title":"Bishop, Henry","address":"3, Holland Park Road, Kensington, W","active":1871},"geometry":{"type":"Point","coordinates":[-0.202094,51.498633],"certainty":"certain"},"uuid":"d35d2ddc-3e70-49eb-a486-e25469ed42d8"},{"@id":"https://w3id.org/locolligo/BIFMO-post-1840/62c8a13c-293e-4ab8-80a3-b53004cd2fb7","properties":{"url":"https://bifmo.history.ac.uk/entry/harman-richard-1871","title":"Harman, Richd.","address":"30, Denbigh Street, Pimlico, SW","active":1871},"geometry":{"type":"Point","coordinates":[-0.20208,51.513619],"certainty":"certain"},"uuid":"62c8a13c-293e-4ab8-80a3-b53004cd2fb7"},{"@id":"https://w3id.org/locolligo/BIFMO-post-1840/085004f7-7c96-4262-8c3e-d14524638038","properties":{"url":"https://bifmo.history.ac.uk/entry/hebbard-george-1871","title":"Hebbard, George","address":"29, Denbigh Place, Pimlico, SW","active":1871},"geometry":{"type":"Point","coordinates":[-0.202002,51.513481],"certainty":"certain"},"uuid":"085004f7-7c96-4262-8c3e-d14524638038"},{"@id":"https://w3id.org/locolligo/BIFMO-post-1840/76018563-f180-481b-a525-969243859b0e","properties":{"url":"https://bifmo.history.ac.uk/entry/jinkins-frederick-1871","title":"Jinkins, Fredk.","address":"4 Hope terrace, Notting hill W","active":1871},"geometry":{"type":"Point","coordinates":[-0.201137,51.508697],"certainty":"certain"},"uuid":"76018563-f180-481b-a525-969243859b0e"},{"@id":"https://w3id.org/locolligo/BIFMO-post-1840/8d32201a-8b41-4f62-b279-68170765e0ec","properties":{"url":"https://bifmo.history.ac.uk/entry/green-king-1871","title":"Green, ","address":"11, Denbigh ter., Notting Hill, W","active":1871},"geometry":{"type":"Point","coordinates":[-0.201056,51.513845],"certainty":"certain"},"uuid":"8d32201a-8b41-4f62-b279-68170765e0ec"},{"@id":"https://w3id.org/locolligo/BIFMO-post-1840/21122cfe-4665-4a82-a82b-53b55f479ef5","properties":{"url":"https://bifmo.history.ac.uk/entry/galli-c-1871-1886","title":"Galli , Charles","address":"29, Lonsdale Road, Bayswater, W","active":1871},"geometry":{"type":"Point","coordinates":[-0.200673,51.515032],"certainty":"certain"},"uuid":"21122cfe-4665-4a82-a82b-53b55f479ef5"},{"@id":"https://w3id.org/locolligo/BIFMO-post-1840/f12d0a06-f612-495a-8d57-e742315e6d58","properties":{"url":"https://bifmo.history.ac.uk/entry/sprague-james-1871","title":"Sprague, James","address":"17, Lonsdale Road, Bayswater, W","active":1871},"geometry":{"type":"Point","coordinates":[-0.200163,51.515096],"certainty":"certain"},"uuid":"f12d0a06-f612-495a-8d57-e742315e6d58"},{"@id":"https://w3id.org/locolligo/BIFMO-post-1840/bf690bcb-0f65-4c84-80f3-4498ecceb023","properties":{"url":"https://bifmo.history.ac.uk/entry/bostelman-frederick-1871","title":"Bostelman, Frdk.","address":"137 & 139, High Street, Notting Hill, W","active":1871},"geometry":{"type":"Point","coordinates":[-0.199341,51.508494],"certainty":"certain"},"uuid":"bf690bcb-0f65-4c84-80f3-4498ecceb023"},{"@id":"https://w3id.org/locolligo/BIFMO-post-1840/d7a8caf7-60f8-408a-ad55-2ed97bb242e6","properties":{"url":"https://bifmo.history.ac.uk/entry/woods-benjamin-1871","title":"Woodward, Benj.","address":"2 Westbourne pl. Pimlc","active":1871},"geometry":{"type":"Point","coordinates":[-0.199194,51.523275],"certainty":"certain"},"uuid":"d7a8caf7-60f8-408a-ad55-2ed97bb242e6"},{"@id":"https://w3id.org/locolligo/BIFMO-post-1840/3756f9e2-50c0-4d2d-93c2-32aeeb133743","properties":{"url":"https://bifmo.history.ac.uk/entry/cook-george-henry-1871","title":"Cook, George Henry","address":"46 Ledbury road W","active":1871},"geometry":{"type":"Point","coordinates":[-0.199056,51.514375],"certainty":"certain"},"uuid":"3756f9e2-50c0-4d2d-93c2-32aeeb133743"},{"@id":"https://w3id.org/locolligo/BIFMO-post-1840/674470eb-c9f5-47a4-bb27-fd99d9032529","properties":{"title":"Stockham, ","address":"Mews, Portobello Road, W","active":1845},"geometry":{"type":"Point","coordinates":[-0.198396,51.511225],"certainty":"certain"},"uuid":"674470eb-c9f5-47a4-bb27-fd99d9032529"},{"@id":"https://w3id.org/locolligo/BIFMO-post-1840/cbd1fa95-7339-4d03-b0ca-f963d6ad6a7e","properties":{"url":"https://bifmo.history.ac.uk/entry/bellworthy-john-1826-38","title":"Bellworthy, John","address":"5 Newland pl. Kensington","active":1845,"notes":"approx.; Newland Place was the southern side of Kensington High Street immediately to the east of Earl’s Court Road (cf. Goad 1887)"},"geometry":{"type":"Point","coordinates":[-0.198186,51.499166],"certainty":"certain"},"uuid":"cbd1fa95-7339-4d03-b0ca-f963d6ad6a7e"},{"@id":"https://w3id.org/locolligo/BIFMO-post-1840/3e521929-df49-4cda-b3d0-878c0b123d13","properties":{"url":"https://bifmo.history.ac.uk/entry/benda-brothers-1871","title":"Benda , ","address":"5 Newland pl. Kensgtn","active":1871,"notes":"approx.; Newland Place was the southern side of Kensington High Street immediately to the east of Earl’s Court Road (cf. Goad 1887)"},"geometry":{"type":"Point","coordinates":[-0.198186,51.499166],"certainty":"certain"},"uuid":"3e521929-df49-4cda-b3d0-878c0b123d13"},{"@id":"https://w3id.org/locolligo/BIFMO-post-1840/4620ea7a-4c4e-47e3-bdda-375d0535cd90","properties":{"url":"https://bifmo.history.ac.uk/entry/russell-william-1845","title":"Russell, William","address":"103 High st. Notting hill W","active":1845},"geometry":{"type":"Point","coordinates":[-0.198169,51.508558],"certainty":"certain"},"uuid":"4620ea7a-4c4e-47e3-bdda-375d0535cd90"},{"@id":"https://w3id.org/locolligo/BIFMO-post-1840/f82a3980-863d-465d-aa57-c4d517c4ff79","properties":{"title":"Mitchell, John","address":"34 Kensington pl. Kensington W","active":1871},"geometry":{"type":"Point","coordinates":[-0.197975,51.507376],"certainty":"certain"},"uuid":"f82a3980-863d-465d-aa57-c4d517c4ff79"},{"@id":"https://w3id.org/locolligo/BIFMO-post-1840/b8c7c61b-ecef-4082-be61-c2deaf8e6ed4","properties":{"url":"https://bifmo.history.ac.uk/entry/guiness-henry-thomas-1845","title":"Guiness, Henry Thomas","address":"71 Bedford gdns. Kensngtn W","active":1845},"geometry":{"type":"Point","coordinates":[-0.197285,51.505685],"certainty":"certain"},"uuid":"b8c7c61b-ecef-4082-be61-c2deaf8e6ed4"},{"@id":"https://w3id.org/locolligo/BIFMO-post-1840/2a2efa74-d9f3-4da2-b6ef-25ebcdb0eefe","properties":{"title":"Shoolbred, John","address":"5, Albert ter., Notting Hill, W","active":1871,"notes":"Now 'Pembridge Road'"},"geometry":{"type":"Point","coordinates":[-0.197146,51.509143],"certainty":"certain"},"uuid":"2a2efa74-d9f3-4da2-b6ef-25ebcdb0eefe"},{"@id":"https://w3id.org/locolligo/BIFMO-post-1840/26128a89-812c-416f-a183-ff444048f7b7","properties":{"url":"https://bifmo.history.ac.uk/entry/haywood-isaac-co-1871","title":"Haywood, I.","address":"62, Norfolk Terrace, Bayswater, W","active":1871},"geometry":{"type":"Point","coordinates":[-0.197077,51.514792],"certainty":"certain"},"uuid":"26128a89-812c-416f-a183-ff444048f7b7"},{"@id":"https://w3id.org/locolligo/BIFMO-post-1840/fa1a09fb-e720-48f4-aafd-685e19e452fd","properties":{"url":"https://bifmo.history.ac.uk/entry/haywood-isaac-co-1871","title":"Haywood, Isaac","address":"60 & 62 Norfolk terrace, Bayswater W","active":1871},"geometry":{"type":"Point","coordinates":[-0.197077,51.514792],"certainty":"certain"},"uuid":"fa1a09fb-e720-48f4-aafd-685e19e452fd"},{"@id":"https://w3id.org/locolligo/BIFMO-post-1840/eb650daf-186c-4fff-96d7-60a81bacb59c","properties":{"url":"https://bifmo.history.ac.uk/entry/haywood-isaac-co-1871","title":"Haywood, Isaac","address":"60 & 62, Norfolk Terrace, Bayswater, W","active":1871},"geometry":{"type":"Point","coordinates":[-0.197077,51.514792],"certainty":"certain"},"uuid":"eb650daf-186c-4fff-96d7-60a81bacb59c"},{"@id":"https://w3id.org/locolligo/BIFMO-post-1840/7321ac9e-20a9-4b90-b384-26bd28b90d4a","properties":{"url":"https://bifmo.history.ac.uk/entry/matthews-john-1845-1871","title":"Matthews, John","address":"98, Norfolk ter., Bayswater, W","active":1871},"geometry":{"type":"Point","coordinates":[-0.197077,51.514792],"certainty":"certain"},"uuid":"7321ac9e-20a9-4b90-b384-26bd28b90d4a"},{"@id":"https://w3id.org/locolligo/BIFMO-post-1840/827521d9-fc0c-47e8-bfa2-db182831a78b","properties":{"url":"https://bifmo.history.ac.uk/entry/ramuz-alexander-1826-46","title":"Ramuz, Alexander","address":"12 Albert terrace, Notting hill W","active":1845,"notes":"Now 'Pembridge Road'"},"geometry":{"type":"Point","coordinates":[-0.196988,51.509459],"certainty":"certain"},"uuid":"827521d9-fc0c-47e8-bfa2-db182831a78b"},{"@id":"https://w3id.org/locolligo/BIFMO-post-1840/011eb0b7-8d81-410f-aae8-4455cdbdc646","properties":{"url":"https://bifmo.history.ac.uk/entry/lawrence-thomas-j-1871","title":"Lawrence , Geo. R.","address":"42, Uxbridge Street, Notting Hill, W","active":1871},"geometry":{"type":"Point","coordinates":[-0.196925,51.508837],"certainty":"certain"},"uuid":"011eb0b7-8d81-410f-aae8-4455cdbdc646"},{"@id":"https://w3id.org/locolligo/BIFMO-post-1840/def86279-2baf-4371-83cb-567934608162","properties":{"url":"https://bifmo.history.ac.uk/entry/turner-john-1845-1871","title":"Turner, John","address":"Grange place, Hoxton","active":1845},"geometry":{"type":"Point","coordinates":[-0.196294,51.541888],"certainty":"certain"},"uuid":"def86279-2baf-4371-83cb-567934608162"},{"@id":"https://w3id.org/locolligo/BIFMO-post-1840/d922a8d1-1135-4c2e-a7fe-f7e40a0b77eb","properties":{"url":"https://bifmo.history.ac.uk/entry/comfort-john-1835-39","title":"Comfort, J.","address":"10 Peel pl. Kensington grav","active":1845,"notes":"Street (probably) now known as Peel Street"},"geometry":{"type":"Point","coordinates":[-0.195438,51.507307],"certainty":"certain"},"uuid":"d922a8d1-1135-4c2e-a7fe-f7e40a0b77eb"},{"@id":"https://w3id.org/locolligo/BIFMO-post-1840/779aba45-2993-4e88-85b3-b46ef6b7b8b7","properties":{"url":"https://bifmo.history.ac.uk/entry/mantle-thomas-1826-28","title":"Mantle, Thomas","address":"72 Gt. Suffolk street SE","active":1845},"geometry":{"type":"Point","coordinates":[-0.194965,51.471952],"certainty":"certain"},"uuid":"779aba45-2993-4e88-85b3-b46ef6b7b8b7"},{"@id":"https://w3id.org/locolligo/BIFMO-post-1840/26bb3c63-d041-4766-ad0a-599243cc6f9a","properties":{"url":"https://bifmo.history.ac.uk/entry/terry-henry-1871","title":"Terry, Henry","address":"11 Gt. Suffolk st. Borough","active":1871},"geometry":{"type":"Point","coordinates":[-0.194965,51.471952],"certainty":"certain"},"uuid":"26bb3c63-d041-4766-ad0a-599243cc6f9a"},{"@id":"https://w3id.org/locolligo/BIFMO-post-1840/188a0aec-0a26-4971-b354-7093c94c417d","properties":{"title":"Wilson , Henry","address":"124 Gt. Suffolk st. Borough SE","active":1871},"geometry":{"type":"Point","coordinates":[-0.194965,51.471952],"certainty":"certain"},"uuid":"188a0aec-0a26-4971-b354-7093c94c417d"},{"@id":"https://w3id.org/locolligo/BIFMO-post-1840/4e234fb2-8ce9-4037-a71e-9e95e6fad7c7","properties":{"url":"https://bifmo.history.ac.uk/entry/bedword-william-alfred-1871","title":"Bedword , Wm. & Alfrd.","address":"5 Notting hill, High st.","active":1871},"geometry":{"type":"Point","coordinates":[-0.193005,51.509661],"certainty":"certain"},"uuid":"4e234fb2-8ce9-4037-a71e-9e95e6fad7c7"},{"@id":"https://w3id.org/locolligo/BIFMO-post-1840/f3a25eda-ce20-4725-bdc1-1722818208f1","properties":{"url":"https://bifmo.history.ac.uk/entry/carter-edward-junior-1845","title":"Carter, Edward junior","address":"Church walk, Holland st W","active":1845},"geometry":{"type":"Point","coordinates":[-0.192975,51.50306],"certainty":"certain"},"uuid":"f3a25eda-ce20-4725-bdc1-1722818208f1"},{"@id":"https://w3id.org/locolligo/BIFMO-post-1840/1759e0c1-946d-4113-84e5-fc92f09501cd","properties":{"url":"https://bifmo.history.ac.uk/entry/macneill-patrick-1871","title":"Macneill, Patrick","address":"Church wlk., Holland Street, Knsgtn, W","active":1871},"geometry":{"type":"Point","coordinates":[-0.192975,51.50306],"certainty":"certain"},"uuid":"1759e0c1-946d-4113-84e5-fc92f09501cd"},{"@id":"https://w3id.org/locolligo/BIFMO-post-1840/e0e44402-6b48-4120-8310-92fd9c9af8f1","properties":{"url":"https://bifmo.history.ac.uk/entry/bedford-james-1845","title":"Bedford, James","address":"5 High st. Notting hill","active":1845},"geometry":{"type":"Point","coordinates":[-0.192829,51.509905],"certainty":"certain"},"uuid":"e0e44402-6b48-4120-8310-92fd9c9af8f1"},{"@id":"https://w3id.org/locolligo/BIFMO-post-1840/b0ea74a1-d64a-483c-9537-a0b5d230f8ee","properties":{"url":"https://bifmo.history.ac.uk/entry/hunt-horatio-n-1871","title":"Hunt, Horatio N.","address":"1 High street, Notting hill","active":1871},"geometry":{"type":"Point","coordinates":[-0.192658,51.509772],"certainty":"certain"},"uuid":"b0ea74a1-d64a-483c-9537-a0b5d230f8ee"},{"@id":"https://w3id.org/locolligo/BIFMO-post-1840/fa3521f7-f338-4e7d-93af-183dc1b657b4","properties":{"url":"https://bifmo.history.ac.uk/entry/diller-d-j-1837-41","title":"Diller, David & John","address":"190 Wellington ter. Waterloo rd","active":1845},"geometry":{"type":"Point","coordinates":[-0.192602,51.509799],"certainty":"certain"},"uuid":"fa3521f7-f338-4e7d-93af-183dc1b657b4"},{"@id":"https://w3id.org/locolligo/BIFMO-post-1840/9d1fd5ba-acdb-4d1c-b2dd-f7c06548a5db","properties":{"url":"https://bifmo.history.ac.uk/entry/singleton-joseph-1871","title":"Singleton, Joseph","address":"16, Holland Street, Kensington, W","active":1871},"geometry":{"type":"Point","coordinates":[-0.192582,51.503222],"certainty":"certain"},"uuid":"9d1fd5ba-acdb-4d1c-b2dd-f7c06548a5db"},{"@id":"https://w3id.org/locolligo/BIFMO-post-1840/5427b885-094e-4c8b-a98b-798cbea37187","properties":{"url":"https://bifmo.history.ac.uk/entry/st-julien-cb-1845","title":"St. Julien, C. B.","address":"4, Wellington ter.BayswatrW","active":1845},"geometry":{"type":"Point","coordinates":[-0.192517,51.509975],"certainty":"certain"},"uuid":"5427b885-094e-4c8b-a98b-798cbea37187"},{"@id":"https://w3id.org/locolligo/BIFMO-post-1840/c486485e-2b87-430f-a221-08e766030eca","properties":{"url":"https://bifmo.history.ac.uk/entry/anns-henry-1871","title":"Anns, Henry","address":"12 Holland st. Kensington W","active":1871},"geometry":{"type":"Point","coordinates":[-0.192412,51.503241],"certainty":"certain"},"uuid":"c486485e-2b87-430f-a221-08e766030eca"},{"@id":"https://w3id.org/locolligo/BIFMO-post-1840/79a62fa4-774f-4a87-819c-8e0fd2a6ee12","properties":{"url":"https://bifmo.history.ac.uk/entry/mitchell-frederick-1845-1871","title":"Mitchell , Fredk.","address":"4 Holland pl. Kensgtn","active":1871},"geometry":{"type":"Point","coordinates":[-0.192101,51.503421],"certainty":"certain"},"uuid":"79a62fa4-774f-4a87-819c-8e0fd2a6ee12"},{"@id":"https://w3id.org/locolligo/BIFMO-post-1840/a3a7279d-62ae-4d1b-97d1-6ddc87b3c97c","properties":{"url":"https://bifmo.history.ac.uk/entry/mitchell-henry-1845","title":"Mitchell, Henry","address":"4 Holland pl. Kensington W","active":1871},"geometry":{"type":"Point","coordinates":[-0.192101,51.503421],"certainty":"certain"},"uuid":"a3a7279d-62ae-4d1b-97d1-6ddc87b3c97c"},{"@id":"https://w3id.org/locolligo/BIFMO-post-1840/90ae395b-fc3c-4db5-b0e5-ae0709e9c176","properties":{"url":"https://bifmo.history.ac.uk/entry/fox-john-1845-1871","title":"Fox, John","address":"16 Holland pl. Clapham rd","active":1845},"geometry":{"type":"Point","coordinates":[-0.192041,51.50337],"certainty":"certain"},"uuid":"90ae395b-fc3c-4db5-b0e5-ae0709e9c176"},{"@id":"https://w3id.org/locolligo/BIFMO-post-1840/725b1be6-5c4c-47e0-ad5d-3fb0232b4504","properties":{"url":"https://bifmo.history.ac.uk/entry/haywood-isaac-co-1871","title":"Haywood, Isaac","address":"60 & 62 Norfolk terrace, Bayswater W","active":1871,"notes":"* Now 'Westbourne Grove'"},"geometry":{"type":"Point","coordinates":[-0.192016,51.515526],"certainty":"certain"},"uuid":"725b1be6-5c4c-47e0-ad5d-3fb0232b4504"},{"@id":"https://w3id.org/locolligo/BIFMO-post-1840/3e2dd4d2-8fe6-4df4-bffd-21b2d80cf2d3","properties":{"url":"https://bifmo.history.ac.uk/entry/lawson-thomas-1871","title":"Lawson , Thos.","address":"36, High Street, Kensington, W","active":1871},"geometry":{"type":"Point","coordinates":[-0.189419,51.502493],"certainty":"certain"},"uuid":"3e2dd4d2-8fe6-4df4-bffd-21b2d80cf2d3"},{"@id":"https://w3id.org/locolligo/BIFMO-post-1840/15951ff3-4b26-4aac-96e6-e8a4a7d6efc2","properties":{"url":"https://bifmo.history.ac.uk/entry/chick-thomas-1839","title":"Chick, Thomas","address":"3 Mornington rd. Rgt's pk","active":1871,"notes":"Street not known as Mortimer Crescent and Mortimer Place."},"geometry":{"type":"Point","coordinates":[-0.188595,51.537984],"certainty":"certain"},"uuid":"15951ff3-4b26-4aac-96e6-e8a4a7d6efc2"},{"@id":"https://w3id.org/locolligo/BIFMO-post-1840/a7aafe2f-5dea-4e98-8d39-8c342f8e3914","properties":{"title":"Timbrell , Samuel","address":"2 Seymour rw. Lit. Chels","active":1871,"notes":"Approximate location, plotted with information from British History Online: Survey of London"},"geometry":{"type":"Point","coordinates":[-0.188527,51.480666],"certainty":"certain"},"uuid":"a7aafe2f-5dea-4e98-8d39-8c342f8e3914"},{"@id":"https://w3id.org/locolligo/BIFMO-post-1840/d983ee90-48ba-4726-819f-313e19aa5237","properties":{"url":"https://bifmo.history.ac.uk/entry/colbourne-james-1871","title":"Colbourne, Jas.","address":"19, Kensington High Street, W","active":1871},"geometry":{"type":"Point","coordinates":[-0.188336,51.502248],"certainty":"certain"},"uuid":"d983ee90-48ba-4726-819f-313e19aa5237"},{"@id":"https://w3id.org/locolligo/BIFMO-post-1840/6d436d9e-4cde-43d9-ac67-fa5edabe12a3","properties":{"url":"https://bifmo.history.ac.uk/entry/coldwell-robert-1839","title":"Coldwell, Robert","address":"19 Kensington High street W","active":1845},"geometry":{"type":"Point","coordinates":[-0.188336,51.502248],"certainty":"certain"},"uuid":"6d436d9e-4cde-43d9-ac67-fa5edabe12a3"},{"@id":"https://w3id.org/locolligo/BIFMO-post-1840/f89b39a9-c0d6-45bb-a2d9-4d32f5af0b07","properties":{"url":"https://bifmo.history.ac.uk/entry/day-theophls-1845","title":"Day, Theophls","address":"4, Kensington High Street, W","active":1845},"geometry":{"type":"Point","coordinates":[-0.187963,51.502389],"certainty":"certain"},"uuid":"f89b39a9-c0d6-45bb-a2d9-4d32f5af0b07"},{"@id":"https://w3id.org/locolligo/BIFMO-post-1840/f359d6b0-cd2b-48b9-ac5a-004ad74c23e9","properties":{"url":"https://bifmo.history.ac.uk/entry/handy-samuel-1845","title":"Handy, Samuel","address":"8, Mortimer Road, N","active":1845,"notes":"Street not known as Mortimer Crescent and Mortimer Place."},"geometry":{"type":"Point","coordinates":[-0.187951,51.53769],"certainty":"certain"},"uuid":"f359d6b0-cd2b-48b9-ac5a-004ad74c23e9"},{"@id":"https://w3id.org/locolligo/BIFMO-post-1840/a2789ce3-2d6a-4772-9ecf-fba5c328bbe4","properties":{"url":"https://bifmo.history.ac.uk/entry/birks-charles-1871","title":"Birks , Charles","address":"95 Queen’s rd.Bayswater W","active":1871,"notes":"Street now known as Queensway"},"geometry":{"type":"Point","coordinates":[-0.187743,51.51262],"certainty":"certain"},"uuid":"a2789ce3-2d6a-4772-9ecf-fba5c328bbe4"},{"@id":"https://w3id.org/locolligo/BIFMO-post-1840/5b32db8d-b1bb-4131-a08c-752b20cb734e","properties":{"url":"https://bifmo.history.ac.uk/entry/cummins-j-1845","title":"Cummins, J.","address":"59 Queen’s rd.BayswaterW","active":1845,"notes":"Street now known as Queensway"},"geometry":{"type":"Point","coordinates":[-0.187703,51.512041],"certainty":"certain"},"uuid":"5b32db8d-b1bb-4131-a08c-752b20cb734e"},{"@id":"https://w3id.org/locolligo/BIFMO-post-1840/7cef1c67-9471-495c-bbad-95c7c6500500","properties":{"url":"https://bifmo.history.ac.uk/entry/fuller-james-1835-39","title":"Fuller, James","address":"39, Queen’s Road, Bayswater, W","active":1845,"notes":"Street now known as Queensway"},"geometry":{"type":"Point","coordinates":[-0.187538,51.511453],"certainty":"certain"},"uuid":"7cef1c67-9471-495c-bbad-95c7c6500500"},{"@id":"https://w3id.org/locolligo/BIFMO-post-1840/ae6f9671-57eb-4a9d-9a74-97c16042d758","properties":{"title":"Thompson, George","address":"35, Queen’s Road, Notting Hill, W","active":1845,"notes":"Street (probably) now known as Queensway, query as Queensway is referenced as Queen's Road, Bayswater in same directory.  "},"geometry":{"type":"Point","coordinates":[-0.18741,51.511431],"certainty":"certain"},"uuid":"ae6f9671-57eb-4a9d-9a74-97c16042d758"},{"@id":"https://w3id.org/locolligo/BIFMO-post-1840/35cf4c94-3fd5-42a8-8cae-c2cb88d35764","properties":{"title":"Mead , Joseph","address":"25 Queen’s road, Bayswater W","active":1871,"notes":"Street now known as Queensway"},"geometry":{"type":"Point","coordinates":[-0.187318,51.511157],"certainty":"certain"},"uuid":"35cf4c94-3fd5-42a8-8cae-c2cb88d35764"},{"@id":"https://w3id.org/locolligo/BIFMO-post-1840/92d8ea2a-d75a-4c11-b1cc-125ac100a2e2","properties":{"url":"https://bifmo.history.ac.uk/entry/robbins-edward-1845","title":"Robbins, Edward","address":"22 Queen’s rd.BayswtrW","active":1845,"notes":"Street now known as Queensway"},"geometry":{"type":"Point","coordinates":[-0.187149,51.511141],"certainty":"certain"},"uuid":"92d8ea2a-d75a-4c11-b1cc-125ac100a2e2"},{"@id":"https://w3id.org/locolligo/BIFMO-post-1840/8721027a-cc95-4f06-b01e-21a023e72942","properties":{"title":"Burr, R","address":"19, Inverness Road, Bayswater, W","active":1871,"notes":"also for hire "},"geometry":{"type":"Point","coordinates":[-0.186364,51.511565],"certainty":"certain"},"uuid":"8721027a-cc95-4f06-b01e-21a023e72942"},{"@id":"https://w3id.org/locolligo/BIFMO-post-1840/bc58f094-d2cf-4f3a-a4a7-76528bf75b6b","properties":{"title":"Burr, R","address":"19 Inverness road W","active":1871},"geometry":{"type":"Point","coordinates":[-0.186364,51.511565],"certainty":"certain"},"uuid":"bc58f094-d2cf-4f3a-a4a7-76528bf75b6b"},{"@id":"https://w3id.org/locolligo/BIFMO-post-1840/d65860ac-357a-4037-ba8f-8b7a0250ca95","properties":{"title":"Burr, R","address":"19Invrnss.rd W","active":1871},"geometry":{"type":"Point","coordinates":[-0.186364,51.511565],"certainty":"certain"},"uuid":"d65860ac-357a-4037-ba8f-8b7a0250ca95"},{"@id":"https://w3id.org/locolligo/BIFMO-post-1840/d0264944-b9fc-4370-8532-fdf8bd0989f5","properties":{"title":"Burr, R.","address":"19, Inverness Road, W","active":1871},"geometry":{"type":"Point","coordinates":[-0.186364,51.511565],"certainty":"certain"},"uuid":"d0264944-b9fc-4370-8532-fdf8bd0989f5"},{"@id":"https://w3id.org/locolligo/BIFMO-post-1840/7e81699c-f143-4dac-80ea-9406f5b21acd","properties":{"url":"https://bifmo.history.ac.uk/entry/levasseur-l-1871-1886","title":"Levasseur, Louis","address":"20A, Inverness Road, W","active":1871},"geometry":{"type":"Point","coordinates":[-0.185814,51.511461],"certainty":"certain"},"uuid":"7e81699c-f143-4dac-80ea-9406f5b21acd"},{"@id":"https://w3id.org/locolligo/BIFMO-post-1840/6d2bebec-5143-461d-bfee-f26aa9bbbe6b","properties":{"url":"https://bifmo.history.ac.uk/entry/calver-william-samuel-1871","title":"Calver, Wm. Samuel","address":"7, Harrow Road, Paddington, W","active":1871,"notes":-0.1714368},"geometry":{"type":"Point","coordinates":[-0.18527,51.514548],"certainty":"certain"},"uuid":"6d2bebec-5143-461d-bfee-f26aa9bbbe6b"},{"@id":"https://w3id.org/locolligo/BIFMO-post-1840/fd36c0c3-edd9-4cbc-a632-eac909efdbec","properties":{"url":"https://bifmo.history.ac.uk/entry/grossetete-armand-1871","title":"Grossetete, Armand","address":"4, Hanover Place, Regent’s Park, NW","active":1871},"geometry":{"type":"Point","coordinates":[-0.18527,51.514548],"certainty":"certain"},"uuid":"fd36c0c3-edd9-4cbc-a632-eac909efdbec"},{"@id":"https://w3id.org/locolligo/BIFMO-post-1840/519e1b14-0044-4859-8195-8035edfa94d6","properties":{"title":"Moore, William","address":"25 Hart st. Bloomsbury","active":1845,"notes":-0.1251787},"geometry":{"type":"Point","coordinates":[-0.18527,51.514548],"certainty":"certain"},"uuid":"519e1b14-0044-4859-8195-8035edfa94d6"},{"@id":"https://w3id.org/locolligo/BIFMO-post-1840/d8124ba7-11ec-4296-858a-83d66cf08e39","properties":{"url":"https://bifmo.history.ac.uk/entry/sams-j-j-1835-39","title":"Sams, John","address":"4 Hanover pl. Rgt's. pk. rd","active":1845},"geometry":{"type":"Point","coordinates":[-0.18527,51.514548],"certainty":"certain"},"uuid":"d8124ba7-11ec-4296-858a-83d66cf08e39"},{"@id":"https://w3id.org/locolligo/BIFMO-post-1840/8d2a8940-8586-4698-953f-85ec8c055533","properties":{"url":"https://bifmo.history.ac.uk/entry/merrick-george-1823-39","title":"Merrick, George","address":"116, Boundary Road, NW","active":1845},"geometry":{"type":"Point","coordinates":[-0.18356,51.538444],"certainty":"certain"},"uuid":"8d2a8940-8586-4698-953f-85ec8c055533"},{"@id":"https://w3id.org/locolligo/BIFMO-post-1840/0a108286-5a12-4f6f-a3b1-ceb40b66c85e","properties":{"url":"https://bifmo.history.ac.uk/entry/herring-william-1871","title":"Herring, William","address":"30, Leinster Terrace, W","active":1871,"notes":"Not on Goad or Horwood, used OS 40s-60s but could have been different numbering in 19th century"},"geometry":{"type":"Point","coordinates":[-0.183243,51.511929],"certainty":"certain"},"uuid":"0a108286-5a12-4f6f-a3b1-ceb40b66c85e"},{"@id":"https://w3id.org/locolligo/BIFMO-post-1840/9e131f2a-b72e-4999-a465-9ff09c26a86a","properties":{"url":"https://bifmo.history.ac.uk/entry/blackman-george-1871-0","title":"Blackman, George","address":"3, Albert ter., Bishop’s Road, W","active":1871,"notes":"Approximate location, Bishops Road now Bishop's Bridge Road."},"geometry":{"type":"Point","coordinates":[-0.18309,51.517279],"certainty":"certain"},"uuid":"9e131f2a-b72e-4999-a465-9ff09c26a86a"},{"@id":"https://w3id.org/locolligo/BIFMO-post-1840/6b31625d-d3d8-4d8c-9892-b07d5a841e6e","properties":{"url":"https://bifmo.history.ac.uk/entry/bagshaw-edward-1871","title":"Bagshaw, Edward","address":"97 Boundary road NW","active":1871},"geometry":{"type":"Point","coordinates":[-0.182788,51.538711],"certainty":"certain"},"uuid":"6b31625d-d3d8-4d8c-9892-b07d5a841e6e"},{"@id":"https://w3id.org/locolligo/BIFMO-post-1840/f89fc7e9-6ffc-43bd-bc12-93b35bfebd0a","properties":{"url":"https://bifmo.history.ac.uk/entry/taylor-james-1871","title":"Taylor, James","address":"393, Fulham Road, SW","active":1871,"notes":"Current Fulham Road numbering, not in the Layers maps"},"geometry":{"type":"Point","coordinates":[-0.182346,51.48495],"certainty":"certain"},"uuid":"f89fc7e9-6ffc-43bd-bc12-93b35bfebd0a"},{"@id":"https://w3id.org/locolligo/BIFMO-post-1840/0e1821b0-9034-430b-9c6e-ba6af7bbc3d6","properties":{"url":"https://bifmo.history.ac.uk/entry/teague-joseph-1871","title":"Teague , Joseph","address":"6 Odell place, Little Chelsea","active":1871},"geometry":{"type":"Point","coordinates":[-0.182066,51.485301],"certainty":"certain"},"uuid":"0e1821b0-9034-430b-9c6e-ba6af7bbc3d6"},{"@id":"https://w3id.org/locolligo/BIFMO-post-1840/8a46234a-e6bd-4be2-aaa7-ccba22b08de6","properties":{"title":"Burr, R","address":"8 & 10 Bishop’s road, Paddington W","active":1871,"notes":"Now 'Bishop's Bridge Road'"},"geometry":{"type":"Point","coordinates":[-0.182016,51.51753],"certainty":"certain"},"uuid":"8a46234a-e6bd-4be2-aaa7-ccba22b08de6"},{"@id":"https://w3id.org/locolligo/BIFMO-post-1840/54901825-6202-4653-bb6d-4c66b9da7de1","properties":{"title":"Burr, R","address":"8 & 10, Bishop’s Road, Paddington, W","active":1871,"notes":"Now 'Bishop's Bridge Road'"},"geometry":{"type":"Point","coordinates":[-0.182016,51.51753],"certainty":"certain"},"uuid":"54901825-6202-4653-bb6d-4c66b9da7de1"},{"@id":"https://w3id.org/locolligo/BIFMO-post-1840/16f3016c-733b-439c-8e6d-67336b278ac1","properties":{"title":"Burr, R.","address":"8&10 Bishop’s rd. Paddington W","active":1871,"notes":"Now 'Bishop's Bridge Road'"},"geometry":{"type":"Point","coordinates":[-0.182016,51.51753],"certainty":"certain"},"uuid":"16f3016c-733b-439c-8e6d-67336b278ac1"},{"@id":"https://w3id.org/locolligo/BIFMO-post-1840/c5fa0222-4c25-4f89-98d7-35985b939ce5","properties":{"url":"https://bifmo.history.ac.uk/entry/burr-robert-1829-39","title":"Burr, Robert","address":"8 to 10, Bishop’s Road, W","active":1845,"notes":"Now 'Bishop's Bridge Road'"},"geometry":{"type":"Point","coordinates":[-0.182016,51.51753],"certainty":"certain"},"uuid":"c5fa0222-4c25-4f89-98d7-35985b939ce5"},{"@id":"https://w3id.org/locolligo/BIFMO-post-1840/1b4de103-1975-4d50-956f-81f4da46f381","properties":{"url":"https://bifmo.history.ac.uk/entry/timothy-david-1827-35","title":"Timothy, David","address":"216 Fulham road SW","active":1845,"notes":"Current Fulham Road numbering, not in the Layers maps"},"geometry":{"type":"Point","coordinates":[-0.181906,51.485519],"certainty":"certain"},"uuid":"1b4de103-1975-4d50-956f-81f4da46f381"},{"@id":"https://w3id.org/locolligo/BIFMO-post-1840/1237cef5-a453-470c-9b64-293989d814fa","properties":{"url":"https://bifmo.history.ac.uk/entry/jackson-joseph-1871","title":"Jackson, Joseph","address":"5, Violet Hill, St. John’s Wood, NW","active":1871},"geometry":{"type":"Point","coordinates":[-0.181343,51.532877],"certainty":"certain"},"uuid":"1237cef5-a453-470c-9b64-293989d814fa"},{"@id":"https://w3id.org/locolligo/BIFMO-post-1840/62426e18-e9e1-4a93-8e78-6e9db5b14587","properties":{"url":"https://bifmo.history.ac.uk/entry/mote-edward-1835-39","title":"Mote, Edward","address":"12 Park ter. King's rd. Chls","active":1845,"notes":"Street lost, plotted with information from British History Online: Survey of London"},"geometry":{"type":"Point","coordinates":[-0.180268,51.485035],"certainty":"certain"},"uuid":"62426e18-e9e1-4a93-8e78-6e9db5b14587"},{"@id":"https://w3id.org/locolligo/BIFMO-post-1840/cd83388b-d2d3-4dcb-8f28-e9d29f30b784","properties":{"url":"https://bifmo.history.ac.uk/entry/cubitt-thomas-riches-1845","title":"Cubitt, Thomas Riches","address":"5, Craven ter., Bayswater, W","active":1845},"geometry":{"type":"Point","coordinates":[-0.179382,51.513357],"certainty":"certain"},"uuid":"cd83388b-d2d3-4dcb-8f28-e9d29f30b784"},{"@id":"https://w3id.org/locolligo/BIFMO-post-1840/77cc1f95-9b8e-4e06-8fbb-5f9e9ccadc35","properties":{"url":"https://bifmo.history.ac.uk/entry/reynolds-henry-1823-28","title":"Reynolds, Henry","address":"41 Craven rd.Westbrn. ter W","active":1845},"geometry":{"type":"Point","coordinates":[-0.179326,51.513975],"certainty":"certain"},"uuid":"77cc1f95-9b8e-4e06-8fbb-5f9e9ccadc35"},{"@id":"https://w3id.org/locolligo/BIFMO-post-1840/8c269231-d3da-49e8-82a2-fda2ad1a8490","properties":{"url":"https://bifmo.history.ac.uk/entry/cotsford-edward-j-1871","title":"Cotsford, Edward J.","address":"5, Thistle Grove, West Brompton, SW","active":1871},"geometry":{"type":"Point","coordinates":[-0.179236,51.487877],"certainty":"certain"},"uuid":"8c269231-d3da-49e8-82a2-fda2ad1a8490"},{"@id":"https://w3id.org/locolligo/BIFMO-post-1840/9b7d0418-3c77-4159-83ce-daa85933ed03","properties":{"url":"https://bifmo.history.ac.uk/entry/foster-william-1871","title":"Foster, Wm.","address":"19A, Hall park, Edgw. Rd","active":1871},"geometry":{"type":"Point","coordinates":[-0.178809,51.523555],"certainty":"certain"},"uuid":"9b7d0418-3c77-4159-83ce-daa85933ed03"},{"@id":"https://w3id.org/locolligo/BIFMO-post-1840/56622c46-4bac-4e32-9415-abc27dad1d8d","properties":{"title":"Bower, Charles","address":"20, Craven ter., Bayswater, W","active":1871},"geometry":{"type":"Point","coordinates":[-0.178708,51.512738],"certainty":"certain"},"uuid":"56622c46-4bac-4e32-9415-abc27dad1d8d"},{"@id":"https://w3id.org/locolligo/BIFMO-post-1840/4a1de19d-e20f-4526-832a-44ba662c96c0","properties":{"url":"https://bifmo.history.ac.uk/entry/powell-thomas-1845","title":"Powell, Thomas","address":"5, Mansfield Place, Kentish Town, NW","active":1845},"geometry":{"type":"Point","coordinates":[-0.177795,51.558203],"certainty":"certain"},"uuid":"4a1de19d-e20f-4526-832a-44ba662c96c0"},{"@id":"https://w3id.org/locolligo/BIFMO-post-1840/3c98ef72-6792-4153-bfa5-c95cfa2a196a","properties":{"url":"https://bifmo.history.ac.uk/entry/lloyd-william-1839","title":"Lloyd, William","address":"35, Westbourne ter. north, W","active":1845},"geometry":{"type":"Point","coordinates":[-0.177482,51.51478],"certainty":"certain"},"uuid":"3c98ef72-6792-4153-bfa5-c95cfa2a196a"},{"@id":"https://w3id.org/locolligo/BIFMO-post-1840/06d64139-e658-409f-93bf-b9cf6f75fff4","properties":{"url":"https://bifmo.history.ac.uk/entry/tett-william-f-1845","title":"Tett, William F.","address":"80 Park walk, Chelsea SW","active":1845},"geometry":{"type":"Point","coordinates":[-0.177456,51.484027],"certainty":"certain"},"uuid":"06d64139-e658-409f-93bf-b9cf6f75fff4"},{"@id":"https://w3id.org/locolligo/BIFMO-post-1840/519877f9-e380-43c4-a3ab-a61076b0aae6","properties":{"url":"https://bifmo.history.ac.uk/entry/crichton-john-1871","title":"Crichton, John","address":"2 High st. Newington butts, & 1 Marlboro' pl. Walworth rd","active":1871},"geometry":{"type":"Point","coordinates":[-0.177185,51.535783],"certainty":"certain"},"uuid":"519877f9-e380-43c4-a3ab-a61076b0aae6"},{"@id":"https://w3id.org/locolligo/BIFMO-post-1840/537c3cb1-5d4f-4f8e-ae32-f2b556d35777","properties":{"url":"https://bifmo.history.ac.uk/entry/griffiths-griffith-1820-39","title":"Griffiths, Griffith","address":"125, Hall pl., Paddington grn, W","active":1871},"geometry":{"type":"Point","coordinates":[-0.176154,51.52306],"certainty":"certain"},"uuid":"537c3cb1-5d4f-4f8e-ae32-f2b556d35777"},{"@id":"https://w3id.org/locolligo/BIFMO-post-1840/4c6b573f-59ab-4f8c-adbf-d7f6c7e7880d","properties":{"url":"https://bifmo.history.ac.uk/entry/dent-joseph-1871","title":"Dent, Joseph","address":"17 Spring st. Portman sq","active":1871,"notes":"now called St. Helena Street, https://www.maps.thehunthouse.com/Streets/Old_to_New_Abolished_London_Street_Names.htm#S"},"geometry":{"type":"Point","coordinates":[-0.176067,51.515002],"certainty":"certain"},"uuid":"4c6b573f-59ab-4f8c-adbf-d7f6c7e7880d"},{"@id":"https://w3id.org/locolligo/BIFMO-post-1840/dfe5d233-dd7a-47d1-bf15-3e3feb17c515","properties":{"url":"https://bifmo.history.ac.uk/entry/moxey-james-1871","title":"Moxey, James","address":"114, Fulham Road, SW","active":1871,"notes":"Current Fulham Road numbering, not in the Layers maps"},"geometry":{"type":"Point","coordinates":[-0.176056,51.489344],"certainty":"certain"},"uuid":"dfe5d233-dd7a-47d1-bf15-3e3feb17c515"},{"@id":"https://w3id.org/locolligo/BIFMO-post-1840/11d4a9f7-0a85-4b75-bc0c-b9fcef171c0a","properties":{"url":"https://bifmo.history.ac.uk/entry/bragg-william-1845-1871","title":"Bragg, William","address":"21 Spring st. Marylebn","active":1871},"geometry":{"type":"Point","coordinates":[-0.176018,51.515144],"certainty":"certain"},"uuid":"11d4a9f7-0a85-4b75-bc0c-b9fcef171c0a"},{"@id":"https://w3id.org/locolligo/BIFMO-post-1840/db9ac891-15a9-477c-8c28-d19d6b2c255d","properties":{"url":"https://bifmo.history.ac.uk/entry/moffatt-william-1871","title":"Moffatt, William","address":"14, Westbourne Street, SW","active":1871},"geometry":{"type":"Point","coordinates":[-0.175411,51.512849],"certainty":"certain"},"uuid":"db9ac891-15a9-477c-8c28-d19d6b2c255d"},{"@id":"https://w3id.org/locolligo/BIFMO-post-1840/ca6be5ec-449b-4026-b1ef-646ca195e830","properties":{"url":"https://bifmo.history.ac.uk/entry/watson-george-1814-35","title":"Watson, George","address":"42 Spring st. Paddington","active":1845,"notes":"now called Panton Street, https://www.maps.thehunthouse.com/Streets/Old_to_New_Abolished_London_Street_Names.htm#S"},"geometry":{"type":"Point","coordinates":[-0.175214,51.514423],"certainty":"certain"},"uuid":"ca6be5ec-449b-4026-b1ef-646ca195e830"},{"@id":"https://w3id.org/locolligo/BIFMO-post-1840/d015c93c-9dc8-4404-a97f-bd47d8d8f5ce","properties":{"url":"https://bifmo.history.ac.uk/entry/sweet-frederic-1871","title":"Sweet , Frederic","address":"35 North Whf. Rd. Pdngtn","active":1871},"geometry":{"type":"Point","coordinates":[-0.175084,51.518578],"certainty":"certain"},"uuid":"d015c93c-9dc8-4404-a97f-bd47d8d8f5ce"},{"@id":"https://w3id.org/locolligo/BIFMO-post-1840/cd8664b1-5fec-479d-bc9e-4c5989ddafda","properties":{"url":"https://bifmo.history.ac.uk/entry/purdon-thomas-1845","title":"Purdon, Thomas","address":"80, Fulham Road, SW","active":1845,"notes":"Current Fulham Road numbering, not in the Layers maps"},"geometry":{"type":"Point","coordinates":[-0.174747,51.490171],"certainty":"certain"},"uuid":"cd8664b1-5fec-479d-bc9e-4c5989ddafda"},{"@id":"https://w3id.org/locolligo/BIFMO-post-1840/1ba5b187-dfc4-458c-a7fd-eed44c6eb698","properties":{"title":"Peacock , James","address":"9.5, King’s College Road, Hampstd., NW","active":1871},"geometry":{"type":"Point","coordinates":[-0.174167,51.541248],"certainty":"certain"},"uuid":"1ba5b187-dfc4-458c-a7fd-eed44c6eb698"},{"@id":"https://w3id.org/locolligo/BIFMO-post-1840/aff8e8ec-91c0-4ed4-8c01-950f48220df4","properties":{"url":"https://bifmo.history.ac.uk/entry/maxey-william-1845","title":"Maxey, William","address":"209, Fulham Road, SW","active":1845,"notes":"Current Fulham Road numbering, not in the Layers maps"},"geometry":{"type":"Point","coordinates":[-0.173438,51.490627],"certainty":"certain"},"uuid":"aff8e8ec-91c0-4ed4-8c01-950f48220df4"},{"@id":"https://w3id.org/locolligo/BIFMO-post-1840/358ac30a-7da9-4aae-a3cc-63471d1243c0","properties":{"url":"https://bifmo.history.ac.uk/entry/foulkes-frederick-1871","title":"Foulkes , Fredk.","address":"123 Praed st. Paddington","active":1871},"geometry":{"type":"Point","coordinates":[-0.1734,51.516774],"certainty":"certain"},"uuid":"358ac30a-7da9-4aae-a3cc-63471d1243c0"},{"@id":"https://w3id.org/locolligo/BIFMO-post-1840/6b1a2a1a-e7fc-4677-ae09-5dcd68317046","properties":{"url":"https://bifmo.history.ac.uk/entry/addis-thomas-1845","title":"Addis, Thomas","address":"31 Portman pl. Edgware rd","active":1845,"notes":"Street lost, plotted using Lockie's Topography of London (1810)"},"geometry":{"type":"Point","coordinates":[-0.173074,51.521679],"certainty":"certain"},"uuid":"6b1a2a1a-e7fc-4677-ae09-5dcd68317046"},{"@id":"https://w3id.org/locolligo/BIFMO-post-1840/bd9f4181-9f9e-4d4e-92ab-35ea101bf23b","properties":{"url":"https://bifmo.history.ac.uk/entry/clark-w-sons-1871","title":"Clark, W.","address":"20 Portman pl. Edgware rd","active":1871,"notes":"Street lost, plotted using Lockie's Topography of London (1810)"},"geometry":{"type":"Point","coordinates":[-0.172698,51.521826],"certainty":"certain"},"uuid":"bd9f4181-9f9e-4d4e-92ab-35ea101bf23b"},{"@id":"https://w3id.org/locolligo/BIFMO-post-1840/56d06e44-8dc8-4daa-926b-ac1810dfafe9","properties":{"url":"https://bifmo.history.ac.uk/entry/moss-saul-1810-1892","title":"Moss, Saul","address":"187, Fulham Road, SW","active":1871,"notes":"Current Fulham Road numbering, not in the Layers maps"},"geometry":{"type":"Point","coordinates":[-0.172325,51.491376],"certainty":"certain"},"uuid":"56d06e44-8dc8-4daa-926b-ac1810dfafe9"},{"@id":"https://w3id.org/locolligo/BIFMO-post-1840/e6cf0eac-f9d4-4ed8-84d9-9ec334ddd024","properties":{"url":"https://bifmo.history.ac.uk/entry/metcalf-charles-1845","title":"Metcalf, Charles","address":"253, King’s Road, Chelsea, SW","active":1845},"geometry":{"type":"Point","coordinates":[-0.171951,51.48607],"certainty":"certain"},"uuid":"e6cf0eac-f9d4-4ed8-84d9-9ec334ddd024"},{"@id":"https://w3id.org/locolligo/BIFMO-post-1840/a3a6ab0f-a17c-4c54-9ae0-1b06d2dbb85f","properties":{"url":"https://bifmo.history.ac.uk/entry/baker-thomas-1839-0","title":"Baker, T. ","address":"121, Church Street, Lisson Grove, NW","active":1845},"geometry":{"type":"Point","coordinates":[-0.171909,51.522232],"certainty":"certain"},"uuid":"a3a6ab0f-a17c-4c54-9ae0-1b06d2dbb85f"},{"@id":"https://w3id.org/locolligo/BIFMO-post-1840/3c053b38-0d27-4b05-b86e-b09961c2cbf6","properties":{"title":"Schade, Andrew F. ","address":"173, Fulham Road, SW","active":1845,"notes":"Current Fulham Road numbering, not in the Layers maps"},"geometry":{"type":"Point","coordinates":[-0.171847,51.491667],"certainty":"certain"},"uuid":"3c053b38-0d27-4b05-b86e-b09961c2cbf6"},{"@id":"https://w3id.org/locolligo/BIFMO-post-1840/65946eac-6cd8-428e-964d-3c9865b80c02","properties":{"url":"https://bifmo.history.ac.uk/entry/townshend-mary-ann-mrs-1845","title":"Townshend, Mary Ann","address":"5 Market street, Edgware rd W","active":1845,"notes":"Street lost, approximate location, street demolished in 20th century, location mapped using Report of the Medical Officer of Health for St. Marylebone, Metropolitan Borough, 1930. "},"geometry":{"type":"Point","coordinates":[-0.171831,51.523133],"certainty":"certain"},"uuid":"65946eac-6cd8-428e-964d-3c9865b80c02"},{"@id":"https://w3id.org/locolligo/BIFMO-post-1840/3e0f5564-ddce-4479-982c-51dd87cc9a0b","properties":{"url":"https://bifmo.history.ac.uk/entry/larking-samuel-1871","title":"Larking, Samuel","address":"13, Stewart’s Grove, Fulham Road, DW","active":1871},"geometry":{"type":"Point","coordinates":[-0.171801,51.490851],"certainty":"certain"},"uuid":"3e0f5564-ddce-4479-982c-51dd87cc9a0b"},{"@id":"https://w3id.org/locolligo/BIFMO-post-1840/62735e3d-0e13-425c-8636-18e26582f273","properties":{"url":"https://bifmo.history.ac.uk/entry/whitaker-joseph-1845","title":"Whitaker, Joseph","address":"9 to 15, Milner’s Mews, Edgware Road, W","active":1845,"notes":"Street lost, approximate location, street demolished in 20th century, location mapped using Report of the Medical Officer of Health for St. Marylebone, Metropolitan Borough, 1930. "},"geometry":{"type":"Point","coordinates":[-0.171606,51.522506],"certainty":"certain"},"uuid":"62735e3d-0e13-425c-8636-18e26582f273"},{"@id":"https://w3id.org/locolligo/BIFMO-post-1840/f78b62e9-10fb-41c1-b0b2-05c33b954a3e","properties":{"url":"https://bifmo.history.ac.uk/entry/rothwell-james-1871","title":"Rothwell, Jas.","address":"95, High Street, St. John’s Wood, NW","active":1871},"geometry":{"type":"Point","coordinates":[-0.171382,51.533885],"certainty":"certain"},"uuid":"f78b62e9-10fb-41c1-b0b2-05c33b954a3e"},{"@id":"https://w3id.org/locolligo/BIFMO-post-1840/94be5e49-f202-494f-83c2-1cd34935ce82","properties":{"url":"https://bifmo.history.ac.uk/entry/deeker-james-w-s-1871","title":"Deeker, Jas. W. S.","address":"30 Praed street, Paddington W","active":1871},"geometry":{"type":"Point","coordinates":[-0.17136,51.518075],"certainty":"certain"},"uuid":"94be5e49-f202-494f-83c2-1cd34935ce82"},{"@id":"https://w3id.org/locolligo/BIFMO-post-1840/63d094b4-a873-40a6-a979-fc5e41f7c19e","properties":{"url":"https://bifmo.history.ac.uk/entry/pearson-john-1820-39","title":"Pearson, John","address":"77 High st. St. John’s wood NW","active":1845},"geometry":{"type":"Point","coordinates":[-0.171327,51.53385],"certainty":"certain"},"uuid":"63d094b4-a873-40a6-a979-fc5e41f7c19e"},{"@id":"https://w3id.org/locolligo/BIFMO-post-1840/1d3f1d48-e6ba-45aa-b847-4017a89df743","properties":{"url":"https://bifmo.history.ac.uk/entry/elliott-h-mrs-1871","title":"Elliot, H.","address":"97, Church Street, Edgware Road, NW","active":1871},"geometry":{"type":"Point","coordinates":[-0.171239,51.522588],"certainty":"certain"},"uuid":"1d3f1d48-e6ba-45aa-b847-4017a89df743"},{"@id":"https://w3id.org/locolligo/BIFMO-post-1840/ef2fa93f-78fa-4b23-9072-f51672400c86","properties":{"url":"https://bifmo.history.ac.uk/entry/rothwell-james-1871","title":"Rothwell, Jas.","address":"35, Cochrane Street, St. John’s Wood, NW","active":1871},"geometry":{"type":"Point","coordinates":[-0.171207,51.532871],"certainty":"certain"},"uuid":"ef2fa93f-78fa-4b23-9072-f51672400c86"},{"@id":"https://w3id.org/locolligo/BIFMO-post-1840/3022f9e0-cd86-4f67-870c-caa8566af6fa","properties":{"url":"https://bifmo.history.ac.uk/entry/dutton-samuel-g-1871","title":"Dutton, Saml. G.","address":"94 Grand Junction ter","active":1871},"geometry":{"type":"Point","coordinates":[-0.171098,51.516418],"certainty":"certain"},"uuid":"3022f9e0-cd86-4f67-870c-caa8566af6fa"},{"@id":"https://w3id.org/locolligo/BIFMO-post-1840/9e3fe306-1719-4ce1-bf55-3ad71653d727","properties":{"url":"https://bifmo.history.ac.uk/entry/dew-charles-1871","title":"Dew, Charles","address":"49 High st.St.John’s wood NW","active":1871},"geometry":{"type":"Point","coordinates":[-0.170733,51.533254],"certainty":"certain"},"uuid":"9e3fe306-1719-4ce1-bf55-3ad71653d727"},{"@id":"https://w3id.org/locolligo/BIFMO-post-1840/17ef8915-584d-49d0-b278-df4d39a7d216","properties":{"url":"https://bifmo.history.ac.uk/entry/callow-francis-francis-callow-junior-1871","title":"Callow, Francis","address":"5 Wellington pl. Goswl. rd","active":1871},"geometry":{"type":"Point","coordinates":[-0.170501,51.531714],"certainty":"certain"},"uuid":"17ef8915-584d-49d0-b278-df4d39a7d216"},{"@id":"https://w3id.org/locolligo/BIFMO-post-1840/8e6d7d12-47bc-4b64-b140-71668313ce01","properties":{"url":"https://bifmo.history.ac.uk/entry/arrow-john-henry-1820-39","title":"Arrow, J. Henry","address":"20, Star Street, Edgware Road, W","active":1845},"geometry":{"type":"Point","coordinates":[-0.170033,51.517801],"certainty":"certain"},"uuid":"8e6d7d12-47bc-4b64-b140-71668313ce01"},{"@id":"https://w3id.org/locolligo/BIFMO-post-1840/eef7a4e5-c6f8-4c63-98e3-bffdb74235a0","properties":{"url":"https://bifmo.history.ac.uk/entry/gates-richard-1835","title":"Gates, Richard","address":"15 Praed street W","active":1845},"geometry":{"type":"Point","coordinates":[-0.169989,51.518772],"certainty":"certain"},"uuid":"eef7a4e5-c6f8-4c63-98e3-bffdb74235a0"},{"@id":"https://w3id.org/locolligo/BIFMO-post-1840/cc8e889b-826b-4784-82e2-7c4a349fde69","properties":{"url":"https://bifmo.history.ac.uk/entry/tiffin-henry-1871","title":"Tiffin, Henry","address":"17 Somers pl. east, New rd","active":1871,"notes":"now called Somers Crescent, http://www.rayment.info/general/road_name_changes/14_2S_Inner_London_Streets_Old_Names.html"},"geometry":{"type":"Point","coordinates":[-0.169979,51.515282],"certainty":"certain"},"uuid":"cc8e889b-826b-4784-82e2-7c4a349fde69"},{"@id":"https://w3id.org/locolligo/BIFMO-post-1840/b663d75d-fbdd-4dd5-bec4-23764dff0e47","properties":{"url":"https://bifmo.history.ac.uk/entry/rothwell-james-1871","title":"Rothwell, Jas.","address":"15, Portland pl., St. John’s Wood, NW","active":1871,"notes":"Stree now (possibly) known as St John’s Wood High Street"},"geometry":{"type":"Point","coordinates":[-0.169791,51.532567],"certainty":"certain"},"uuid":"b663d75d-fbdd-4dd5-bec4-23764dff0e47"},{"@id":"https://w3id.org/locolligo/BIFMO-post-1840/db5db30a-0f1d-462c-a8e8-9392bea50105","properties":{"url":"https://bifmo.history.ac.uk/entry/hewetson-thomas-william-john-hewetson-milner-hewetson-thexton-milner-1839-1900","title":"Hewetson, Thomas","address":"11, King’s College Road, NW","active":1871},"geometry":{"type":"Point","coordinates":[-0.169779,51.543844],"certainty":"certain"},"uuid":"db5db30a-0f1d-462c-a8e8-9392bea50105"},{"@id":"https://w3id.org/locolligo/BIFMO-post-1840/b130375e-d045-471f-ac0d-576e664011d4","properties":{"url":"https://bifmo.history.ac.uk/entry/handisyde-charles-1845-1871","title":"Handisyde, Charles","address":"1 Alexander pl. Brmptn","active":1871},"geometry":{"type":"Point","coordinates":[-0.169719,51.495066],"certainty":"certain"},"uuid":"b130375e-d045-471f-ac0d-576e664011d4"},{"@id":"https://w3id.org/locolligo/BIFMO-post-1840/2f1d6cc2-a847-4304-9fa9-63aba64dcb91","properties":{"url":"https://bifmo.history.ac.uk/entry/lanson-edward-1845","title":"l'Anson, Edward","address":"20, Sale Street, Paddington, W","active":1845},"geometry":{"type":"Point","coordinates":[-0.169288,51.5179],"certainty":"certain"},"uuid":"2f1d6cc2-a847-4304-9fa9-63aba64dcb91"},{"@id":"https://w3id.org/locolligo/BIFMO-post-1840/b56d7c00-1d6c-4115-b384-862f2589434d","properties":{"url":"https://bifmo.history.ac.uk/entry/ridley-john-1845","title":"Ridley, John","address":"45 Church st. Lisson grove NW","active":1845},"geometry":{"type":"Point","coordinates":[-0.169288,51.524018],"certainty":"certain"},"uuid":"b56d7c00-1d6c-4115-b384-862f2589434d"},{"@id":"https://w3id.org/locolligo/BIFMO-post-1840/2b6eb186-048d-4632-b5a4-eec6f0967f96","properties":{"url":"https://bifmo.history.ac.uk/entry/bowman-brothers-1871-1915","title":"Bowman, Thos.","address":"97, Fulham Road, SW","active":1871,"notes":"Current Fulham Road numbering, not in the Layers maps"},"geometry":{"type":"Point","coordinates":[-0.169216,51.493051],"certainty":"certain"},"uuid":"2b6eb186-048d-4632-b5a4-eec6f0967f96"},{"@id":"https://w3id.org/locolligo/BIFMO-post-1840/48a0b5d6-b419-4e74-b824-cc635b7db1d2","properties":{"url":"https://bifmo.history.ac.uk/entry/elliott-james-1845-1871","title":"Elliott, Jas.","address":"14 New Church st. we. Edgw.rd","active":1871,"notes":"New Church Street is now Church Street (cf. Greenwood 1828)"},"geometry":{"type":"Point","coordinates":[-0.169113,51.524319],"certainty":"certain"},"uuid":"48a0b5d6-b419-4e74-b824-cc635b7db1d2"},{"@id":"https://w3id.org/locolligo/BIFMO-post-1840/b76c6bc9-ecf9-43b8-8472-e61ad4e3538d","properties":{"url":"https://bifmo.history.ac.uk/entry/ager-stride-john-1845","title":"Ager, Stride John","address":"12 New Church st. Lisson gr","active":1845,"notes":"New Church Street is now Church Street (cf. Greenwood 1828)"},"geometry":{"type":"Point","coordinates":[-0.16907,51.524365],"certainty":"certain"},"uuid":"b76c6bc9-ecf9-43b8-8472-e61ad4e3538d"},{"@id":"https://w3id.org/locolligo/BIFMO-post-1840/bd84a1ca-edec-46c1-997d-87e768a5ed4a","properties":{"url":"https://bifmo.history.ac.uk/entry/larlham-henry-1871","title":"Larlham, Henry","address":"Jubilee Place, Chelsea, SW","active":1871},"geometry":{"type":"Point","coordinates":[-0.169009,51.48954],"certainty":"certain"},"uuid":"bd84a1ca-edec-46c1-997d-87e768a5ed4a"},{"@id":"https://w3id.org/locolligo/BIFMO-post-1840/16fcdcee-246a-4b0c-8187-22e28fbeb032","properties":{"url":"https://bifmo.history.ac.uk/entry/schambers-joseph-1845","title":"Schambers, Joseph","address":"1 Cottage pl. Sloane st","active":1845},"geometry":{"type":"Point","coordinates":[-0.168995,51.497493],"certainty":"certain"},"uuid":"16fcdcee-246a-4b0c-8187-22e28fbeb032"},{"@id":"https://w3id.org/locolligo/BIFMO-post-1840/1f59c73e-3203-4181-8aa5-bfb89ef27515","properties":{"url":"https://bifmo.history.ac.uk/entry/dear-w-b-1835-37","title":"Dear, William","address":"1 & 3, Fulham Road, SW","active":1871,"notes":"Current Fulham Road numbering, not in the Layers maps"},"geometry":{"type":"Point","coordinates":[-0.16892,51.493362],"certainty":"certain"},"uuid":"1f59c73e-3203-4181-8aa5-bfb89ef27515"},{"@id":"https://w3id.org/locolligo/BIFMO-post-1840/717ca366-d094-489a-b07d-19f4473dbd72","properties":{"title":"Richardson, William","address":"44, High Street, St. John’s Wood, NW","active":1845},"geometry":{"type":"Point","coordinates":[-0.168872,51.531995],"certainty":"certain"},"uuid":"717ca366-d094-489a-b07d-19f4473dbd72"},{"@id":"https://w3id.org/locolligo/BIFMO-post-1840/83e695b8-6ad0-4e14-bfc2-2283178cdbe9","properties":{"url":"https://bifmo.history.ac.uk/entry/allum-manoah-1845","title":"Allum, Manoah","address":"88, Leader Street, Chelsea, SW","active":1845,"notes":"Later renamed Ixworth Place, unable to work out numbers"},"geometry":{"type":"Point","coordinates":[-0.168724,51.491894],"certainty":"certain"},"uuid":"83e695b8-6ad0-4e14-bfc2-2283178cdbe9"},{"@id":"https://w3id.org/locolligo/BIFMO-post-1840/ec6be8b2-f15e-4bc8-84b4-59b67af0df9e","properties":{"url":"https://bifmo.history.ac.uk/entry/harris-charles-1871","title":"Harris, Charles","address":"41, Leader Street, Chelsea, SW","active":1871,"notes":"Later renamed Ixworth Place, unable to work out numbers"},"geometry":{"type":"Point","coordinates":[-0.168724,51.491894],"certainty":"certain"},"uuid":"ec6be8b2-f15e-4bc8-84b4-59b67af0df9e"},{"@id":"https://w3id.org/locolligo/BIFMO-post-1840/04ac13de-8e52-4d50-a9f3-3155c19d657c","properties":{"url":"https://bifmo.history.ac.uk/entry/martin-frederick-1823-39","title":"Martin, Frederick","address":"28 Michael's pl. Bromptn","active":1845,"notes":"Street now part of Brompton Road. "},"geometry":{"type":"Point","coordinates":[-0.16833,51.497088],"certainty":"certain"},"uuid":"04ac13de-8e52-4d50-a9f3-3155c19d657c"},{"@id":"https://w3id.org/locolligo/BIFMO-post-1840/ea8fdebf-c226-470e-b205-0038938702ad","properties":{"url":"https://bifmo.history.ac.uk/entry/miles-george-1871","title":"Miles, George","address":"12, High Street, St. John’s Wood, NW","active":1871},"geometry":{"type":"Point","coordinates":[-0.168273,51.53171],"certainty":"certain"},"uuid":"ea8fdebf-c226-470e-b205-0038938702ad"},{"@id":"https://w3id.org/locolligo/BIFMO-post-1840/e7181017-c4a3-4a22-8c7b-1f651d04bc50","properties":{"url":"https://bifmo.history.ac.uk/entry/merriman-j-mrs-1845","title":"Merriman, J.","address":"200 Brompton road SW","active":1845},"geometry":{"type":"Point","coordinates":[-0.168223,51.49714],"certainty":"certain"},"uuid":"e7181017-c4a3-4a22-8c7b-1f651d04bc50"},{"@id":"https://w3id.org/locolligo/BIFMO-post-1840/45aad481-64db-4abf-b3ac-34c4384d78b5","properties":{"url":"https://bifmo.history.ac.uk/entry/arnold-thomas-1871","title":"Arnold, Thomas","address":"1 Michael's pl, Brompton","active":1871,"notes":"Street now part of Brompton Road. "},"geometry":{"type":"Point","coordinates":[-0.167997,51.497215],"certainty":"certain"},"uuid":"45aad481-64db-4abf-b3ac-34c4384d78b5"},{"@id":"https://w3id.org/locolligo/BIFMO-post-1840/decbfd6e-015f-4e1d-ae07-b221862ecbcc","properties":{"title":"Rayner, Harry Ambrose","address":"60, Brompton Square, SW","active":1871},"geometry":{"type":"Point","coordinates":[-0.167842,51.497606],"certainty":"certain"},"uuid":"decbfd6e-015f-4e1d-ae07-b221862ecbcc"},{"@id":"https://w3id.org/locolligo/BIFMO-post-1840/15287be4-8d39-493a-8738-3706626305ac","properties":{"url":"https://bifmo.history.ac.uk/entry/green-charles-lindsey-1871","title":"Green, Charles Lindsey","address":"27, Blenheim Street, Chelsea, SW","active":1871,"notes":"Now 'Astell Street'"},"geometry":{"type":"Point","coordinates":[-0.167811,51.490158],"certainty":"certain"},"uuid":"15287be4-8d39-493a-8738-3706626305ac"},{"@id":"https://w3id.org/locolligo/BIFMO-post-1840/021e1b78-0a84-4189-9002-bb943b57e63c","properties":{"url":"https://bifmo.history.ac.uk/entry/callard-john-1845","title":"Callard, John","address":"20 Upper Lisson street NW","active":1845,"notes":"now called Lisson Street"},"geometry":{"type":"Point","coordinates":[-0.167729,51.521195],"certainty":"certain"},"uuid":"021e1b78-0a84-4189-9002-bb943b57e63c"},{"@id":"https://w3id.org/locolligo/BIFMO-post-1840/d6bb9673-9366-4fef-87b0-5aa2d03c039f","properties":{"url":"https://bifmo.history.ac.uk/entry/smith-james-1871","title":"Smith, James","address":"213, Brompton Road, SW","active":1871},"geometry":{"type":"Point","coordinates":[-0.167507,51.497321],"certainty":"certain"},"uuid":"d6bb9673-9366-4fef-87b0-5aa2d03c039f"},{"@id":"https://w3id.org/locolligo/BIFMO-post-1840/c0ff7abf-2625-4fa6-90ed-4717c047defc","properties":{"title":"Sutton, Henry","address":"154, Walton Street, SW","active":1845},"geometry":{"type":"Point","coordinates":[-0.167405,51.494846],"certainty":"certain"},"uuid":"c0ff7abf-2625-4fa6-90ed-4717c047defc"},{"@id":"https://w3id.org/locolligo/BIFMO-post-1840/b7719d90-07f3-49d7-b524-63d3b379a811","properties":{"title":"Cox, ","address":"209A, Brompton Road, SW","active":1871},"geometry":{"type":"Point","coordinates":[-0.167297,51.497474],"certainty":"certain"},"uuid":"b7719d90-07f3-49d7-b524-63d3b379a811"},{"@id":"https://w3id.org/locolligo/BIFMO-post-1840/7385ea53-b11a-4a40-bc66-967916901c09","properties":{"url":"https://bifmo.history.ac.uk/entry/cox-george-1835-39","title":"Cox, George","address":"209A, Brompton Road, SW","active":1871},"geometry":{"type":"Point","coordinates":[-0.167297,51.497474],"certainty":"certain"},"uuid":"7385ea53-b11a-4a40-bc66-967916901c09"},{"@id":"https://w3id.org/locolligo/BIFMO-post-1840/6b33beb8-b856-4905-9a8a-b2a3ecaf0e36","properties":{"url":"https://bifmo.history.ac.uk/entry/smith-edward-1871","title":"Smith, Edwd.","address":"209, Brompton Road, SW","active":1871},"geometry":{"type":"Point","coordinates":[-0.167297,51.497474],"certainty":"certain"},"uuid":"6b33beb8-b856-4905-9a8a-b2a3ecaf0e36"},{"@id":"https://w3id.org/locolligo/BIFMO-post-1840/4c554bab-0fb4-45cb-956e-25e8b8dffa89","properties":{"url":"https://bifmo.history.ac.uk/entry/jenkins-william-1871-0","title":"Jenkins, Wm.","address":"5, Brown’s Court, Edgware Road, W","active":1871,"notes":"Street lost, plotted using Charles E. Goad Ltd's 1887 map."},"geometry":{"type":"Point","coordinates":[-0.166847,51.517942],"certainty":"certain"},"uuid":"4c554bab-0fb4-45cb-956e-25e8b8dffa89"},{"@id":"https://w3id.org/locolligo/BIFMO-post-1840/ea75f6b5-568f-4025-a78d-e9b5d35d0837","properties":{"url":"https://bifmo.history.ac.uk/entry/barr-charles-joseph-1871","title":"Barr, Chas. Jsph.","address":"1 Golden lion ct. Aldgs. St","active":1871},"geometry":{"type":"Point","coordinates":[-0.16679,51.489805],"certainty":"certain"},"uuid":"ea75f6b5-568f-4025-a78d-e9b5d35d0837"},{"@id":"https://w3id.org/locolligo/BIFMO-post-1840/05b451e5-6ee6-44e2-a241-19b79e156c63","properties":{"url":"https://bifmo.history.ac.uk/entry/eibel-joseph-1871","title":"Eibel, Jospeh","address":"20, Godfrey Street, Chelsea, SW","active":1871},"geometry":{"type":"Point","coordinates":[-0.16679,51.489805],"certainty":"certain"},"uuid":"05b451e5-6ee6-44e2-a241-19b79e156c63"},{"@id":"https://w3id.org/locolligo/BIFMO-post-1840/0c60c2a7-7b8d-4f2f-97ef-62c3cdcf0e4c","properties":{"url":"https://bifmo.history.ac.uk/entry/paskell-william-1845","title":"Paskell, William","address":"162 Brompton road SW","active":1845},"geometry":{"type":"Point","coordinates":[-0.166726,51.498213],"certainty":"certain"},"uuid":"0c60c2a7-7b8d-4f2f-97ef-62c3cdcf0e4c"},{"@id":"https://w3id.org/locolligo/BIFMO-post-1840/23240514-2125-4d73-af89-76fea6813b73","properties":{"title":"Rolls, James","address":"Marlborough Road, SE","active":1871,"notes":"Street now known as Draycott avenue"},"geometry":{"type":"Point","coordinates":[-0.166709,51.493254],"certainty":"certain"},"uuid":"23240514-2125-4d73-af89-76fea6813b73"},{"@id":"https://w3id.org/locolligo/BIFMO-post-1840/e9d1a93c-abc2-499a-8851-e7224edcb1da","properties":{"title":"Williams , James","address":"135, King’s Road, Chelsea, SW","active":1871},"geometry":{"type":"Point","coordinates":[-0.166695,51.488155],"certainty":"certain"},"uuid":"e9d1a93c-abc2-499a-8851-e7224edcb1da"},{"@id":"https://w3id.org/locolligo/BIFMO-post-1840/1814c988-3f8d-439c-898a-e06b1500f6b8","properties":{"url":"https://bifmo.history.ac.uk/entry/perry-john-1826-39","title":"Perry, John","address":"44 Manor street, Chelsea SW","active":1845,"notes":"Street now known as Chelsea Manor Street"},"geometry":{"type":"Point","coordinates":[-0.166691,51.486159],"certainty":"certain"},"uuid":"1814c988-3f8d-439c-898a-e06b1500f6b8"},{"@id":"https://w3id.org/locolligo/BIFMO-post-1840/36ddc7af-19fa-44ce-8fbb-77c96d35b8d3","properties":{"url":"https://bifmo.history.ac.uk/entry/andrews-william-1871","title":"Andrews, Wm.","address":"147 Marlborough road SW","active":1871,"notes":"Street now known as Draycott avenue"},"geometry":{"type":"Point","coordinates":[-0.166505,51.493229],"certainty":"certain"},"uuid":"36ddc7af-19fa-44ce-8fbb-77c96d35b8d3"},{"@id":"https://w3id.org/locolligo/BIFMO-post-1840/aa1176ab-f8a1-407e-9d48-6408844c6b8e","properties":{"url":"https://bifmo.history.ac.uk/entry/smith-richard-1832-39","title":"Smith , Richd.","address":"148, Brompton Road, SW","active":1871},"geometry":{"type":"Point","coordinates":[-0.166234,51.498418],"certainty":"certain"},"uuid":"aa1176ab-f8a1-407e-9d48-6408844c6b8e"},{"@id":"https://w3id.org/locolligo/BIFMO-post-1840/4bafa9fe-9909-4a2b-bfb8-726e96ddf4b2","properties":{"url":"https://bifmo.history.ac.uk/entry/hughes-robert-1835-39","title":"Hughes, Robert","address":"3, Oakley Crescent, Chelsea, SW","active":1845},"geometry":{"type":"Point","coordinates":[-0.166219,51.485011],"certainty":"certain"},"uuid":"4bafa9fe-9909-4a2b-bfb8-726e96ddf4b2"},{"@id":"https://w3id.org/locolligo/BIFMO-post-1840/6daee4a9-8674-4966-a972-aa044cfe2c85","properties":{"title":"Moate , Samuel","address":"131 & 133 Marlborough road, Chelsea SW","active":1871,"notes":"Street now known as Draycott avenue"},"geometry":{"type":"Point","coordinates":[-0.166194,51.493221],"certainty":"certain"},"uuid":"6daee4a9-8674-4966-a972-aa044cfe2c85"},{"@id":"https://w3id.org/locolligo/BIFMO-post-1840/c4f3c39b-5573-44c9-b89a-10f5163db10b","properties":{"url":"https://bifmo.history.ac.uk/entry/king-william-1839","title":"King, William","address":"43, Hartland Road, NW","active":1845,"notes":-0.147354},"geometry":{"type":"Point","coordinates":[-0.166174,51.518978],"certainty":"certain"},"uuid":"c4f3c39b-5573-44c9-b89a-10f5163db10b"},{"@id":"https://w3id.org/locolligo/BIFMO-post-1840/eeb75e33-b668-4473-a02a-55b136bec08f","properties":{"url":"https://bifmo.history.ac.uk/entry/bow-charles-1826-39","title":"Bow, Charles","address":"21 Crawford st. Portmn. Sq; 23 Harcourt street, New road","active":1845},"geometry":{"type":"Point","coordinates":[-0.166174,51.518978],"certainty":"certain"},"uuid":"eeb75e33-b668-4473-a02a-55b136bec08f"},{"@id":"https://w3id.org/locolligo/BIFMO-post-1840/c191d18d-e181-4eb7-bd76-56293457f1c9","properties":{"title":"Schofield , John T.","address":"12, Hart’s Lane, Bethnal Green Road, E","active":1871,"notes":-0.0664505},"geometry":{"type":"Point","coordinates":[-0.166174,51.518978],"certainty":"certain"},"uuid":"c191d18d-e181-4eb7-bd76-56293457f1c9"},{"@id":"https://w3id.org/locolligo/BIFMO-post-1840/c9927dc5-e46b-48b0-a9c8-7f57744d42b3","properties":{"url":"https://bifmo.history.ac.uk/entry/matthews-stephen-1871","title":"Matthews, Stephen","address":"23 Harcourt st., New road","active":1871},"geometry":{"type":"Point","coordinates":[-0.166174,51.554442],"certainty":"certain"},"uuid":"c9927dc5-e46b-48b0-a9c8-7f57744d42b3"},{"@id":"https://w3id.org/locolligo/BIFMO-post-1840/fa00f57e-881c-44d7-be7e-b45ba17703b3","properties":{"url":"https://bifmo.history.ac.uk/entry/dawes-thomas-1871","title":"Dawes, Thomas","address":"174 & 176, King’s Road, SW","active":1871},"geometry":{"type":"Point","coordinates":[-0.166127,51.488694],"certainty":"certain"},"uuid":"fa00f57e-881c-44d7-be7e-b45ba17703b3"},{"@id":"https://w3id.org/locolligo/BIFMO-post-1840/596c5518-1877-428e-9653-349d38f0668d","properties":{"url":"https://bifmo.history.ac.uk/entry/matthews-thomas-1845","title":"Matthews, Thomas","address":"79 Manor st. Chelsea SW","active":1845,"notes":"Street now known as Chelsea Manor Street"},"geometry":{"type":"Point","coordinates":[-0.166042,51.48541],"certainty":"certain"},"uuid":"596c5518-1877-428e-9653-349d38f0668d"},{"@id":"https://w3id.org/locolligo/BIFMO-post-1840/2dd9d5e6-32b1-4e01-86ec-52be4c74d785","properties":{"url":"https://bifmo.history.ac.uk/entry/jones-samuel-1845","title":"Jones, Samuel","address":"2 Broadley ter. Blandfd. Sq","active":1845},"geometry":{"type":"Point","coordinates":[-0.166015,51.524331],"certainty":"certain"},"uuid":"2dd9d5e6-32b1-4e01-86ec-52be4c74d785"},{"@id":"https://w3id.org/locolligo/BIFMO-post-1840/2862ba20-0ed0-42a1-b9bd-69a1038848da","properties":{"url":"https://bifmo.history.ac.uk/entry/deighton-samuel-1871","title":"Deighton , Samuel","address":"1, Chapel Plac, Bromptn, S","active":1871,"notes":"Street now known as Cheval Place"},"geometry":{"type":"Point","coordinates":[-0.165994,51.499068],"certainty":"certain"},"uuid":"2862ba20-0ed0-42a1-b9bd-69a1038848da"},{"@id":"https://w3id.org/locolligo/BIFMO-post-1840/a834c8dd-b795-4730-a35f-5d9e23f4e02e","properties":{"url":"https://bifmo.history.ac.uk/entry/bartholomew-george-co-1871-1880","title":"Bartholomew, Geo.","address":"8 Jubilee ter. Chels","active":1871},"geometry":{"type":"Point","coordinates":[-0.165982,51.489661],"certainty":"certain"},"uuid":"a834c8dd-b795-4730-a35f-5d9e23f4e02e"},{"@id":"https://w3id.org/locolligo/BIFMO-post-1840/ac6617df-fa58-422f-8f68-5d9034f9794b","properties":{"url":"https://bifmo.history.ac.uk/entry/hubbard-william-1871","title":"Hubbard, William","address":"168, King’s Road, Chelsea, SW","active":1871},"geometry":{"type":"Point","coordinates":[-0.16592,51.488727],"certainty":"certain"},"uuid":"ac6617df-fa58-422f-8f68-5d9034f9794b"},{"@id":"https://w3id.org/locolligo/BIFMO-post-1840/ce84896b-dfb7-45c8-a4e2-946dabd33862","properties":{"url":"https://bifmo.history.ac.uk/entry/brown-robert-1871","title":"Brown, Robt.","address":"43 Chapel st. Edg. Rd","active":1871},"geometry":{"type":"Point","coordinates":[-0.165908,51.519983],"certainty":"certain"},"uuid":"ce84896b-dfb7-45c8-a4e2-946dabd33862"},{"@id":"https://w3id.org/locolligo/BIFMO-post-1840/553bc3e5-9a25-4cde-9149-e1ea834d4170","properties":{"url":"https://bifmo.history.ac.uk/entry/larking-samuel-1871","title":"Larking, Samuel","address":"36 Queen st. Chlse","active":1871,"notes":"Street now known as Flood Street"},"geometry":{"type":"Point","coordinates":[-0.165876,51.486885],"certainty":"certain"},"uuid":"553bc3e5-9a25-4cde-9149-e1ea834d4170"},{"@id":"https://w3id.org/locolligo/BIFMO-post-1840/20580290-5830-478b-9e92-d5e7bb775974","properties":{"url":"https://bifmo.history.ac.uk/entry/dyer-edward-1871","title":"Dyer, Edward","address":"90 Walton street, ChelseaSW","active":1871},"geometry":{"type":"Point","coordinates":[-0.165779,51.495853],"certainty":"certain"},"uuid":"20580290-5830-478b-9e92-d5e7bb775974"},{"@id":"https://w3id.org/locolligo/BIFMO-post-1840/64d9f206-e153-42f3-a2d5-c3fc5800d2b0","properties":{"title":"Roberts , George","address":"51 Lisson grove NW","active":1871,"notes":"Not on Horwood or Goad, estimated using OS 40s-60s"},"geometry":{"type":"Point","coordinates":[-0.165735,51.522761],"certainty":"certain"},"uuid":"64d9f206-e153-42f3-a2d5-c3fc5800d2b0"},{"@id":"https://w3id.org/locolligo/BIFMO-post-1840/98a0e0b7-b38b-4c9c-9351-bd9cfeca0b82","properties":{"url":"https://bifmo.history.ac.uk/entry/wilkie-john-1845","title":"Wilkie, John","address":"31, Upper Berkeley Street West, W","active":1845,"notes":"https://www.maps.thehunthouse.com/Streets/Old_to_New_Abolished_London_Street_Names.htm#U"},"geometry":{"type":"Point","coordinates":[-0.165667,51.514473],"certainty":"certain"},"uuid":"98a0e0b7-b38b-4c9c-9351-bd9cfeca0b82"},{"@id":"https://w3id.org/locolligo/BIFMO-post-1840/a7697bd4-47e7-47d1-a010-eeb34bac14a2","properties":{"url":"https://bifmo.history.ac.uk/entry/lee-george-1871","title":"Lee, Stephen","address":"22, Orford Street, Chelsea, SW","active":1871},"geometry":{"type":"Point","coordinates":[-0.165381,51.49315],"certainty":"certain"},"uuid":"a7697bd4-47e7-47d1-a010-eeb34bac14a2"},{"@id":"https://w3id.org/locolligo/BIFMO-post-1840/29c673f5-41d7-4f3f-a45e-e9d2b15c9aac","properties":{"url":"https://bifmo.history.ac.uk/entry/duppa-co-1871","title":"Duppa, ","address":"3, Upper Porchester Street, W","active":1871,"notes":"Street now called Porchester Place. Porchester Place was previously divided into Lower Porchester Street and Upper Porchester Street. This address iin google maps located the shop on what was previously called Lower Porchester Street. https://www.loc.gov/resource/g5754l.fi000101/?r=0.148,0.297,0.192,0.094,0 https://www.british-history.ac.uk/vch/middx/vol9/pp190-198 "},"geometry":{"type":"Point","coordinates":[-0.165362,51.514803],"certainty":"certain"},"uuid":"29c673f5-41d7-4f3f-a45e-e9d2b15c9aac"},{"@id":"https://w3id.org/locolligo/BIFMO-post-1840/4f301ef8-1f19-4896-869a-e918656f0157","properties":{"url":"https://bifmo.history.ac.uk/entry/connolly-joseph-1871","title":"Connelly, Joseph","address":"18, Markham Street, Chelsea, SW","active":1871},"geometry":{"type":"Point","coordinates":[-0.165289,51.489956],"certainty":"certain"},"uuid":"4f301ef8-1f19-4896-869a-e918656f0157"},{"@id":"https://w3id.org/locolligo/BIFMO-post-1840/88113813-8f32-409e-b38b-ec13ca0e7156","properties":{"url":"https://bifmo.history.ac.uk/entry/clare-henry-samuel-1845","title":"Clare, Henry & Samuel","address":"11, Newnham Street, Edgware Road, W","active":1845},"geometry":{"type":"Point","coordinates":[-0.165199,51.517591],"certainty":"certain"},"uuid":"88113813-8f32-409e-b38b-ec13ca0e7156"},{"@id":"https://w3id.org/locolligo/BIFMO-post-1840/ab263be7-df84-48c6-a9a2-8077943c6794","properties":{"title":"Warren, James","address":"38 Homer street, Marylebone W","active":1845},"geometry":{"type":"Point","coordinates":[-0.165008,51.519617],"certainty":"certain"},"uuid":"ab263be7-df84-48c6-a9a2-8077943c6794"},{"@id":"https://w3id.org/locolligo/BIFMO-post-1840/41a1d558-cf1f-43e3-a22b-56fa7c0dc19c","properties":{"url":"https://bifmo.history.ac.uk/entry/charles-reynolds-co-1871","title":"Charles, ","address":"3, Markham Street, Chelsea, SW","active":1871},"geometry":{"type":"Point","coordinates":[-0.164939,51.48934],"certainty":"certain"},"uuid":"41a1d558-cf1f-43e3-a22b-56fa7c0dc19c"},{"@id":"https://w3id.org/locolligo/BIFMO-post-1840/2ba0e4be-0304-4675-9a2c-4e10ab2f8895","properties":{"url":"https://bifmo.history.ac.uk/entry/catherick-henry-1839","title":"Catherick, Henry","address":"20, Lisson Grove, NW","active":1845,"notes":"Not on Horwood or Goad, estimated using OS 40s-60s"},"geometry":{"type":"Point","coordinates":[-0.164841,51.521933],"certainty":"certain"},"uuid":"2ba0e4be-0304-4675-9a2c-4e10ab2f8895"},{"@id":"https://w3id.org/locolligo/BIFMO-post-1840/0cd59c3e-0477-4ab4-846c-a82b8cfdbe7f","properties":{"url":"https://bifmo.history.ac.uk/entry/hicks-james-1835-39","title":"Hicks, James","address":"54 Walton street, Chelsea SW","active":1871},"geometry":{"type":"Point","coordinates":[-0.164813,51.496364],"certainty":"certain"},"uuid":"0cd59c3e-0477-4ab4-846c-a82b8cfdbe7f"},{"@id":"https://w3id.org/locolligo/BIFMO-post-1840/2e2db905-8692-4284-9d7e-94c7d2b5c31a","properties":{"url":"https://bifmo.history.ac.uk/entry/davis-charles-frederick-1871","title":"Davis, Charles Fredk.","address":"9 Homer st. Marylebone rd W","active":1871},"geometry":{"type":"Point","coordinates":[-0.16478,51.519427],"certainty":"certain"},"uuid":"2e2db905-8692-4284-9d7e-94c7d2b5c31a"},{"@id":"https://w3id.org/locolligo/BIFMO-post-1840/32bca697-557a-4548-82dd-e957c2f902f9","properties":{"url":"https://bifmo.history.ac.uk/entry/law-brothers-1871-1905","title":"Law, ","address":"9, Upper Berkeley Street West, W","active":1871,"notes":"https://www.maps.thehunthouse.com/Streets/Old_to_New_Abolished_London_Street_Names.htm#U"},"geometry":{"type":"Point","coordinates":[-0.164759,51.514571],"certainty":"certain"},"uuid":"32bca697-557a-4548-82dd-e957c2f902f9"},{"@id":"https://w3id.org/locolligo/BIFMO-post-1840/f1b9d2d3-8db1-4957-9390-cc2e5e889756","properties":{"url":"https://bifmo.history.ac.uk/entry/connor-richard-1845","title":"Connor, Richard","address":"30 Homer st. Marylebone W","active":1845},"geometry":{"type":"Point","coordinates":[-0.164717,51.519398],"certainty":"certain"},"uuid":"f1b9d2d3-8db1-4957-9390-cc2e5e889756"},{"@id":"https://w3id.org/locolligo/BIFMO-post-1840/bfd824f3-3e54-4732-9d73-ea94bca99866","properties":{"url":"https://bifmo.history.ac.uk/entry/dalby-thomas-1871","title":"Dalby, Thos.","address":"28, Dorchester pl., Blandford sq., NW","active":1871,"notes":"Street lost, approximate location"},"geometry":{"type":"Point","coordinates":[-0.164707,51.523683],"certainty":"certain"},"uuid":"bfd824f3-3e54-4732-9d73-ea94bca99866"},{"@id":"https://w3id.org/locolligo/BIFMO-post-1840/75baa898-0e12-49df-8ac3-be24119eee77","properties":{"title":"Wright , Rd.","address":"258, Marylebone Road, NW","active":1871,"notes":"Street (partially) lost, approximate location"},"geometry":{"type":"Point","coordinates":[-0.164705,51.521368],"certainty":"certain"},"uuid":"75baa898-0e12-49df-8ac3-be24119eee77"},{"@id":"https://w3id.org/locolligo/BIFMO-post-1840/6c2bf9a6-b648-4859-85ff-da5dbcce0b38","properties":{"url":"https://bifmo.history.ac.uk/entry/hawkins-charles-1839","title":"Hawkins, Charles","address":"6 Lisson grove north","active":1871,"notes":"Not on Horwood or Goad, estimated using OS 40s-60s"},"geometry":{"type":"Point","coordinates":[-0.164667,51.521566],"certainty":"certain"},"uuid":"6c2bf9a6-b648-4859-85ff-da5dbcce0b38"},{"@id":"https://w3id.org/locolligo/BIFMO-post-1840/54c35e7b-9da7-4c38-b12b-a9dfa8a43d94","properties":{"url":"https://bifmo.history.ac.uk/entry/wellsted-james-1820-39","title":"Wellsted, James","address":"12 & 13 Molyneux st. Bryanstone sq. ; 30 Shouldham st. ; & Welsted yard, Seymour place","active":1845},"geometry":{"type":"Point","coordinates":[-0.164614,51.518134],"certainty":"certain"},"uuid":"54c35e7b-9da7-4c38-b12b-a9dfa8a43d94"},{"@id":"https://w3id.org/locolligo/BIFMO-post-1840/ba75554c-1bb0-4e28-8d41-e10c6cce4e30","properties":{"url":"https://bifmo.history.ac.uk/entry/thick-robert-1845","title":"Thick, Robert","address":"14 Molyneux st. Bryanstn.sq","active":1845},"geometry":{"type":"Point","coordinates":[-0.164556,51.517969],"certainty":"certain"},"uuid":"ba75554c-1bb0-4e28-8d41-e10c6cce4e30"},{"@id":"https://w3id.org/locolligo/BIFMO-post-1840/d240cfcc-499a-43ac-ba01-0cf9b6fed3ec","properties":{"title":"Taylor, Daniel","address":"20 Portsea pl. Edgware rd","active":1845},"geometry":{"type":"Point","coordinates":[-0.16446,51.515243],"certainty":"certain"},"uuid":"d240cfcc-499a-43ac-ba01-0cf9b6fed3ec"},{"@id":"https://w3id.org/locolligo/BIFMO-post-1840/31d56055-34f0-4b9b-a0bb-d3c0ec11f42c","properties":{"url":"https://bifmo.history.ac.uk/entry/jacobs-brothers-1871","title":"Jacobs, ","address":"137, Brompton Road, SW","active":1871},"geometry":{"type":"Point","coordinates":[-0.164413,51.499004],"certainty":"certain"},"uuid":"31d56055-34f0-4b9b-a0bb-d3c0ec11f42c"},{"@id":"https://w3id.org/locolligo/BIFMO-post-1840/c21ba97f-207a-42e8-acf9-702af8a1b3ae","properties":{"url":"https://bifmo.history.ac.uk/entry/hampton-sons-1830-1957","title":"Hampton, ","address":"1 Queen st. Brmptn. Rd","active":1871,"notes":"Street now known as Hans Road"},"geometry":{"type":"Point","coordinates":[-0.164386,51.499026],"certainty":"certain"},"uuid":"c21ba97f-207a-42e8-acf9-702af8a1b3ae"},{"@id":"https://w3id.org/locolligo/BIFMO-post-1840/23d7627c-706a-492b-a602-2cd110be2c67","properties":{"url":"https://bifmo.history.ac.uk/entry/lewis-frederick-1871","title":"Lewis, Frederick","address":"28, Hartlnd.rd.ChalkFrm.rd, NW","active":1871,"notes":-0.1481156},"geometry":{"type":"Point","coordinates":[-0.16431,51.519626],"certainty":"certain"},"uuid":"23d7627c-706a-492b-a602-2cd110be2c67"},{"@id":"https://w3id.org/locolligo/BIFMO-post-1840/d8ab4eab-0e87-487b-af24-76e33c91fa46","properties":{"title":"Simmonds, Richard","address":"13, Trevor sq.Knightsbdge, SW","active":1845},"geometry":{"type":"Point","coordinates":[-0.16425,51.500466],"certainty":"certain"},"uuid":"d8ab4eab-0e87-487b-af24-76e33c91fa46"},{"@id":"https://w3id.org/locolligo/BIFMO-post-1840/cf08d520-5b41-403c-8764-3b0723ba3cc5","properties":{"url":"https://bifmo.history.ac.uk/entry/bozier-joseph-1845-1871","title":"Bozier, Joseph","address":"15, Trevor sq., Knightsbridge, SW","active":1871},"geometry":{"type":"Point","coordinates":[-0.164216,51.500398],"certainty":"certain"},"uuid":"cf08d520-5b41-403c-8764-3b0723ba3cc5"},{"@id":"https://w3id.org/locolligo/BIFMO-post-1840/5acce400-ce0f-40f9-b8d7-383c9dfbfb7e","properties":{"url":"https://bifmo.history.ac.uk/entry/moore-hunton-1871-1886","title":"Moore & Hunton, ","address":"88, Brompton Road, SW","active":1871},"geometry":{"type":"Point","coordinates":[-0.163854,51.499694],"certainty":"certain"},"uuid":"5acce400-ce0f-40f9-b8d7-383c9dfbfb7e"},{"@id":"https://w3id.org/locolligo/BIFMO-post-1840/6e442f52-35ac-4d6f-806a-4e894d43fe8c","properties":{"url":"https://bifmo.history.ac.uk/entry/smith-thomas-1871-1","title":"Smith, Thos.","address":"41 Brompton row","active":1871,"notes":"Brompton Row is now part of Brompton Road, plotted with information from British History Online: Survey of London"},"geometry":{"type":"Point","coordinates":[-0.163515,51.49985],"certainty":"certain"},"uuid":"6e442f52-35ac-4d6f-806a-4e894d43fe8c"},{"@id":"https://w3id.org/locolligo/BIFMO-post-1840/84ee7318-a45a-49f4-8a1e-d443e30907c7","properties":{"title":"Smith, William Henry","address":"63 & 65, King’s Road, Chelsea, SW","active":1871},"geometry":{"type":"Point","coordinates":[-0.16343,51.489462],"certainty":"certain"},"uuid":"84ee7318-a45a-49f4-8a1e-d443e30907c7"},{"@id":"https://w3id.org/locolligo/BIFMO-post-1840/39d90db1-83c5-4b46-8bed-1cc3ca69211b","properties":{"url":"https://bifmo.history.ac.uk/entry/smith-holmes-1826","title":"Smith, Jas.","address":"29.5, Shouldham Street, Bryanston Square, W","active":1845},"geometry":{"type":"Point","coordinates":[-0.163391,51.517917],"certainty":"certain"},"uuid":"39d90db1-83c5-4b46-8bed-1cc3ca69211b"},{"@id":"https://w3id.org/locolligo/BIFMO-post-1840/b44c374a-09f5-4823-9b34-dd0eb458a7e5","properties":{"url":"https://bifmo.history.ac.uk/entry/wellsted-james-1820-39","title":"Wellsted, James","address":"12 & 13 Molyneux st. Bryanstone sq. ; 30 Shouldham st. ; & Welsted yard, Seymour place","active":1845},"geometry":{"type":"Point","coordinates":[-0.163388,51.517913],"certainty":"certain"},"uuid":"b44c374a-09f5-4823-9b34-dd0eb458a7e5"},{"@id":"https://w3id.org/locolligo/BIFMO-post-1840/a72948db-3480-4249-8b9d-bc018941e89e","properties":{"url":"https://bifmo.history.ac.uk/entry/smith-w-h-1835-37","title":"Smith, William Henry","address":"94 York street, Westminster","active":1845},"geometry":{"type":"Point","coordinates":[-0.163127,51.519944],"certainty":"certain"},"uuid":"a72948db-3480-4249-8b9d-bc018941e89e"},{"@id":"https://w3id.org/locolligo/BIFMO-post-1840/1bee7173-2fa6-47c0-816c-fbf0bc0c1dff","properties":{"url":"https://bifmo.history.ac.uk/entry/fear-william-1845","title":"Fear, William","address":"36 Nutford pl. Bryanst. Sq","active":1845},"geometry":{"type":"Point","coordinates":[-0.163124,51.51677],"certainty":"certain"},"uuid":"1bee7173-2fa6-47c0-816c-fbf0bc0c1dff"},{"@id":"https://w3id.org/locolligo/BIFMO-post-1840/3b60d3bf-b3c9-493f-abe2-4bf45127c0bd","properties":{"url":"https://bifmo.history.ac.uk/entry/catesby-frederick-1837-39","title":"Catesby, Frederick","address":"14 Brown st. Bryanstn.sq","active":1871},"geometry":{"type":"Point","coordinates":[-0.162675,51.516718],"certainty":"certain"},"uuid":"3b60d3bf-b3c9-493f-abe2-4bf45127c0bd"},{"@id":"https://w3id.org/locolligo/BIFMO-post-1840/44150e90-7a8f-4aa8-a081-4d6e8b43ce82","properties":{"url":"https://bifmo.history.ac.uk/entry/brafield-edward-1845","title":"Brafield, Edward","address":"4 Crawford st. Portman sq","active":1845},"geometry":{"type":"Point","coordinates":[-0.162621,51.519746],"certainty":"certain"},"uuid":"44150e90-7a8f-4aa8-a081-4d6e8b43ce82"},{"@id":"https://w3id.org/locolligo/BIFMO-post-1840/57d0c9f4-34c8-4281-b8ae-8ccd55941814","properties":{"url":"https://bifmo.history.ac.uk/entry/donne-george-j-1826-37","title":"Donne, Geo. J. & Joseph","address":"9 Knightsbridge green SW","active":1871},"geometry":{"type":"Point","coordinates":[-0.162596,51.501446],"certainty":"certain"},"uuid":"57d0c9f4-34c8-4281-b8ae-8ccd55941814"},{"@id":"https://w3id.org/locolligo/BIFMO-post-1840/32d24a73-79e3-4396-a5b8-35554b02abdd","properties":{"title":"Rowe , Thos.","address":"13 High rd. Knightsbridge","active":1871},"geometry":{"type":"Point","coordinates":[-0.162426,51.50137],"certainty":"certain"},"uuid":"32d24a73-79e3-4396-a5b8-35554b02abdd"},{"@id":"https://w3id.org/locolligo/BIFMO-post-1840/ce9ead9a-e275-4b11-aa73-164821e9d648","properties":{"url":"https://bifmo.history.ac.uk/entry/crawley-henry-1871","title":"Crawley, Henry","address":"73, 75 & 81, Brmptn. Road, SW","active":1871},"geometry":{"type":"Point","coordinates":[-0.162422,51.500211],"certainty":"certain"},"uuid":"ce9ead9a-e275-4b11-aa73-164821e9d648"},{"@id":"https://w3id.org/locolligo/BIFMO-post-1840/c050048d-3969-4c99-9575-0a4bde792746","properties":{"url":"https://bifmo.history.ac.uk/entry/anderson-william-1820-39","title":"Anderson, William","address":"27 Circus st. New rd. Mrylb","active":1845},"geometry":{"type":"Point","coordinates":[-0.162401,51.520536],"certainty":"certain"},"uuid":"c050048d-3969-4c99-9575-0a4bde792746"},{"@id":"https://w3id.org/locolligo/BIFMO-post-1840/d9762ade-68bc-4e05-ae35-e67a2e438048","properties":{"url":"https://bifmo.history.ac.uk/entry/andrews-alfred-1871","title":"Andrews, Alfred","address":"27 Circus st. New road","active":1871},"geometry":{"type":"Point","coordinates":[-0.162401,51.520536],"certainty":"certain"},"uuid":"d9762ade-68bc-4e05-ae35-e67a2e438048"},{"@id":"https://w3id.org/locolligo/BIFMO-post-1840/068e22c3-af21-4d50-9715-1a8f739d3920","properties":{"title":"Seagrave, Mary","address":"17 Queen street, Brompton SW","active":1845,"notes":"Street now known as Hans Road"},"geometry":{"type":"Point","coordinates":[-0.162372,51.498525],"certainty":"certain"},"uuid":"068e22c3-af21-4d50-9715-1a8f739d3920"},{"@id":"https://w3id.org/locolligo/BIFMO-post-1840/4b8f83d3-af61-43bb-a80f-6ac4a6a62477","properties":{"url":"https://bifmo.history.ac.uk/entry/taylor-william-1871","title":"Taylor, Wm.","address":"28, Circus Street, Marylebne, W","active":1871},"geometry":{"type":"Point","coordinates":[-0.162358,51.520606],"certainty":"certain"},"uuid":"4b8f83d3-af61-43bb-a80f-6ac4a6a62477"},{"@id":"https://w3id.org/locolligo/BIFMO-post-1840/e6cbb53a-b02f-4c1a-94e2-6cbbb1549dc8","properties":{"url":"https://bifmo.history.ac.uk/entry/case-matthew-1845","title":"Case, Matthew","address":"25, Circus Street, Marylebone Road, W","active":1845},"geometry":{"type":"Point","coordinates":[-0.162344,51.520475],"certainty":"certain"},"uuid":"e6cbb53a-b02f-4c1a-94e2-6cbbb1549dc8"},{"@id":"https://w3id.org/locolligo/BIFMO-post-1840/e9bbf930-0493-47f2-9d0d-86a169e61c24","properties":{"url":"https://bifmo.history.ac.uk/entry/jay-joseph-1835-39","title":"Jay, Joseph","address":"7, New Street, Brompton Road, SW","active":1845,"notes":"approx.; New Street is now the part of Hans Crescent which forms the northeast boundary of Harrods (cf. Greenwood 1828)"},"geometry":{"type":"Point","coordinates":[-0.162282,51.499723],"certainty":"certain"},"uuid":"e9bbf930-0493-47f2-9d0d-86a169e61c24"},{"@id":"https://w3id.org/locolligo/BIFMO-post-1840/582eb66a-ec5c-4c1e-b7a8-b64cfeedaf1f","properties":{"title":"Utting, Henry","address":"11, York Street, Chelsea, SW","active":1845,"notes":"*Name change to Hans Crescent "},"geometry":{"type":"Point","coordinates":[-0.162214,51.499672],"certainty":"certain"},"uuid":"582eb66a-ec5c-4c1e-b7a8-b64cfeedaf1f"},{"@id":"https://w3id.org/locolligo/BIFMO-post-1840/fec09857-c6f2-49bb-bc7f-0d6737819619","properties":{"url":"https://bifmo.history.ac.uk/entry/montague-john-new-1871","title":"Montague , John New","address":"26, Wyndham Street, Bryanston sq, W","active":1871},"geometry":{"type":"Point","coordinates":[-0.162,51.520394],"certainty":"certain"},"uuid":"fec09857-c6f2-49bb-bc7f-0d6737819619"},{"@id":"https://w3id.org/locolligo/BIFMO-post-1840/e2813efe-2d5c-417d-87e1-dd3eb7061b77","properties":{"url":"https://bifmo.history.ac.uk/entry/keliher-michael-1871","title":"Keliher, Michael","address":"10 King's road, Pimlico","active":1871},"geometry":{"type":"Point","coordinates":[-0.161992,51.48606],"certainty":"certain"},"uuid":"e2813efe-2d5c-417d-87e1-dd3eb7061b77"},{"@id":"https://w3id.org/locolligo/BIFMO-post-1840/09dddea0-2501-445b-9292-68ccf0bbdc23","properties":{"url":"https://bifmo.history.ac.uk/entry/painter-george-co-1835","title":"Painter, George","address":"8 Wyndham pl. Bryanstn. sq","active":1845},"geometry":{"type":"Point","coordinates":[-0.16199,51.519528],"certainty":"certain"},"uuid":"09dddea0-2501-445b-9292-68ccf0bbdc23"},{"@id":"https://w3id.org/locolligo/BIFMO-post-1840/243a34bd-2955-4e0c-9c31-e0a92fc6c0a8","properties":{"url":"https://bifmo.history.ac.uk/entry/king-charles-1835-39","title":"King, Charles","address":"2 Brompton rd. Brompton","active":1845},"geometry":{"type":"Point","coordinates":[-0.161927,51.501194],"certainty":"certain"},"uuid":"243a34bd-2955-4e0c-9c31-e0a92fc6c0a8"},{"@id":"https://w3id.org/locolligo/BIFMO-post-1840/15927d89-94b9-487e-b587-4d280ae3d514","properties":{"url":"https://bifmo.history.ac.uk/entry/critchfield-henry-1871","title":"Critchfield , Henry","address":"43 King's rd. east, Chelsea","active":1871},"geometry":{"type":"Point","coordinates":[-0.161904,51.490274],"certainty":"certain"},"uuid":"15927d89-94b9-487e-b587-4d280ae3d514"},{"@id":"https://w3id.org/locolligo/BIFMO-post-1840/96c1abc0-3529-4d88-a922-950ccad47e61","properties":{"url":"https://bifmo.history.ac.uk/entry/pitman-co-pitman-cuthbertson-1871-1886","title":"Pitman , ","address":"38, Moore Street, Chelsea, SW","active":1871},"geometry":{"type":"Point","coordinates":[-0.161886,51.493833],"certainty":"certain"},"uuid":"96c1abc0-3529-4d88-a922-950ccad47e61"},{"@id":"https://w3id.org/locolligo/BIFMO-post-1840/49ff85d6-4522-4b81-95ff-bdbf75180a3c","properties":{"url":"https://bifmo.history.ac.uk/entry/fox-henry-h-1845","title":"Fox, Henry H.","address":"59 Seymour pl. Bryanston sq W","active":1845},"geometry":{"type":"Point","coordinates":[-0.16188,51.516279],"certainty":"certain"},"uuid":"49ff85d6-4522-4b81-95ff-bdbf75180a3c"},{"@id":"https://w3id.org/locolligo/BIFMO-post-1840/83b211a3-d67c-44ee-9796-ee2ff63ed11c","properties":{"url":"https://bifmo.history.ac.uk/entry/dench-henry-1826-39","title":"Dench, Henry","address":"65 Seymour place","active":1845},"geometry":{"type":"Point","coordinates":[-0.161781,51.516381],"certainty":"certain"},"uuid":"83b211a3-d67c-44ee-9796-ee2ff63ed11c"},{"@id":"https://w3id.org/locolligo/BIFMO-post-1840/41ed062b-bc9f-4deb-83bb-a733034f0435","properties":{"url":"https://bifmo.history.ac.uk/entry/clark-francis-1871","title":"Clark, Francis","address":"10 Wyndham st. Bryanstn. Sq","active":1871},"geometry":{"type":"Point","coordinates":[-0.16178,51.520633],"certainty":"certain"},"uuid":"41ed062b-bc9f-4deb-83bb-a733034f0435"},{"@id":"https://w3id.org/locolligo/BIFMO-post-1840/5211e939-a6bf-41cc-8e8d-22f6b2245190","properties":{"url":"https://bifmo.history.ac.uk/entry/butti-alex-1845","title":"Butti, Alex","address":"1 Davis pl. Marlbro' rd. Chels","active":1845,"notes":"Street lost, approximate location"},"geometry":{"type":"Point","coordinates":[-0.161776,51.491946],"certainty":"certain"},"uuid":"5211e939-a6bf-41cc-8e8d-22f6b2245190"},{"@id":"https://w3id.org/locolligo/BIFMO-post-1840/58b7c4bb-b9d3-4d01-a86b-6d955bf4b9f8","properties":{"url":"https://bifmo.history.ac.uk/entry/dench-william-1871","title":"Dench, Wm.","address":"58 Seymour place","active":1871},"geometry":{"type":"Point","coordinates":[-0.16175,51.516728],"certainty":"certain"},"uuid":"58b7c4bb-b9d3-4d01-a86b-6d955bf4b9f8"},{"@id":"https://w3id.org/locolligo/BIFMO-post-1840/7d8d4b40-1e8c-4a24-89e1-3eb169d900c0","properties":{"url":"https://bifmo.history.ac.uk/entry/shuffrey-william-henry-1826-39","title":"Shuffrey, William Henry","address":"54 Seymour pl. Bryanst. Sq","active":1845},"geometry":{"type":"Point","coordinates":[-0.161744,51.516711],"certainty":"certain"},"uuid":"7d8d4b40-1e8c-4a24-89e1-3eb169d900c0"},{"@id":"https://w3id.org/locolligo/BIFMO-post-1840/f2000f85-283a-4f43-a3d3-5b7f8cd0643e","properties":{"url":"https://bifmo.history.ac.uk/entry/fayrer-john-t-1826-39","title":"Fayrer, John","address":"52 Seymour pl. Bryanston sq","active":1845},"geometry":{"type":"Point","coordinates":[-0.161739,51.516702],"certainty":"certain"},"uuid":"f2000f85-283a-4f43-a3d3-5b7f8cd0643e"},{"@id":"https://w3id.org/locolligo/BIFMO-post-1840/4ccc8fd7-4d44-45ec-936b-7230f1159f54","properties":{"url":"https://bifmo.history.ac.uk/entry/couty-david-jnr-1823-35","title":"Couty, D.","address":"3 Boston street, Dorset sq NW","active":1845,"notes":"Now 'Taunton Place'"},"geometry":{"type":"Point","coordinates":[-0.161687,51.525451],"certainty":"certain"},"uuid":"4ccc8fd7-4d44-45ec-936b-7230f1159f54"},{"@id":"https://w3id.org/locolligo/BIFMO-post-1840/659909d4-3250-422d-a68c-50f754cf349a","properties":{"title":"Smith, John James, jun.","address":"2, Boston Street, Park Road, NW","active":1871,"notes":"Now 'Taunton Place'"},"geometry":{"type":"Point","coordinates":[-0.161687,51.525451],"certainty":"certain"},"uuid":"659909d4-3250-422d-a68c-50f754cf349a"},{"@id":"https://w3id.org/locolligo/BIFMO-post-1840/77257f43-74e8-4eda-8786-932f23980242","properties":{"url":"https://bifmo.history.ac.uk/entry/kedge-william-1845","title":"Kedge, William","address":"28, Upper Berkeley Street, W","active":1845},"geometry":{"type":"Point","coordinates":[-0.161615,51.515411],"certainty":"certain"},"uuid":"77257f43-74e8-4eda-8786-932f23980242"},{"@id":"https://w3id.org/locolligo/BIFMO-post-1840/a4722ed1-fefb-4267-8d1e-8fd130038b2f","properties":{"url":"https://bifmo.history.ac.uk/entry/crowhurst-edwin-1871","title":"Crowhurst , Edwin","address":"32Milton st.Dorset sq NW","active":1871,"notes":"Street now known as Balcombe Street"},"geometry":{"type":"Point","coordinates":[-0.161335,51.52201],"certainty":"certain"},"uuid":"a4722ed1-fefb-4267-8d1e-8fd130038b2f"},{"@id":"https://w3id.org/locolligo/BIFMO-post-1840/beb45521-b368-405c-9a07-d355935d4646","properties":{"url":"https://bifmo.history.ac.uk/entry/hodges-richard-1835-39","title":"Hodges, Richard","address":"68, Milton Street, Dorset Square, NW","active":1845,"notes":"Street now known as Balcombe Street"},"geometry":{"type":"Point","coordinates":[-0.161292,51.521863],"certainty":"certain"},"uuid":"beb45521-b368-405c-9a07-d355935d4646"},{"@id":"https://w3id.org/locolligo/BIFMO-post-1840/33e4d491-a627-440c-92c0-65ccabd89a57","properties":{"url":"https://bifmo.history.ac.uk/entry/shakespear-alfred-1871","title":"Shakespear, Alfd.","address":"7 Seymour pl. Brnst. Sq","active":1871},"geometry":{"type":"Point","coordinates":[-0.161218,51.514708],"certainty":"certain"},"uuid":"33e4d491-a627-440c-92c0-65ccabd89a57"},{"@id":"https://w3id.org/locolligo/BIFMO-post-1840/8d11a7ee-68f3-4fc7-b701-1e6e41cdc84a","properties":{"url":"https://bifmo.history.ac.uk/entry/terry-john-1871","title":"Terry , John","address":"7, Little Exeter Street, Chelsea, SW","active":1871,"notes":"Now Landon Place, generic coordinate for road"},"geometry":{"type":"Point","coordinates":[-0.161206,51.498953],"certainty":"certain"},"uuid":"8d11a7ee-68f3-4fc7-b701-1e6e41cdc84a"},{"@id":"https://w3id.org/locolligo/BIFMO-post-1840/b9a8486a-5b3e-4958-9f35-875b82979f94","properties":{"url":"https://bifmo.history.ac.uk/entry/winks-joseph-woodward-1871","title":"Winks, Joseph Woodward","address":"24, Moore Street, Bryanston sq, W","active":1871,"notes":"Street lost, approximate location"},"geometry":{"type":"Point","coordinates":[-0.1612,51.517568],"certainty":"certain"},"uuid":"b9a8486a-5b3e-4958-9f35-875b82979f94"},{"@id":"https://w3id.org/locolligo/BIFMO-post-1840/320e017f-39bb-4069-ad1a-737530e486f5","properties":{"url":"https://bifmo.history.ac.uk/entry/king-arthur-1845-1871","title":"King, Arthur","address":"16, Adam Street West, Bryanston sq, W","active":1845,"notes":"*Now 'Seymour Place'"},"geometry":{"type":"Point","coordinates":[-0.161181,51.514913],"certainty":"certain"},"uuid":"320e017f-39bb-4069-ad1a-737530e486f5"},{"@id":"https://w3id.org/locolligo/BIFMO-post-1840/e6e5ccce-2035-4b2a-a963-dd338e21940f","properties":{"url":"https://bifmo.history.ac.uk/entry/deane-co-1850-1871","title":"Deane, ","address":"24 Seymour place","active":1871},"geometry":{"type":"Point","coordinates":[-0.161176,51.515095],"certainty":"certain"},"uuid":"e6e5ccce-2035-4b2a-a963-dd338e21940f"},{"@id":"https://w3id.org/locolligo/BIFMO-post-1840/104f2f60-fab8-4839-82d3-29b9c25e73f7","properties":{"url":"https://bifmo.history.ac.uk/entry/nicholson-william-1871","title":"Nichols, William","address":"25, Brompton Road, SW","active":1871},"geometry":{"type":"Point","coordinates":[-0.161099,51.501294],"certainty":"certain"},"uuid":"104f2f60-fab8-4839-82d3-29b9c25e73f7"},{"@id":"https://w3id.org/locolligo/BIFMO-post-1840/e1eed19c-33cb-4fa4-9924-ee4e16485452","properties":{"url":"https://bifmo.history.ac.uk/entry/buckingham-george-1860-1871","title":"Buckingham , George","address":"48 Park st. Dorset sq","active":1871,"notes":"Street lost, approximate location"},"geometry":{"type":"Point","coordinates":[-0.161041,51.522571],"certainty":"certain"},"uuid":"e1eed19c-33cb-4fa4-9924-ee4e16485452"},