{"@id":"https://w3id.org/locolligo/bifmo-post-1840post-1840_edited","type":"FeatureCollection","@context":"https://w3id.org/locolligo/contexts/linkedplaces.jsonld","features":[{"@id":"https://w3id.org/locolligo/bifmo-post-1840post-1840_edited/2e8fc519-25b2-4065-a32b-1a4bf3f70e49","type":"Feature","properties":{"title":"Monk, George","url":"https://bifmo.history.ac.uk/entry/monk-george-1845","address":"113, Keppel Street, SW","active":1845},"geometry":{"type":"Point","coordinates":[0.16476,51.491922]}},{"@id":"https://w3id.org/locolligo/bifmo-post-1840post-1840_edited/74d90f7b-1fbf-439c-8a82-0885a345259e","type":"Feature","properties":{"title":"Ross, John","url":"https://bifmo.history.ac.uk/entry/ross-john-1845","address":"9, Keppel Street, Chelsea, SW","active":1845},"geometry":{"type":"Point","coordinates":[0.163343,51.491088]}},{"@id":"https://w3id.org/locolligo/bifmo-post-1840post-1840_edited/a547980f-3a35-4720-8ecd-1760152b960b","type":"Feature","properties":{"title":"Bolton, Thos.","url":"https://bifmo.history.ac.uk/entry/bolton-thomas-son-1827-28","address":"101 Park st. Camden townNW","active":1871},"geometry":{"type":"Point","coordinates":[0.145737,51.53706]}},{"@id":"https://w3id.org/locolligo/bifmo-post-1840post-1840_edited/01cf52b8-f46f-4785-8dc6-8e1109cb275a","type":"Feature","properties":{"title":"Norton, Edw. J.","url":"https://bifmo.history.ac.uk/entry/norton-edward-j-1871","address":"5 Margaret st. Cav. Sq","active":1871},"geometry":{"type":"Point","coordinates":[0.143558,51.516265]}},{"@id":"https://w3id.org/locolligo/bifmo-post-1840post-1840_edited/3cd50004-4458-4b70-a66c-68e6013f957d","type":"Feature","properties":{"title":", "},"geometry":{"type":"Point","coordinates":[0.142554,51.492593]}},{"@id":"https://w3id.org/locolligo/bifmo-post-1840post-1840_edited/667282e9-208e-443e-af79-960f568f2585","type":"Feature","properties":{"title":"Bye, James","url":"https://bifmo.history.ac.uk/entry/bye-george-1835-39","address":"25 Queen's row, Pimlico","active":1871},"geometry":{"type":"Point","coordinates":[0.139001,51.499383]}},{"@id":"https://w3id.org/locolligo/bifmo-post-1840post-1840_edited/d0f5fac8-50b7-42ee-bed4-83966fff6427","type":"Feature","properties":{"title":"Gally , Andrew & George","url":"https://bifmo.history.ac.uk/entry/gally-andrew-george-1871","address":"19 Gower place, Euston sq","active":1871},"geometry":{"type":"Point","coordinates":[0.134379,51.525462]}},{"@id":"https://w3id.org/locolligo/bifmo-post-1840post-1840_edited/1f34310c-daea-4127-9a45-b72b3d6fad9d","type":"Feature","properties":{"title":"Goodall , Isaac","url":"https://bifmo.history.ac.uk/entry/goodall-isaac-1871","address":"19 Gower pl. Euston sq WC","active":1871},"geometry":{"type":"Point","coordinates":[0.134379,51.525462]}},{"@id":"https://w3id.org/locolligo/bifmo-post-1840post-1840_edited/3fde2b32-5eeb-4220-b565-1004bf6fd43a","type":"Feature","properties":{"title":"Martens, Peter","url":"https://bifmo.history.ac.uk/entry/martens-peter-1839","address":"16 Gower pl. Euston sq","active":1845},"geometry":{"type":"Point","coordinates":[0.134379,51.525462]}},{"@id":"https://w3id.org/locolligo/bifmo-post-1840post-1840_edited/27da0881-cc8b-4fce-870b-f3b2dae25885","type":"Feature","properties":{"title":"Morris, John","url":"https://bifmo.history.ac.uk/entry/morris-john-1871","address":"6 Gower pl. Euston sq","active":1871},"geometry":{"type":"Point","coordinates":[0.134379,51.525462]}},{"@id":"https://w3id.org/locolligo/bifmo-post-1840post-1840_edited/35dd2eea-80c1-4b7a-bd14-cb91655440ce","type":"Feature","properties":{"title":"Reid, James","address":"37, Gower Place, Euston Square, WC","active":1845},"geometry":{"type":"Point","coordinates":[0.134379,51.525462]}},{"@id":"https://w3id.org/locolligo/bifmo-post-1840post-1840_edited/76d68f07-f86b-4fcd-83de-7cb25687e33e","type":"Feature","properties":{"title":"Smallbone, J. ","address":"22 Gower place, Euston sq","active":1845},"geometry":{"type":"Point","coordinates":[0.134379,51.525462]}},{"@id":"https://w3id.org/locolligo/bifmo-post-1840post-1840_edited/e4fe39f5-3fdc-4644-8c70-ed5d18f89742","type":"Feature","properties":{"title":"Clark, Thomas","url":"https://bifmo.history.ac.uk/entry/clark-t-1871","address":"14B, Dean street, Soho","active":1871},"geometry":{"type":"Point","coordinates":[0.133115,51.515088]}},{"@id":"https://w3id.org/locolligo/bifmo-post-1840post-1840_edited/7f711ed8-8305-4f3e-8d96-a1183355f71c","type":"Feature","properties":{"title":"Kellett, Joseph","url":"https://bifmo.history.ac.uk/entry/kellett-joseph-1845","address":"14b, Dean st. Soho","active":1845},"geometry":{"type":"Point","coordinates":[0.133115,51.515088]}},{"@id":"https://w3id.org/locolligo/bifmo-post-1840post-1840_edited/20811f40-3982-492c-92da-cf95a6b65583","type":"Feature","properties":{"title":"Thurston , John","url":"https://bifmo.history.ac.uk/entry/thurston-john-1822-40","address":"Salisbury Wharf, Adelphi","active":1845},"geometry":{"type":"Point","coordinates":[0.122817,51.510121]}},{"@id":"https://w3id.org/locolligo/bifmo-post-1840post-1840_edited/58f1936c-51b9-4a94-afff-5e3790212bdb","type":"Feature","properties":{"title":"Walker, J.","address":"16 & 17 Stangate mews, Lmbth","active":1845},"geometry":{"type":"Point","coordinates":[0.117392,51.500017]}},{"@id":"https://w3id.org/locolligo/bifmo-post-1840post-1840_edited/83562294-25ec-4505-a858-a281aee9cd1e","type":"Feature","properties":{"title":"Beardsworth, John William","url":"https://bifmo.history.ac.uk/entry/beardsworth-john-1871","address":"5 Cook's ct. Lincoln's inn","active":1871},"geometry":{"type":"Point","coordinates":[0.114658,51.514937]}},{"@id":"https://w3id.org/locolligo/bifmo-post-1840post-1840_edited/ae237937-e738-4f1d-ad4a-9c0a69408cd1","type":"Feature","properties":{"title":"Gilbert, John A.","url":"https://bifmo.history.ac.uk/entry/gilbert-john-1871","address":"10, 12 & 13, Dorrington Street, WC","active":1871},"geometry":{"type":"Point","coordinates":[0.11218,51.523788]}},{"@id":"https://w3id.org/locolligo/bifmo-post-1840post-1840_edited/a2e23fb8-b6b7-4631-9fc3-88b7225abda4","type":"Feature","properties":{"title":"Mills, Thomas D.","url":"https://bifmo.history.ac.uk/entry/mills-thomas-d-1829-39","address":"7 Dorrington st. Coldbath fields","active":1845},"geometry":{"type":"Point","coordinates":[0.11218,51.523788]}},{"@id":"https://w3id.org/locolligo/bifmo-post-1840post-1840_edited/5ad8d967-a877-4000-b174-e513101f6a23","type":"Feature","properties":{"title":"Darvill, Wm.","url":"https://bifmo.history.ac.uk/entry/darvill-william-1845-1871","address":"29 Park pl. Kennington cr","active":1871},"geometry":{"type":"Point","coordinates":[0.105941,51.48486]}},{"@id":"https://w3id.org/locolligo/bifmo-post-1840post-1840_edited/a6a4192b-c18f-4e44-a7e0-ad12dd0580f2","type":"Feature","properties":{"title":"Dawson, John","url":"https://bifmo.history.ac.uk/entry/dawson-john-1835-39","address":"8 Wittam's bldgs; 14 & 15 Wittam's bldgs; 17 Pump row; 14 Old st. rd","active":1845},"geometry":{"type":"Point","coordinates":[0.088628,51.526686]}},{"@id":"https://w3id.org/locolligo/bifmo-post-1840post-1840_edited/350869ba-629a-4a19-9fb9-41fd5009c0b8","type":"Feature","properties":{"title":"Price, John","url":"https://bifmo.history.ac.uk/entry/price-john-1839","address":"1, Singleton Street South, Hoxton, N","active":1845},"geometry":{"type":"Point","coordinates":[0.086471,51.529252]}},{"@id":"https://w3id.org/locolligo/bifmo-post-1840post-1840_edited/41b9d5f9-2d98-4269-a9e1-1ab29b1a3b62","type":"Feature","properties":{"title":"Moir, William","url":"https://bifmo.history.ac.uk/entry/moir-william-1835-39","address":"1, Primrose Street, Bishopsgate, EC","active":1845},"geometry":{"type":"Point","coordinates":[0.079356,51.520515]}},{"@id":"https://w3id.org/locolligo/bifmo-post-1840post-1840_edited/8598171a-9773-4144-8499-f2bb0b16b4db","type":"Feature","properties":{"title":"Dench, Wm.","url":"https://bifmo.history.ac.uk/entry/dench-william-1871","address":"12 King’s pl. Commercial rd. ea E","active":1871},"geometry":{"type":"Point","coordinates":[0.07322,51.52985]}},{"@id":"https://w3id.org/locolligo/bifmo-post-1840post-1840_edited/9e370fa0-2874-4c0f-813a-9861aa268c73","type":"Feature","properties":{"title":"Denney, George","url":"https://bifmo.history.ac.uk/entry/denney-george-1845","address":"12 King’s pl. Commrcl. rd. east E","active":1845},"geometry":{"type":"Point","coordinates":[0.07322,51.52985]}},{"@id":"https://w3id.org/locolligo/bifmo-post-1840post-1840_edited/50e5b33a-a206-41a8-ba36-ee0299bea8dc","type":"Feature","properties":{"title":"Pargeter, George","url":"https://bifmo.history.ac.uk/entry/pargeter-george-1871","address":"101 Lambeth Lower marsh SE","active":1871},"geometry":{"type":"Point","coordinates":[0,51.501317]}},{"@id":"https://w3id.org/locolligo/bifmo-post-1840post-1840_edited/47c7e3eb-876d-4b2d-ac7c-c1d35eae661c","type":"Feature","properties":{"title":"Martin, H.","url":"https://bifmo.history.ac.uk/entry/martin-h-1845","address":"Stratford broadway","active":1845},"geometry":{"type":"Point","coordinates":[-0.002005,51.541583]}},{"@id":"https://w3id.org/locolligo/bifmo-post-1840post-1840_edited/5198bf83-99a0-4c61-8648-4becb03bbe76","type":"Feature","properties":{"title":"Steedman, C.","url":"https://bifmo.history.ac.uk/entry/steedman-c-1845","address":"Stratford broadway","active":1845},"geometry":{"type":"Point","coordinates":[-0.002005,51.541583]}},{"@id":"https://w3id.org/locolligo/bifmo-post-1840post-1840_edited/26c56c8f-5dc3-457e-94d8-f9251c696918","type":"Feature","properties":{"title":"Burroughes & Watts, ","url":"https://bifmo.history.ac.uk/entry/burroughs-watts-1839","address":"107 Brunswick st.Hackny.rdE","active":1845},"geometry":{"type":"Point","coordinates":[-0.007712,51.581879]}},{"@id":"https://w3id.org/locolligo/bifmo-post-1840post-1840_edited/381f0192-7a97-42e5-be63-e3d859abdf86","type":"Feature","properties":{"title":"Palmer, John","url":"https://bifmo.history.ac.uk/entry/palmer-john-1871","address":"14, Stockwell Street, Greenwich, SE","active":1871},"geometry":{"type":"Point","coordinates":[-0.008952,51.479906]}},{"@id":"https://w3id.org/locolligo/bifmo-post-1840post-1840_edited/373d6c2e-12da-4b53-ac75-6b02c123691a","type":"Feature","properties":{"title":"Dolman , Robert","url":"https://bifmo.history.ac.uk/entry/dolman-robert-1871","address":"10 Nelson st. Greenwich SE","active":1871},"geometry":{"type":"Point","coordinates":[-0.009026,51.480862]}},{"@id":"https://w3id.org/locolligo/bifmo-post-1840post-1840_edited/81c40301-672a-4ff4-9087-b9080165273b","type":"Feature","properties":{"title":"Harding, William","url":"https://bifmo.history.ac.uk/entry/harding-william-son-1845","address":"9, Circus Street, Marylebone Road, W","active":1845},"geometry":{"type":"Point","coordinates":[-0.011016,51.477002]}},{"@id":"https://w3id.org/locolligo/bifmo-post-1840post-1840_edited/f336c36e-caa9-4670-beff-d85599e4a272","type":"Feature","properties":{"title":"Langsford, Joseph","url":"https://bifmo.history.ac.uk/entry/langsford-joseph-1871","address":"19 Circus st. New rd","active":1871},"geometry":{"type":"Point","coordinates":[-0.011016,51.477002]}},{"@id":"https://w3id.org/locolligo/bifmo-post-1840post-1840_edited/de67ce65-578e-45c6-8e46-b1085e828a78","type":"Feature","properties":{"title":"Marchant, W.","url":"https://bifmo.history.ac.uk/entry/marchant-william-1808","address":"14, Circus Street, Marylebone Road, W","active":1871},"geometry":{"type":"Point","coordinates":[-0.011016,51.477002]}},{"@id":"https://w3id.org/locolligo/bifmo-post-1840post-1840_edited/b1327664-3cef-4493-866c-f0179643e648","type":"Feature","properties":{"title":"Edgeller, Thomas","url":"https://bifmo.history.ac.uk/entry/edgeller-thomas-1845","address":"Conant pl. Limehouse","active":1845},"geometry":{"type":"Point","coordinates":[-0.011313,51.511431]}},{"@id":"https://w3id.org/locolligo/bifmo-post-1840post-1840_edited/6265a54f-f187-46b3-a4fd-4ad56d2b4216","type":"Feature","properties":{"title":"Lewin, John Thomas","url":"https://bifmo.history.ac.uk/entry/lewin-john-thomas-1826-35","address":"174 Poplar High st E","active":1845},"geometry":{"type":"Point","coordinates":[-0.013492,51.50894]}},{"@id":"https://w3id.org/locolligo/bifmo-post-1840post-1840_edited/c03665e4-8998-465c-9511-10068aaea05f","type":"Feature","properties":{"title":"Beckett , Thomas","url":"https://bifmo.history.ac.uk/entry/beckett-thomas-1871","address":"17 Willow walk SE","active":1871},"geometry":{"type":"Point","coordinates":[-0.014004,51.462682]}},{"@id":"https://w3id.org/locolligo/bifmo-post-1840post-1840_edited/c286b78b-ae35-4b72-9c2f-365e69d9a230","type":"Feature","properties":{"title":"Gibbs, John Young","url":"https://bifmo.history.ac.uk/entry/gibbs-john-1835-39","address":"168 & 222, Poplar High Street, E","active":1845},"geometry":{"type":"Point","coordinates":[-0.014061,51.508913]}},{"@id":"https://w3id.org/locolligo/bifmo-post-1840post-1840_edited/a637098d-1344-4dfe-8bcf-63868dc453fc","type":"Feature","properties":{"title":"Pounsbury , Jas.","url":"https://bifmo.history.ac.uk/entry/pounsbury-james-1871","address":"27, Bath Street, East India dk.rd, E","active":1871},"geometry":{"type":"Point","coordinates":[-0.014546,51.510754]}},{"@id":"https://w3id.org/locolligo/bifmo-post-1840post-1840_edited/26a466ab-ac48-480c-8e62-9a4249090622","type":"Feature","properties":{"title":"Crofton, Philip","url":"https://bifmo.history.ac.uk/entry/crofton-philip-1823-28","address":"121, Poplar High Street, E","active":1845},"geometry":{"type":"Point","coordinates":[-0.015759,51.508966]}},{"@id":"https://w3id.org/locolligo/bifmo-post-1840post-1840_edited/b7bbe8bf-7260-4664-a88d-748c4736ac18","type":"Feature","properties":{"title":"Coles, Thomas","url":"https://bifmo.history.ac.uk/entry/coles-thomas-1845","address":"120, Poplar High Street, E","active":1845},"geometry":{"type":"Point","coordinates":[-0.015952,51.508993]}},{"@id":"https://w3id.org/locolligo/bifmo-post-1840post-1840_edited/e437e907-4932-4024-9454-95e3764e2794","type":"Feature","properties":{"title":"Gibson, Henry","url":"https://bifmo.history.ac.uk/entry/gibson-henry-1871","address":"83 Poplar High st","active":1871},"geometry":{"type":"Point","coordinates":[-0.017964,51.509024]}},{"@id":"https://w3id.org/locolligo/bifmo-post-1840post-1840_edited/1a0cb2e1-8527-4309-9684-41b8d4b2d2eb","type":"Feature","properties":{"title":"Carter, Robt.","url":"https://bifmo.history.ac.uk/entry/carter-robert-sons-1871","address":"53 Poplar High st.","active":1871},"geometry":{"type":"Point","coordinates":[-0.019142,51.509297]}},{"@id":"https://w3id.org/locolligo/bifmo-post-1840post-1840_edited/a27cbf04-1cad-45ca-a759-33fb5d99c280","type":"Feature","properties":{"title":"Fletcher, John","url":"https://bifmo.history.ac.uk/entry/fletcher-john-1871","address":"2 Back rd. St. Geo. Ea","active":1871},"geometry":{"type":"Point","coordinates":[-0.019643,51.509451]}},{"@id":"https://w3id.org/locolligo/bifmo-post-1840post-1840_edited/98c1c02c-1c01-4aa5-b4c4-a05938cc41e8","type":"Feature","properties":{"title":"Osborn, John","url":"https://bifmo.history.ac.uk/entry/osborn-john-1839","address":"31 Poplar High st.","active":1845},"geometry":{"type":"Point","coordinates":[-0.02011,51.509379]}},{"@id":"https://w3id.org/locolligo/bifmo-post-1840post-1840_edited/3c61cef6-fd71-4bdc-8ef6-baf80635b615","type":"Feature","properties":{"title":"Jewell, Moss","url":"https://bifmo.history.ac.uk/entry/jewell-moss-1871","address":"1 Poplar High st","active":1871},"geometry":{"type":"Point","coordinates":[-0.021075,51.509479]}},{"@id":"https://w3id.org/locolligo/bifmo-post-1840post-1840_edited/157daa9f-f4c8-47e1-8c4f-a62dadff999b","type":"Feature","properties":{"title":"Armstrong, Joseph","url":"https://bifmo.history.ac.uk/entry/armstrong-william-1871","address":"Deptford Bridge, SE","active":1845},"geometry":{"type":"Point","coordinates":[-0.022481,51.474961]}},{"@id":"https://w3id.org/locolligo/bifmo-post-1840post-1840_edited/3b768184-d7d9-4ff0-9251-969f6e00325a","type":"Feature","properties":{"title":"Cochlan, Charles","url":"https://bifmo.history.ac.uk/entry/cochlan-charles-1845","address":"Deptford Bridge, SE","active":1845},"geometry":{"type":"Point","coordinates":[-0.022481,51.474961]}},{"@id":"https://w3id.org/locolligo/bifmo-post-1840post-1840_edited/64f08d20-2763-4e4e-ac9e-01754ed91c6c","type":"Feature","properties":{"title":"Newman, Wm. Js.","url":"https://bifmo.history.ac.uk/entry/newman-william-james-1871","address":"39 Church st. Deptford SE","active":1871},"geometry":{"type":"Point","coordinates":[-0.022763,51.476347]}},{"@id":"https://w3id.org/locolligo/bifmo-post-1840post-1840_edited/abc48f15-b2cf-433f-ba1d-dc1a761f5a74","type":"Feature","properties":{"title":"Hill, John","url":"https://bifmo.history.ac.uk/entry/hill-john-1871","address":"27 Penny fields, Poplr","active":1871},"geometry":{"type":"Point","coordinates":[-0.024344,51.509844]}},{"@id":"https://w3id.org/locolligo/bifmo-post-1840post-1840_edited/e6bbe37d-dbc4-4605-b6ea-1968f9f96888","type":"Feature","properties":{"title":"Clewley, James","url":"https://bifmo.history.ac.uk/entry/clewley-james-1871","address":"19 Deptford High street SE","active":1871},"geometry":{"type":"Point","coordinates":[-0.025814,51.476114]}},{"@id":"https://w3id.org/locolligo/bifmo-post-1840post-1840_edited/20924794-b764-46a9-a0d6-5ac9b8124c7d","type":"Feature","properties":{"title":"Chappell, Thomas","url":"https://bifmo.history.ac.uk/entry/chappell-thomas-1820-37","address":"Deptford High st","active":1845},"geometry":{"type":"Point","coordinates":[-0.025814,51.476114]}},{"@id":"https://w3id.org/locolligo/bifmo-post-1840post-1840_edited/1b4ff26a-c91c-4db9-8ff1-e98b8759a937","type":"Feature","properties":{"title":"Cook, Thomas","url":"https://bifmo.history.ac.uk/entry/cook-thomas-1839","address":"22, Deptford High Street, SE","active":1845},"geometry":{"type":"Point","coordinates":[-0.025814,51.476114]}},{"@id":"https://w3id.org/locolligo/bifmo-post-1840post-1840_edited/7cebdf9d-18e7-40fb-ba89-0d04b5789ccf","type":"Feature","properties":{"title":"Nelson , Wm. Henry","url":"https://bifmo.history.ac.uk/entry/nelson-william-henry-1871","address":"High street, Deptford","active":1871},"geometry":{"type":"Point","coordinates":[-0.026042,51.478435]}},{"@id":"https://w3id.org/locolligo/bifmo-post-1840post-1840_edited/60780664-2909-4ae8-8dc9-f7ab2e2bc3dc","type":"Feature","properties":{"title":"Alsford, George","url":"https://bifmo.history.ac.uk/entry/alsford-george-1871","address":"480, New Cross rd, SE","active":1871},"geometry":{"type":"Point","coordinates":[-0.026924,51.474988]}},{"@id":"https://w3id.org/locolligo/bifmo-post-1840post-1840_edited/529b9723-3b77-43a3-a52c-5977c3714b3e","type":"Feature","properties":{"title":"Allen, Charles","url":"https://bifmo.history.ac.uk/entry/allen-charles-1871","address":"136, Globe Road, E","active":1871},"geometry":{"type":"Point","coordinates":[-0.027188,51.580325]}},{"@id":"https://w3id.org/locolligo/bifmo-post-1840post-1840_edited/885942dd-7c78-4089-8e8b-49ed500c5499","type":"Feature","properties":{"title":"Nash , Charles Wm.","url":"https://bifmo.history.ac.uk/entry/nash-charles-william-1871","address":"51 Armagh rd.south, OldFord E","active":1871},"geometry":{"type":"Point","coordinates":[-0.028472,51.53372]}},{"@id":"https://w3id.org/locolligo/bifmo-post-1840post-1840_edited/18e35831-5553-48dc-8b38-0bbceafd29af","type":"Feature","properties":{"title":"Howlett, James","url":"https://bifmo.history.ac.uk/entry/howlett-james-1839","address":"55, Lincoln Street, Mile End Road, EC","active":1845},"geometry":{"type":"Point","coordinates":[-0.029867,51.524707]}},{"@id":"https://w3id.org/locolligo/bifmo-post-1840post-1840_edited/3b90b272-563a-44f7-a5e7-98f7ff679c83","type":"Feature","properties":{"title":"Callow, John Howes","url":"https://bifmo.history.ac.uk/entry/callow-john-howes-1871","address":"Three, Colt Street, Old Ford, E","active":1871},"geometry":{"type":"Point","coordinates":[-0.030248,51.510021]}},{"@id":"https://w3id.org/locolligo/bifmo-post-1840post-1840_edited/ccef3009-8908-4de3-ac0a-d5390aa2ee3e","type":"Feature","properties":{"title":"Mowatt, Robert","url":"https://bifmo.history.ac.uk/entry/mowatt-robert-1845","address":"63, Libra Road, Old Ford, E","active":1845},"geometry":{"type":"Point","coordinates":[-0.03048,51.534794]}},{"@id":"https://w3id.org/locolligo/bifmo-post-1840post-1840_edited/7914febd-6fa7-45f6-b6d3-b6dd548a5702","type":"Feature","properties":{"title":"Warren , Jas.","address":"7, Church Passage, Stepney, E","active":1871},"geometry":{"type":"Point","coordinates":[-0.031347,51.511685]}},{"@id":"https://w3id.org/locolligo/bifmo-post-1840post-1840_edited/c539aba4-eecb-4b0c-be46-678aa95b7e61","type":"Feature","properties":{"title":"Clark, James","url":"https://bifmo.history.ac.uk/entry/clark-james-1845","address":"Milton Road, Old Ford Road, E","active":1845},"geometry":{"type":"Point","coordinates":[-0.031579,51.535284]}},{"@id":"https://w3id.org/locolligo/bifmo-post-1840post-1840_edited/a3ce4b00-0a87-4d85-a024-0466f7740028","type":"Feature","properties":{"title":"Argant, Charles F.","url":"https://bifmo.history.ac.uk/entry/argant-charles-f-1845","address":"Beale Road, Old Ford, Bow, E","active":1845},"geometry":{"type":"Point","coordinates":[-0.031801,51.534363]}},{"@id":"https://w3id.org/locolligo/bifmo-post-1840post-1840_edited/4bff6b17-58d0-4545-a90c-e25672af8fb4","type":"Feature","properties":{"title":"Lawson, George","url":"https://bifmo.history.ac.uk/entry/lawson-george-1871","address":"Brook Street, Beale Road, Old Ford, E","active":1871},"geometry":{"type":"Point","coordinates":[-0.032301,51.534803]}},{"@id":"https://w3id.org/locolligo/bifmo-post-1840post-1840_edited/d277b47c-c66c-45e1-b2a3-f4262d08823e","type":"Feature","properties":{"title":"Cohen , Abraham J.","url":"https://bifmo.history.ac.uk/entry/cohen-abraham-j-1871-1886","address":"Old Ford Road, E","active":1871},"geometry":{"type":"Point","coordinates":[-0.032627,51.535299]}},{"@id":"https://w3id.org/locolligo/bifmo-post-1840post-1840_edited/4a78e65c-dd57-43a0-a649-6d980315566c","type":"Feature","properties":{"title":"Holman, James","url":"https://bifmo.history.ac.uk/entry/holman-james-1839","address":"21 Chas.st. Mile end Old tn E","active":1871},"geometry":{"type":"Point","coordinates":[-0.0331,51.523684]}},{"@id":"https://w3id.org/locolligo/bifmo-post-1840post-1840_edited/6bcad0cf-d426-4444-85c1-2398f24395c3","type":"Feature","properties":{"title":"Mattocks, George","url":"https://bifmo.history.ac.uk/entry/mattocks-george-1871","address":"5 Brighton ter. Rhodeswell rd E","active":1871},"geometry":{"type":"Point","coordinates":[-0.033308,51.515429]}},{"@id":"https://w3id.org/locolligo/bifmo-post-1840post-1840_edited/3c0bacda-17c1-4be0-881f-1caad77fa0c0","type":"Feature","properties":{"title":"Crace, John G.","url":"https://bifmo.history.ac.uk/entry/crace-frederick-son-1821-40","address":"5, Norman Road, Old Ford, E","active":1871},"geometry":{"type":"Point","coordinates":[-0.033447,51.53079]}},{"@id":"https://w3id.org/locolligo/bifmo-post-1840post-1840_edited/e2ebebe5-3efb-43fe-94ab-705064000f51","type":"Feature","properties":{"title":"Towne, William","url":"https://bifmo.history.ac.uk/entry/towne-william-1839","address":"41Norman rd.Old Ford E","active":1845},"geometry":{"type":"Point","coordinates":[-0.034108,51.531429]}},{"@id":"https://w3id.org/locolligo/bifmo-post-1840post-1840_edited/778f4e27-4d70-4b02-88fb-3ed75ce85d43","type":"Feature","properties":{"title":"Rushton, Jas.","url":"https://bifmo.history.ac.uk/entry/rushton-james-1845","address":"108 Driffield road, Roman road E","active":1845},"geometry":{"type":"Point","coordinates":[-0.035874,51.532096]}},{"@id":"https://w3id.org/locolligo/bifmo-post-1840post-1840_edited/f1309ab6-f186-4043-9255-f6b1f836847f","type":"Feature","properties":{"title":"Tratt & Attfield, ","url":"https://bifmo.history.ac.uk/entry/tratt-attfield-1814-39","address":"381 Mile end road E","active":1845},"geometry":{"type":"Point","coordinates":[-0.035876,51.524952]}},{"@id":"https://w3id.org/locolligo/bifmo-post-1840post-1840_edited/3867443f-51f7-4980-9743-6a845609b71c","type":"Feature","properties":{"title":"Nelson, John","url":"https://bifmo.history.ac.uk/entry/nelson-john-1871","address":"343 New Cross road SE","active":1871},"geometry":{"type":"Point","coordinates":[-0.035893,51.475797]}},{"@id":"https://w3id.org/locolligo/bifmo-post-1840post-1840_edited/5d2dc998-6cff-4160-bcb1-16be884d6f6e","type":"Feature","properties":{"title":"Cotterell , Saml. J. jun.","url":"https://bifmo.history.ac.uk/entry/cotterell-samuel-j-junior-1871","address":"133, White Horse Street, E","active":1871},"geometry":{"type":"Point","coordinates":[-0.035894,51.51636]}},{"@id":"https://w3id.org/locolligo/bifmo-post-1840post-1840_edited/bed4d319-fe85-4b9b-9b1d-383430c9e417","type":"Feature","properties":{"title":"Kittle, John & F.","url":"https://bifmo.history.ac.uk/entry/kittle-john-f-1871","address":"Oriel Road, Church Road, Homerton, E","active":1871},"geometry":{"type":"Point","coordinates":[-0.035947,51.545499]}},{"@id":"https://w3id.org/locolligo/bifmo-post-1840post-1840_edited/0441d1c5-fbd9-4b9f-ab1b-51f7c39a7f20","type":"Feature","properties":{"title":"Robinson, William","url":"https://bifmo.history.ac.uk/entry/robinson-william-1839","address":"355 Mile end rd E","active":1845},"geometry":{"type":"Point","coordinates":[-0.036971,51.524372]}},{"@id":"https://w3id.org/locolligo/bifmo-post-1840post-1840_edited/b1ea8cff-9361-4929-a8ab-5ee0bcdaeed2","type":"Feature","properties":{"title":"Snowdon, J. W.","address":"460, Mile End Road, E","active":1871},"geometry":{"type":"Point","coordinates":[-0.038563,51.523537]}},{"@id":"https://w3id.org/locolligo/bifmo-post-1840post-1840_edited/ed0d3126-ab0e-4df9-b3ef-b5248440298f","type":"Feature","properties":{"title":"Hale, James","url":"https://bifmo.history.ac.uk/entry/hale-james-1845","address":"1, Kenilworth Road, Roman Road, E","active":1845},"geometry":{"type":"Point","coordinates":[-0.039663,51.531296]}},{"@id":"https://w3id.org/locolligo/bifmo-post-1840post-1840_edited/dc98aaa1-63d6-4dbf-aef7-fe33f9d678e6","type":"Feature","properties":{"title":"Gerhold, Heinrich","url":"https://bifmo.history.ac.uk/entry/gerhold-heinrich-1871","address":"20 Crown row, Mile end rd","active":1871},"geometry":{"type":"Point","coordinates":[-0.039748,51.523104]}},{"@id":"https://w3id.org/locolligo/bifmo-post-1840post-1840_edited/b2b4c3f4-f264-46cc-8725-fcabacc187a2","type":"Feature","properties":{"title":"Snowden, George James","address":"5 Crown row, Mile end","active":1871},"geometry":{"type":"Point","coordinates":[-0.039748,51.522563]}},{"@id":"https://w3id.org/locolligo/bifmo-post-1840post-1840_edited/1a5d806c-cdd1-499c-8e34-8fda7675ad9d","type":"Feature","properties":{"title":"Ripkey, John","url":"https://bifmo.history.ac.uk/entry/ripkey-john-1839","address":"374 Mile end road E","active":1845},"geometry":{"type":"Point","coordinates":[-0.040016,51.522803]}},{"@id":"https://w3id.org/locolligo/bifmo-post-1840post-1840_edited/6a9f6c81-dd7f-442f-ae33-e01c17568740","type":"Feature","properties":{"title":"Winfield, William","url":"https://bifmo.history.ac.uk/entry/winfield-william-1845","address":"390, Mile End Road, E","active":1845},"geometry":{"type":"Point","coordinates":[-0.040027,51.522843]}},{"@id":"https://w3id.org/locolligo/bifmo-post-1840post-1840_edited/0a0a66de-f07b-498f-836c-ca726e30117b","type":"Feature","properties":{"title":"Wright, John","address":"7, Sidney Terrace, Grove Road, E","active":1845},"geometry":{"type":"Point","coordinates":[-0.040171,51.530798]}},{"@id":"https://w3id.org/locolligo/bifmo-post-1840post-1840_edited/537457ed-d29a-49a2-a768-e5b4be8a7d4d","type":"Feature","properties":{"title":"Crow, Robt.","url":"https://bifmo.history.ac.uk/entry/crow-robert-1871","address":"2 Crown ter. Mile end road","active":1871},"geometry":{"type":"Point","coordinates":[-0.040553,51.523041]}},{"@id":"https://w3id.org/locolligo/bifmo-post-1840post-1840_edited/94a1a00c-fd0e-41f6-b04e-168f9d0471ef","type":"Feature","properties":{"title":"Binns, Samuel","url":"https://bifmo.history.ac.uk/entry/binns-samuel-george-1826-39","address":"2, Bull Lane, Stepney, E","active":1845},"geometry":{"type":"Point","coordinates":[-0.040996,51.517906]}},{"@id":"https://w3id.org/locolligo/bifmo-post-1840post-1840_edited/fd17a265-c287-4988-91a3-4d159c4ed5b2","type":"Feature","properties":{"title":"Judd, James Henry","url":"https://bifmo.history.ac.uk/entry/judd-james-henry-1871","address":"5, Bull Lane, Stepney, E","active":1871},"geometry":{"type":"Point","coordinates":[-0.040996,51.517906]}},{"@id":"https://w3id.org/locolligo/bifmo-post-1840post-1840_edited/a25c7a90-d7c4-4ff9-b008-1b38bc815f68","type":"Feature","properties":{"title":"Resser , Robert","url":"https://bifmo.history.ac.uk/entry/resser-robert-1871","address":"2, Bull Lane, Stepney, E","active":1871},"geometry":{"type":"Point","coordinates":[-0.040996,51.517906]}},{"@id":"https://w3id.org/locolligo/bifmo-post-1840post-1840_edited/d71c35f9-e569-4925-94fc-ad864d5f7209","type":"Feature","properties":{"title":"Binns, Nimrod","url":"https://bifmo.history.ac.uk/entry/binns-nimrod-1822-39","address":"2 Ocean row, Stepney","active":1871},"geometry":{"type":"Point","coordinates":[-0.04145,51.518858]}},{"@id":"https://w3id.org/locolligo/bifmo-post-1840post-1840_edited/4d382427-e1f2-4d0d-9243-89b8d7ed43df","type":"Feature","properties":{"title":"Chittenden, Charles","url":"https://bifmo.history.ac.uk/entry/chittenden-charles-1845","address":"73, Bromley Street, Commercial Road ea, E","active":1845},"geometry":{"type":"Point","coordinates":[-0.042791,51.515182]}},{"@id":"https://w3id.org/locolligo/bifmo-post-1840post-1840_edited/a0e9da3e-c77a-43fd-a2d6-f9e829acd8d4","type":"Feature","properties":{"title":"Twiddy, Jane","url":"https://bifmo.history.ac.uk/entry/twiddy-jane-mrs-1845","address":"7, Bedford ter., Old Ford Road, E","active":1845},"geometry":{"type":"Point","coordinates":[-0.042926,51.53265]}},{"@id":"https://w3id.org/locolligo/bifmo-post-1840post-1840_edited/1d966654-de6d-4ef5-a4e7-015b89f767f5","type":"Feature","properties":{"title":"Jenkins, Saml.","url":"https://bifmo.history.ac.uk/entry/jenkins-samuel-1871-1886","address":"2 Portland pl. Comrcl.rd east E","active":1871},"geometry":{"type":"Point","coordinates":[-0.043551,51.513338]}},{"@id":"https://w3id.org/locolligo/bifmo-post-1840post-1840_edited/aaad3365-8360-4fc0-a1e5-e419e8114b22","type":"Feature","properties":{"title":"Jenkins, William","url":"https://bifmo.history.ac.uk/entry/jenkins-william-1871","address":"2, Portland pl.Commrcl.rd.east, E","active":1871},"geometry":{"type":"Point","coordinates":[-0.043551,51.513338]}},{"@id":"https://w3id.org/locolligo/bifmo-post-1840post-1840_edited/476dd826-486a-4997-8073-84eb50d5374d","type":"Feature","properties":{"title":"Nightingale, Wm.","url":"https://bifmo.history.ac.uk/entry/nightingale-william-1871","address":"Bancroft Road, E","active":1871},"geometry":{"type":"Point","coordinates":[-0.04415,51.525092]}},{"@id":"https://w3id.org/locolligo/bifmo-post-1840post-1840_edited/b497dac2-9a46-490d-89ee-043363c2aedf","type":"Feature","properties":{"title":"Gepp, Thomas","url":"https://bifmo.history.ac.uk/entry/gepp-thomas-1837","address":"246, Mile End Road, E","active":1845},"geometry":{"type":"Point","coordinates":[-0.044194,51.522277]}},{"@id":"https://w3id.org/locolligo/bifmo-post-1840post-1840_edited/c6c53f30-1776-4074-915a-6e2a4fa58213","type":"Feature","properties":{"title":"Perry, Charles","url":"https://bifmo.history.ac.uk/entry/perry-charles-1871","address":"Bedford st.Commercial rd. east E","active":1871},"geometry":{"type":"Point","coordinates":[-0.046147,51.513185]}},{"@id":"https://w3id.org/locolligo/bifmo-post-1840post-1840_edited/47c5e693-ba15-4b83-ab57-4e14d800c9b6","type":"Feature","properties":{"title":"Siems , Ann","url":"https://bifmo.history.ac.uk/entry/siems-ann-mrs-1871","address":"13 Bedford place, Commercial road east E","active":1871},"geometry":{"type":"Point","coordinates":[-0.046147,51.513185]}},{"@id":"https://w3id.org/locolligo/bifmo-post-1840post-1840_edited/3bb2f4b4-c643-4f1d-81d8-f100e577cbe5","type":"Feature","properties":{"title":"Thompson, Warwk. Wm.","url":"https://bifmo.history.ac.uk/entry/thompson-william-warwick-1845-1871","address":"69 Bedford st. Cml. rd. eaE","active":1871},"geometry":{"type":"Point","coordinates":[-0.046147,51.513185]}},{"@id":"https://w3id.org/locolligo/bifmo-post-1840post-1840_edited/325b7140-ef70-4d57-a608-c64208ed4fce","type":"Feature","properties":{"title":"Maple, John","url":"https://bifmo.history.ac.uk/entry/maple-co-cook-maple-j-maple-1841-1988","address":"282 Mile end road E","active":1871},"geometry":{"type":"Point","coordinates":[-0.046393,51.521761]}},{"@id":"https://w3id.org/locolligo/bifmo-post-1840post-1840_edited/f8122efa-2954-428b-985b-7fbe4e3e653c","type":"Feature","properties":{"title":"Hempel , Hen. William","address":"278, Mile End Road, E","active":1871},"geometry":{"type":"Point","coordinates":[-0.046472,51.521825]}},{"@id":"https://w3id.org/locolligo/bifmo-post-1840post-1840_edited/450c7ffe-0b4a-442c-a796-e75623b7b920","type":"Feature","properties":{"title":"Dixon, Henry","url":"https://bifmo.history.ac.uk/entry/dixon-henry-1829-39","address":"262, Mile End Road, E","active":1845},"geometry":{"type":"Point","coordinates":[-0.046657,51.521745]}},{"@id":"https://w3id.org/locolligo/bifmo-post-1840post-1840_edited/c894391c-8a0d-4b60-914c-a3da695dab8a","type":"Feature","properties":{"title":"Jaffray, Geo.","url":"https://bifmo.history.ac.uk/entry/jaffray-george-1871","address":"52 Regent Street & 3 Glasshouse Street W","active":1871},"geometry":{"type":"Point","coordinates":[-0.046787,51.510637]}},{"@id":"https://w3id.org/locolligo/bifmo-post-1840post-1840_edited/73734f37-7276-45f0-bc35-953d005b0455","type":"Feature","properties":{"title":"Medcalf, Chas. Albt.","url":"https://bifmo.history.ac.uk/entry/medcalf-charles-albert-1871","address":"48, Glasshouse Street, W","active":1871},"geometry":{"type":"Point","coordinates":[-0.046787,51.510637]}},{"@id":"https://w3id.org/locolligo/bifmo-post-1840post-1840_edited/92042dac-4a9e-4ca5-835f-4f128041a521","type":"Feature","properties":{"title":"Darbyshire, G. ","url":"https://bifmo.history.ac.uk/entry/darbyshire-g-g-1839","address":"3, Spring Garden pl., Stepney, E","active":1845},"geometry":{"type":"Point","coordinates":[-0.047185,51.522204]}},{"@id":"https://w3id.org/locolligo/bifmo-post-1840post-1840_edited/2187c6ce-3a96-4a9c-9233-ecbb4af737fd","type":"Feature","properties":{"title":"Knapp, Henry","url":"https://bifmo.history.ac.uk/entry/knapp-john-henry-1837","address":"Cobbett’s Lane, Rotherhithe, SE","active":1845},"geometry":{"type":"Point","coordinates":[-0.04852,51.49138]}},{"@id":"https://w3id.org/locolligo/bifmo-post-1840post-1840_edited/9e072a71-aba7-4600-a343-ba34e3835fcd","type":"Feature","properties":{"title":"Coffin, Thomas","url":"https://bifmo.history.ac.uk/entry/coffin-thomas-1871","address":"Stewardson Road East, E","active":1871},"geometry":{"type":"Point","coordinates":[-0.04902,51.533139]}},{"@id":"https://w3id.org/locolligo/bifmo-post-1840post-1840_edited/870b811e-b00b-4124-b8df-7a71c4da8815","type":"Feature","properties":{"title":"Jennings, Henry K.","url":"https://bifmo.history.ac.uk/entry/jennings-henry-kickweed-1807-40","address":"4 West st. Hackney","active":1871},"geometry":{"type":"Point","coordinates":[-0.049054,51.543155]}},{"@id":"https://w3id.org/locolligo/bifmo-post-1840post-1840_edited/7ac45373-3c70-40f7-bebb-724d3a016d66","type":"Feature","properties":{"title":"Boswell, Wm.","url":"https://bifmo.history.ac.uk/entry/boswell-william-1871","address":"1, Hayfield Passage, Stepney, E","active":1871},"geometry":{"type":"Point","coordinates":[-0.049294,51.520955]}},{"@id":"https://w3id.org/locolligo/bifmo-post-1840post-1840_edited/7946806f-3b23-4dde-983e-af9566eec9ee","type":"Feature","properties":{"title":"Prince, Thomas","url":"https://bifmo.history.ac.uk/entry/prince-thomas-1839","address":"14 Lower rd. Islington","active":1845},"geometry":{"type":"Point","coordinates":[-0.049305,51.494257]}},{"@id":"https://w3id.org/locolligo/bifmo-post-1840post-1840_edited/055a55d5-a78b-4ec6-9cdf-f240058681ca","type":"Feature","properties":{"title":"Webb, George","url":"https://bifmo.history.ac.uk/entry/webb-george-1871","address":"155 Globe road E","active":1871},"geometry":{"type":"Point","coordinates":[-0.050242,51.526252]}},{"@id":"https://w3id.org/locolligo/bifmo-post-1840post-1840_edited/2c266ada-4104-4bb1-98cc-6f62c2630fad","type":"Feature","properties":{"title":"Cave, William","url":"https://bifmo.history.ac.uk/entry/cave-william-1845","address":"228 Globe road, Bethnal green E","active":1845},"geometry":{"type":"Point","coordinates":[-0.050242,51.526252]}},{"@id":"https://w3id.org/locolligo/bifmo-post-1840post-1840_edited/1f6a8e86-4970-46ad-a81a-296b3610e99f","type":"Feature","properties":{"title":"Webb, Samuel","address":"141 Globe road E","active":1871},"geometry":{"type":"Point","coordinates":[-0.050242,51.526252]}},{"@id":"https://w3id.org/locolligo/bifmo-post-1840post-1840_edited/b73c2185-6a2d-4eb4-8ddf-d608f596758c","type":"Feature","properties":{"title":"Holmes, Henry","url":"https://bifmo.history.ac.uk/entry/holmes-henry-1845","address":"30 Hatfield st. Stamford st","active":1845},"geometry":{"type":"Point","coordinates":[-0.050413,51.477444]}},{"@id":"https://w3id.org/locolligo/bifmo-post-1840post-1840_edited/f8d5af2f-feec-40f4-8be2-f1913fdf07c3","type":"Feature","properties":{"title":"Holman, Jas.","url":"https://bifmo.history.ac.uk/entry/holman-james-1839","address":"30, Hatfield Street, Stamford Street, SE","active":1845},"geometry":{"type":"Point","coordinates":[-0.050413,51.477444]}},{"@id":"https://w3id.org/locolligo/bifmo-post-1840post-1840_edited/d95ef89f-b230-4ae5-9ec2-f1b51ac69f6b","type":"Feature","properties":{"title":"Shephard, Wm. Boyce","url":"https://bifmo.history.ac.uk/entry/shephard-william-boyd-1871","address":"167 Globe road, Mile end E","active":1871},"geometry":{"type":"Point","coordinates":[-0.050591,51.526869]}},{"@id":"https://w3id.org/locolligo/bifmo-post-1840post-1840_edited/9563ae61-5cb7-4dce-9e08-8c6d34188001","type":"Feature","properties":{"title":"Walling , Wm.","url":"https://bifmo.history.ac.uk/entry/walling-william-1871","address":"37 Assembly row, Mile end","active":1871},"geometry":{"type":"Point","coordinates":[-0.051434,51.519932]}},{"@id":"https://w3id.org/locolligo/bifmo-post-1840post-1840_edited/78baf1eb-a8b3-4519-81d7-5eb8baf43a5f","type":"Feature","properties":{"title":"Field, Charles","url":"https://bifmo.history.ac.uk/entry/field-charles-1839","address":"32, Wapping Wall, E","active":1845},"geometry":{"type":"Point","coordinates":[-0.051658,51.507158]}},{"@id":"https://w3id.org/locolligo/bifmo-post-1840post-1840_edited/92b44466-06cb-4408-a9fe-0cd80aa8af9d","type":"Feature","properties":{"title":"Gregory, John","url":"https://bifmo.history.ac.uk/entry/gregory-john-1840","address":"2 Sun Tavernflds. St. Geo. Ea","active":1845},"geometry":{"type":"Point","coordinates":[-0.051779,51.51028]}},{"@id":"https://w3id.org/locolligo/bifmo-post-1840post-1840_edited/8e70a49f-9b58-47e9-9c3e-905b4869d190","type":"Feature","properties":{"title":"Battes, Thomas","url":"https://bifmo.history.ac.uk/entry/battes-john-1820-39","address":"3 Jamaica ter. Commecl.rd","active":1871},"geometry":{"type":"Point","coordinates":[-0.051822,51.515486]}},{"@id":"https://w3id.org/locolligo/bifmo-post-1840post-1840_edited/4e715628-c20f-44ca-b2b3-1f4d533f357f","type":"Feature","properties":{"title":"Crowfoot, Robert Geo.","url":"https://bifmo.history.ac.uk/entry/crowfoot-robert-george-1871","address":"84 Lucas st. Commercial rd. east E","active":1871},"geometry":{"type":"Point","coordinates":[-0.052019,51.511953]}},{"@id":"https://w3id.org/locolligo/bifmo-post-1840post-1840_edited/9168357e-b78f-4c53-aaf2-d50849067b6c","type":"Feature","properties":{"title":"King, William","url":"https://bifmo.history.ac.uk/entry/king-william-1871","address":"White Post Lane, Old Kent Road, SE","active":1871},"geometry":{"type":"Point","coordinates":[-0.052528,51.487199]}},{"@id":"https://w3id.org/locolligo/bifmo-post-1840post-1840_edited/8ef36544-f563-4432-b118-3a94e76a15ff","type":"Feature","properties":{"title":"Miller, Jas.","url":"https://bifmo.history.ac.uk/entry/miller-james-1835-40","address":"59 Devonshire st. Mile end E","active":1845},"geometry":{"type":"Point","coordinates":[-0.052759,51.527305]}},{"@id":"https://w3id.org/locolligo/bifmo-post-1840post-1840_edited/1ccdc3e3-019d-48b4-a93a-194f6509d557","type":"Feature","properties":{"title":"Prosser, ","url":"https://bifmo.history.ac.uk/entry/prosser-lloyd-1871","address":"146Devonshire st.Cambrdge.rd E","active":1871},"geometry":{"type":"Point","coordinates":[-0.052759,51.527305]}},{"@id":"https://w3id.org/locolligo/bifmo-post-1840post-1840_edited/9d6d6ee6-4759-485a-819f-19fcdeac5d9e","type":"Feature","properties":{"title":"Venables, Thomas","address":"5 Devonshire street, Mile end E","active":1871},"geometry":{"type":"Point","coordinates":[-0.052759,51.527305]}},{"@id":"https://w3id.org/locolligo/bifmo-post-1840post-1840_edited/40af3bc2-4ef7-4480-86ec-adc7e864329d","type":"Feature","properties":{"title":"Hageman, Augustus","url":"https://bifmo.history.ac.uk/entry/hageman-augustus","address":"59, Jubilee Street, Comrcl. rd. East, E","active":1871},"geometry":{"type":"Point","coordinates":[-0.053111,51.515662]}},{"@id":"https://w3id.org/locolligo/bifmo-post-1840post-1840_edited/6bb26605-faa0-4559-97b2-f122518e630c","type":"Feature","properties":{"title":"Busfield, Joseph","url":"https://bifmo.history.ac.uk/entry/busfield-josh-or-joseph-1827-39","address":"39, Jubilee Street, Commercial Road ea, E","active":1845},"geometry":{"type":"Point","coordinates":[-0.053141,51.515239]}},{"@id":"https://w3id.org/locolligo/bifmo-post-1840post-1840_edited/f5f2e704-b341-4815-afab-0da3db45cc3f","type":"Feature","properties":{"title":"Selby, T. ","address":"50 Sutton street east E","active":1845},"geometry":{"type":"Point","coordinates":[-0.053484,51.513362]}},{"@id":"https://w3id.org/locolligo/bifmo-post-1840post-1840_edited/898ead9b-f0a7-4c26-a4cc-d2ca1ec652e3","type":"Feature","properties":{"title":"Howard, ","url":"https://bifmo.history.ac.uk/entry/howard-john-and-howard-sons-1820-1925","address":"14 Crombie'srw. Com. rd. e","active":1871},"geometry":{"type":"Point","coordinates":[-0.053678,51.514359]}},{"@id":"https://w3id.org/locolligo/bifmo-post-1840post-1840_edited/e01f4d44-6c8c-4172-b9be-16a67f6b89da","type":"Feature","properties":{"title":"Wood , Alexander","url":"https://bifmo.history.ac.uk/entry/wood-alexander-1845-1871","address":"9 Crombie's row, Coml. Rd. e","active":1871},"geometry":{"type":"Point","coordinates":[-0.053678,51.514359]}},{"@id":"https://w3id.org/locolligo/bifmo-post-1840post-1840_edited/bfb87625-5b65-484a-b917-19555b23cdbe","type":"Feature","properties":{"title":"Ely, C.","url":"https://bifmo.history.ac.uk/entry/ely-c-mrs-1871","address":"4 Patriot row, Cambdg. Rd","active":1871},"geometry":{"type":"Point","coordinates":[-0.054225,51.530591]}},{"@id":"https://w3id.org/locolligo/bifmo-post-1840post-1840_edited/3d2cbe9e-8315-4021-9df3-75dcbdeec790","type":"Feature","properties":{"title":"Sherwood, George","url":"https://bifmo.history.ac.uk/entry/sherwood-george-1871","address":"Cross st. Dean st. Coml.rd.e","active":1871},"geometry":{"type":"Point","coordinates":[-0.055056,51.513663]}},{"@id":"https://w3id.org/locolligo/bifmo-post-1840post-1840_edited/0aa3476f-8b2f-4deb-b271-c5a4b3075058","type":"Feature","properties":{"title":"Lochmüller, Antonio","url":"https://bifmo.history.ac.uk/entry/lochmuller-antonio-1871","address":"12 Sidney st. Mile end","active":1871},"geometry":{"type":"Point","coordinates":[-0.055148,51.515676]}},{"@id":"https://w3id.org/locolligo/bifmo-post-1840post-1840_edited/9d47ce52-0b14-4826-84d3-b666a487c150","type":"Feature","properties":{"title":"Vericchio, Dionisio","url":"https://bifmo.history.ac.uk/entry/vericchio-dionisio-1871","address":"90 Sidney street, Mile end E","active":1871},"geometry":{"type":"Point","coordinates":[-0.055158,51.517197]}},{"@id":"https://w3id.org/locolligo/bifmo-post-1840post-1840_edited/5ddb7213-1a83-4be4-b8ab-eb883f8c96b4","type":"Feature","properties":{"title":"Conrath, Fredk. John","url":"https://bifmo.history.ac.uk/entry/conrath-frederick-john-son-1871","address":"Mare street, Hackney","active":1871},"geometry":{"type":"Point","coordinates":[-0.05529,51.542019]}},{"@id":"https://w3id.org/locolligo/bifmo-post-1840post-1840_edited/e067da45-569e-4b77-a563-9936d0e8c670","type":"Feature","properties":{"title":"Airey, ","url":"https://bifmo.history.ac.uk/entry/airey-co1845","address":"7 Clarence pl. Hackney rd","active":1845},"geometry":{"type":"Point","coordinates":[-0.055307,51.551507]}},{"@id":"https://w3id.org/locolligo/bifmo-post-1840post-1840_edited/249dda89-3817-41cf-bc54-74e57c1d8194","type":"Feature","properties":{"title":"Keating, William","url":"https://bifmo.history.ac.uk/entry/keating-william-1821-39","address":"4 Clarence pl. Hckny. Rd","active":1845},"geometry":{"type":"Point","coordinates":[-0.055307,51.551507]}},{"@id":"https://w3id.org/locolligo/bifmo-post-1840post-1840_edited/afdd9ca0-9ac9-4efa-b107-592b327d58a0","type":"Feature","properties":{"title":"Lironi, Peter Thomas","url":"https://bifmo.history.ac.uk/entry/lironi-peter-thomas-1871","address":"14 Clarence pl. Hackney rd","active":1871},"geometry":{"type":"Point","coordinates":[-0.055307,51.551507]}},{"@id":"https://w3id.org/locolligo/bifmo-post-1840post-1840_edited/25cefb6d-8fc7-4971-93d6-f84088cbdf51","type":"Feature","properties":{"title":"Platt, George","url":"https://bifmo.history.ac.uk/entry/platt-george-son-1871","address":"11 Clarence pl. Hackney rd","active":1871},"geometry":{"type":"Point","coordinates":[-0.055307,51.551507]}},{"@id":"https://w3id.org/locolligo/bifmo-post-1840post-1840_edited/34af1d1c-c7ba-45d1-b6e8-bb5e9c571107","type":"Feature","properties":{"title":"Miller, Thomas","url":"https://bifmo.history.ac.uk/entry/miller-thomas-1871-1886","address":"143, Sidney Street, Mile End, E","active":1871},"geometry":{"type":"Point","coordinates":[-0.055316,51.517201]}},{"@id":"https://w3id.org/locolligo/bifmo-post-1840post-1840_edited/dbd9d714-8111-43a6-83a6-8b7a34cd40bf","type":"Feature","properties":{"title":"Bertin, James","url":"https://bifmo.history.ac.uk/entry/bertin-james-charles-1829-39","address":"Church street, Hackney","active":1871},"geometry":{"type":"Point","coordinates":[-0.055319,51.542109]}},{"@id":"https://w3id.org/locolligo/bifmo-post-1840post-1840_edited/a3c8eec6-dc8e-4a4f-93d7-992e2ce458d1","type":"Feature","properties":{"title":"Jefferies , Joseph","address":"Church street, Hackney","active":1871},"geometry":{"type":"Point","coordinates":[-0.055319,51.542109]}},{"@id":"https://w3id.org/locolligo/bifmo-post-1840post-1840_edited/24d5a266-3a76-45e6-81b4-fe2b32e67acc","type":"Feature","properties":{"title":"Lambert, Jas.","url":"https://bifmo.history.ac.uk/entry/lambert-james-1835","address":"Church st. Hackney","active":1845},"geometry":{"type":"Point","coordinates":[-0.055319,51.542109]}},{"@id":"https://w3id.org/locolligo/bifmo-post-1840post-1840_edited/0d8322c3-64e0-44f8-8fce-06bec9debd43","type":"Feature","properties":{"title":"Monro, William","url":"https://bifmo.history.ac.uk/entry/monro-william-1845","address":"Church st. Hackney","active":1845},"geometry":{"type":"Point","coordinates":[-0.055319,51.542109]}},{"@id":"https://w3id.org/locolligo/bifmo-post-1840post-1840_edited/eba85eed-ec1a-46ea-8602-ee5371863ab5","type":"Feature","properties":{"title":"Nurse, Henry","url":"https://bifmo.history.ac.uk/entry/nurse-henry-1835-37","address":"Church st. Hackney","active":1845},"geometry":{"type":"Point","coordinates":[-0.055319,51.542109]}},{"@id":"https://w3id.org/locolligo/bifmo-post-1840post-1840_edited/7af4d27c-5d7a-4e85-bf85-de08433e366b","type":"Feature","properties":{"title":"Bradshaw, ","address":"17, Patriot Square, Cambridge Road, E","active":1871},"geometry":{"type":"Point","coordinates":[-0.055392,51.530711]}},{"@id":"https://w3id.org/locolligo/bifmo-post-1840post-1840_edited/5184b14f-3d54-4195-a143-26b6a78d1af6","type":"Feature","properties":{"title":"Hopkins, Richd. J. T.","url":"https://bifmo.history.ac.uk/entry/hopkins-richard-j-t-1871","address":"12 Patriot sq.Cambrdg.rd E","active":1871},"geometry":{"type":"Point","coordinates":[-0.055392,51.530711]}},{"@id":"https://w3id.org/locolligo/bifmo-post-1840post-1840_edited/c1bed7cd-5702-4315-9637-9ae9a4a1fb4b","type":"Feature","properties":{"title":"Butes, Fredk.","url":"https://bifmo.history.ac.uk/entry/butes-frederick-1871","address":"9 Sidney st. Mile end rd","active":1871},"geometry":{"type":"Point","coordinates":[-0.05563,51.515133]}},{"@id":"https://w3id.org/locolligo/bifmo-post-1840post-1840_edited/84b210db-18b5-46f3-90f3-2646bf3b1f8b","type":"Feature","properties":{"title":"Watl?n, William","url":"https://bifmo.history.ac.uk/entry/watlen-or-watlon-william-1871","address":"4 Prospect pl. Mile end","active":1871},"geometry":{"type":"Point","coordinates":[-0.056358,51.532756]}},{"@id":"https://w3id.org/locolligo/bifmo-post-1840post-1840_edited/9ba8f150-a882-4763-a98f-047870bde8b7","type":"Feature","properties":{"title":"Legge, John","url":"https://bifmo.history.ac.uk/entry/legge-john-1845","address":"8 Prospect pl. Kingslnd. Rd","active":1845},"geometry":{"type":"Point","coordinates":[-0.056358,51.532756]}},{"@id":"https://w3id.org/locolligo/bifmo-post-1840post-1840_edited/ba537ff3-760a-432e-bafb-aff04f4ff64c","type":"Feature","properties":{"title":"Miles, John","url":"https://bifmo.history.ac.uk/entry/miles-john-1839","address":"5 Pritchard's pl. Hackney fi","active":1845},"geometry":{"type":"Point","coordinates":[-0.056358,51.532756]}},{"@id":"https://w3id.org/locolligo/bifmo-post-1840post-1840_edited/f5820fa7-ba53-4283-9411-6228e14cdad9","type":"Feature","properties":{"title":"Warren , Joseph","address":"8 Prospect place, Cambridge rd E","active":1871},"geometry":{"type":"Point","coordinates":[-0.056358,51.532756]}},{"@id":"https://w3id.org/locolligo/bifmo-post-1840post-1840_edited/845ebf06-272f-4a57-a5dd-747cb20947eb","type":"Feature","properties":{"title":"Hume, Robert","url":"https://bifmo.history.ac.uk/entry/hume-robert-1808-40","address":"New Road, Rotherhithe, SE","active":1845},"geometry":{"type":"Point","coordinates":[-0.056654,51.489417]}},{"@id":"https://w3id.org/locolligo/bifmo-post-1840post-1840_edited/206bffe9-b8e3-4e75-adb9-9081bcf99319","type":"Feature","properties":{"title":"Goodlad & Lucas, ","url":"https://bifmo.history.ac.uk/entry/goodlad-lucas-1845","address":"76, New Street, Mile End, E","active":1845},"geometry":{"type":"Point","coordinates":[-0.056688,51.517309]}},{"@id":"https://w3id.org/locolligo/bifmo-post-1840post-1840_edited/69a8b60a-ebf4-4537-8676-ff962ef0a4e1","type":"Feature","properties":{"title":"Parsons, Geo.","url":"https://bifmo.history.ac.uk/entry/parsons-george-1871","address":"3 Charles st. St. Geo. Ea","active":1871},"geometry":{"type":"Point","coordinates":[-0.056723,51.513027]}},{"@id":"https://w3id.org/locolligo/bifmo-post-1840post-1840_edited/b5480313-3a02-4315-9c61-6cac989cdd74","type":"Feature","properties":{"title":"Hall, Henry Saml.","url":"https://bifmo.history.ac.uk/entry/hall-henry-samuel-1871","address":"86, Nelson Street, Comcl.rd.ea, E","active":1871},"geometry":{"type":"Point","coordinates":[-0.057029,51.515179]}},{"@id":"https://w3id.org/locolligo/bifmo-post-1840post-1840_edited/d4bd1cba-ef7b-4469-939b-cfddd1dc2d6d","type":"Feature","properties":{"title":"Davies, William","url":"https://bifmo.history.ac.uk/entry/davies-william-1845","address":"27 Mint st. Borough","active":1845},"geometry":{"type":"Point","coordinates":[-0.057104,51.524936]}},{"@id":"https://w3id.org/locolligo/bifmo-post-1840post-1840_edited/24b6da52-0c40-403c-9ffb-5923f544725f","type":"Feature","properties":{"title":"Johnstone & Jeanes, ","url":"https://bifmo.history.ac.uk/entry/johnstone-jupe-co-1835-1894","address":"182, Shadwell HIgh Street, E","active":1845},"geometry":{"type":"Point","coordinates":[-0.057365,51.509708]}},{"@id":"https://w3id.org/locolligo/bifmo-post-1840post-1840_edited/4639e9f3-ff25-4090-b067-bd792188a938","type":"Feature","properties":{"title":"Long, Henry","url":"https://bifmo.history.ac.uk/entry/long-henry-1845","address":"461, Bethnal Green Road, E","active":1845},"geometry":{"type":"Point","coordinates":[-0.057419,51.527459]}},{"@id":"https://w3id.org/locolligo/bifmo-post-1840post-1840_edited/875e36f7-919d-4303-a37b-7bb83f2f6825","type":"Feature","properties":{"title":"Lyons, John","url":"https://bifmo.history.ac.uk/entry/lyons-john-1871","address":"21 Princes sq. St. Geo. East","active":1871},"geometry":{"type":"Point","coordinates":[-0.057828,51.506595]}},{"@id":"https://w3id.org/locolligo/bifmo-post-1840post-1840_edited/4fc0f038-9df8-488f-85ba-eec847762f87","type":"Feature","properties":{"title":"Hill, Henry William","url":"https://bifmo.history.ac.uk/entry/hill-henry-william-1835-39","address":"69 Paradise st. Rotherhithe","active":1845},"geometry":{"type":"Point","coordinates":[-0.057945,51.499856]}},{"@id":"https://w3id.org/locolligo/bifmo-post-1840post-1840_edited/17b5f432-0792-4956-9b64-23632f3fe936","type":"Feature","properties":{"title":"Nay, Robert","address":"87 Old Gravel lane, Wapping","active":1871},"geometry":{"type":"Point","coordinates":[-0.057953,51.505457]}},{"@id":"https://w3id.org/locolligo/bifmo-post-1840post-1840_edited/fbd87d5d-3462-4f95-b978-1315739cd9d0","type":"Feature","properties":{"title":"Holland, William","url":"https://bifmo.history.ac.uk/entry/holland-sons","address":"57 Paradise st. Lambeth SE","active":1845},"geometry":{"type":"Point","coordinates":[-0.058131,51.49973]}},{"@id":"https://w3id.org/locolligo/bifmo-post-1840post-1840_edited/a3ecee50-9372-4b62-8644-3dccf0f88471","type":"Feature","properties":{"title":"Henderson, John","url":"https://bifmo.history.ac.uk/entry/henderson-john-1809-39","address":"101 Shadwell High street E","active":1845},"geometry":{"type":"Point","coordinates":[-0.058332,51.509613]}},{"@id":"https://w3id.org/locolligo/bifmo-post-1840post-1840_edited/9d1fe34e-4668-40d6-9af7-50077834e61f","type":"Feature","properties":{"title":"Gardner , John Henry","url":"https://bifmo.history.ac.uk/entry/gardner-john-henry-1871","address":"30 Paradise st. Rotherhi","active":1871},"geometry":{"type":"Point","coordinates":[-0.058461,51.499668]}},{"@id":"https://w3id.org/locolligo/bifmo-post-1840post-1840_edited/c98c8dff-72ae-4882-805b-61704419d274","type":"Feature","properties":{"title":"Raybould, Jas.","url":"https://bifmo.history.ac.uk/entry/raybould-james-1845","address":"15, Collingwood Street, Shoreditch, E","active":1845},"geometry":{"type":"Point","coordinates":[-0.058605,51.522223]}},{"@id":"https://w3id.org/locolligo/bifmo-post-1840post-1840_edited/f56c6a4b-9a6c-477e-b6c8-f74d512e5009","type":"Feature","properties":{"title":"Goodings, John","url":"https://bifmo.history.ac.uk/entry/goodings-john-1871","address":"21 North st. Whtchpl.rd","active":1871},"geometry":{"type":"Point","coordinates":[-0.058613,51.520445]}},{"@id":"https://w3id.org/locolligo/bifmo-post-1840post-1840_edited/5cde8ce7-ba85-45a4-902d-408a86346ea4","type":"Feature","properties":{"title":"Bryant, Glibbery J.","url":"https://bifmo.history.ac.uk/entry/bryant-glibbery-j-1871","address":"15, North Street, Whitechapel Road, E","active":1871},"geometry":{"type":"Point","coordinates":[-0.058647,51.5203]}},{"@id":"https://w3id.org/locolligo/bifmo-post-1840post-1840_edited/2918386b-cdfa-4ac6-9242-36e3aa33c134","type":"Feature","properties":{"title":"Downs, John","url":"https://bifmo.history.ac.uk/entry/downs-john-1845","address":"Ann street, Whitechapel E","active":1845},"geometry":{"type":"Point","coordinates":[-0.058735,51.512998]}},{"@id":"https://w3id.org/locolligo/bifmo-post-1840post-1840_edited/14cc15e8-68e4-45dd-97d6-67301e2e81d8","type":"Feature","properties":{"title":"Nation, S. ","url":"https://bifmo.history.ac.uk/entry/nation-samuel-1808-39","address":"33, Old Gravel Lane, Wapping, E","active":1845},"geometry":{"type":"Point","coordinates":[-0.058897,51.508221]}},{"@id":"https://w3id.org/locolligo/bifmo-post-1840post-1840_edited/3fddeabe-415c-4c37-9773-f5a7babb5053","type":"Feature","properties":{"title":"Foulkes, Fredk.","url":"https://bifmo.history.ac.uk/entry/foulkes-frederick-1871","address":"9 Mount street, Whitechapel E","active":1845},"geometry":{"type":"Point","coordinates":[-0.059085,51.518983]}},{"@id":"https://w3id.org/locolligo/bifmo-post-1840post-1840_edited/be1263ca-d388-4651-9c3d-f00df2661de9","type":"Feature","properties":{"title":"Botterill, William Alfred","url":"https://bifmo.history.ac.uk/entry/botterill-william-houghton-1840","address":"37 Northumberland place, Commercial road","active":1871},"geometry":{"type":"Point","coordinates":[-0.059215,51.514737]}},{"@id":"https://w3id.org/locolligo/bifmo-post-1840post-1840_edited/b3dd2a0e-894d-40ea-8b5d-f09f89a78d56","type":"Feature","properties":{"title":"Botting, William","url":"https://bifmo.history.ac.uk/entry/botting-william-1871","address":"37, Northumberland Place, Commercial Road East, E","active":1871},"geometry":{"type":"Point","coordinates":[-0.059215,51.514737]}},{"@id":"https://w3id.org/locolligo/bifmo-post-1840post-1840_edited/6d79f4d0-e5f7-4ed8-86be-1fec389791f0","type":"Feature","properties":{"title":"Hale, James","url":"https://bifmo.history.ac.uk/entry/hale-james-1871","address":"Hollybush Place, Bethnal Green Road, E","active":1871},"geometry":{"type":"Point","coordinates":[-0.05966,51.526751]}},{"@id":"https://w3id.org/locolligo/bifmo-post-1840post-1840_edited/f75ae390-2040-4766-b7e9-73f513ad4cbe","type":"Feature","properties":{"title":"Harrison, Hy.","url":"https://bifmo.history.ac.uk/node/add/entry","address":"5, Three Colt la., Cambridge Road, E","active":1871},"geometry":{"type":"Point","coordinates":[-0.059664,51.5245]}},{"@id":"https://w3id.org/locolligo/bifmo-post-1840post-1840_edited/134f7c8f-63d7-42f7-a58c-f4cf27cb89b0","type":"Feature","properties":{"title":"Burrell , Richard","url":"https://bifmo.history.ac.uk/entry/burrell-richard-1871","address":"4 Chapman's place, Dover road","active":1871},"geometry":{"type":"Point","coordinates":[-0.060047,51.511738]}},{"@id":"https://w3id.org/locolligo/bifmo-post-1840post-1840_edited/00ea6237-e3ac-4219-83b4-192ef370900f","type":"Feature","properties":{"title":"French, John","url":"https://bifmo.history.ac.uk/entry/french-john-1839","address":"23A,Temple st.St. Geo.’s rd SE","active":1871},"geometry":{"type":"Point","coordinates":[-0.060234,51.530237]}},{"@id":"https://w3id.org/locolligo/bifmo-post-1840post-1840_edited/293353e4-0394-4537-aa71-cd3a75a2be2a","type":"Feature","properties":{"title":"Barratt, John Charles","url":"https://bifmo.history.ac.uk/entry/barratt-john-charles-1845","address":"37.5, Henry Street, Hampstead Road, NW","active":1845},"geometry":{"type":"Point","coordinates":[-0.060417,51.612069]}},{"@id":"https://w3id.org/locolligo/bifmo-post-1840post-1840_edited/552b6cc6-42da-4cb3-94d8-b3796276c7c1","type":"Feature","properties":{"title":"Mowtell, Henry","url":"https://bifmo.history.ac.uk/entry/mowtell-henry-1871","address":"30 Henry st. Hampstd. Rd","active":1871},"geometry":{"type":"Point","coordinates":[-0.060458,51.611846]}},{"@id":"https://w3id.org/locolligo/bifmo-post-1840post-1840_edited/3ad4bfd8-48ca-426f-8b64-e5569b5cc3f4","type":"Feature","properties":{"title":"Wright , William","url":"https://bifmo.history.ac.uk/entry/wright-william-1871","address":"257 Whitechapel road","active":1871},"geometry":{"type":"Point","coordinates":[-0.060511,51.519211]}},{"@id":"https://w3id.org/locolligo/bifmo-post-1840post-1840_edited/04277b82-ac45-4412-b92f-d602aee49095","type":"Feature","properties":{"title":"Lund, Thomas","url":"https://bifmo.history.ac.uk/entry/lund-thomas-1819-39","address":"13 Lr. Chapmn.st. St. Geo. Ea","active":1845},"geometry":{"type":"Point","coordinates":[-0.060519,51.51296]}},{"@id":"https://w3id.org/locolligo/bifmo-post-1840post-1840_edited/381bfe46-87e1-4106-b1f1-1d32e77f3341","type":"Feature","properties":{"title":"Matthews, Chas. J.","url":"https://bifmo.history.ac.uk/entry/matthews-charles-j-1845-1871","address":"20 Temple st. Whitefriars","active":1871},"geometry":{"type":"Point","coordinates":[-0.060564,51.53079]}},{"@id":"https://w3id.org/locolligo/bifmo-post-1840post-1840_edited/aa9d4c7a-cbea-49ba-a42f-00bcaac5797a","type":"Feature","properties":{"title":"Asals, William","url":"https://bifmo.history.ac.uk/entry/asals-william-1845","address":"255 1/2 Whitechapel road","active":1845},"geometry":{"type":"Point","coordinates":[-0.060566,51.519199]}},{"@id":"https://w3id.org/locolligo/bifmo-post-1840post-1840_edited/8860de2f-ecd2-4c18-aaba-cb18ef292d13","type":"Feature","properties":{"title":"Miller, Daniel","url":"https://bifmo.history.ac.uk/entry/miller-daniel-1845","address":"383, Bethnal Green Road, E","active":1845},"geometry":{"type":"Point","coordinates":[-0.060658,51.526993]}},{"@id":"https://w3id.org/locolligo/bifmo-post-1840post-1840_edited/cfea1b23-8736-4901-af97-a905a646eb2d","type":"Feature","properties":{"title":"Player, J.","url":"https://bifmo.history.ac.uk/entry/player-j-1871","address":"375, Bethnal Green Road, EC","active":1871},"geometry":{"type":"Point","coordinates":[-0.060811,51.526989]}},{"@id":"https://w3id.org/locolligo/bifmo-post-1840post-1840_edited/d96edf12-682a-4745-93cd-bf9806ef4dcb","type":"Feature","properties":{"title":"Williams, William","url":"https://bifmo.history.ac.uk/entry/williams-william-1845","address":"12.5, Suffolk Street, Comrcl Road East, E","active":1845},"geometry":{"type":"Point","coordinates":[-0.06083,51.512558]}},{"@id":"https://w3id.org/locolligo/bifmo-post-1840post-1840_edited/323e3b4d-3fe2-48d3-b113-a46e8faf00eb","type":"Feature","properties":{"title":"Norman, Geo.","url":"https://bifmo.history.ac.uk/entry/norman-george-1871","address":"1 Lit. Turner st. Coml. Rd","active":1871},"geometry":{"type":"Point","coordinates":[-0.061098,51.514521]}},{"@id":"https://w3id.org/locolligo/bifmo-post-1840post-1840_edited/a0fa2602-b274-4634-a842-8b63c64a7165","type":"Feature","properties":{"title":"Bow, Charles","url":"https://bifmo.history.ac.uk/entry/bow-charles-1826-39","address":"Devonshire pl. Coml. Rd. ea","active":1845},"geometry":{"type":"Point","coordinates":[-0.061441,51.519549]}},{"@id":"https://w3id.org/locolligo/bifmo-post-1840post-1840_edited/94deb9b2-304b-45ea-bfa5-d3d44a35975f","type":"Feature","properties":{"title":"Bartlett, Job","url":"https://bifmo.history.ac.uk/entry/bartlett-job-1871","address":"229 Whitechapel road","active":1871},"geometry":{"type":"Point","coordinates":[-0.061513,51.518979]}},{"@id":"https://w3id.org/locolligo/bifmo-post-1840post-1840_edited/6c50106a-d23a-4275-8968-b43f5fc9e2e9","type":"Feature","properties":{"title":"Smith, Thomas Bruce","url":"https://bifmo.history.ac.uk/entry/smith-thomas-1835-39","address":"692 Old Kent road SE","active":1845},"geometry":{"type":"Point","coordinates":[-0.061542,51.481884]}},{"@id":"https://w3id.org/locolligo/bifmo-post-1840post-1840_edited/e8986268-0d56-4930-a98e-7d7ac1127f00","type":"Feature","properties":{"title":"Savage, Wm.","url":"https://bifmo.history.ac.uk/entry/savage-william-1871","address":"15 Hereford pl. Comml. Rd. ea","active":1871},"geometry":{"type":"Point","coordinates":[-0.061867,51.515201]}},{"@id":"https://w3id.org/locolligo/bifmo-post-1840post-1840_edited/3e532bfe-5b0b-415e-95ad-6a8170506c46","type":"Feature","properties":{"title":"Wingfield , Wm.","url":"https://bifmo.history.ac.uk/entry/wingfield-william-1871","address":"419 Hackney road E","active":1871},"geometry":{"type":"Point","coordinates":[-0.061937,51.5318]}},{"@id":"https://w3id.org/locolligo/bifmo-post-1840post-1840_edited/44bf0fe6-5303-45c0-860c-68f577e4093f","type":"Feature","properties":{"title":"Cannar, Adolph.","address":"217 Whitechapel rd","active":1871},"geometry":{"type":"Point","coordinates":[-0.061991,51.518876]}},{"@id":"https://w3id.org/locolligo/bifmo-post-1840post-1840_edited/64c2e593-9eff-458b-ba4d-c71e0c476647","type":"Feature","properties":{"title":"Blackman, Geo.","url":"https://bifmo.history.ac.uk/entry/blackman-george-1871-0","address":"1 Buck's row, Whitechl","active":1871},"geometry":{"type":"Point","coordinates":[-0.062002,51.519447]}},{"@id":"https://w3id.org/locolligo/bifmo-post-1840post-1840_edited/25de889b-eaec-4064-ae3a-a7c6bf486a05","type":"Feature","properties":{"title":"Nunn, William","url":"https://bifmo.history.ac.uk/entry/nunn-william-1838","address":"65, 66 & 67, St. George Street, E","active":1845},"geometry":{"type":"Point","coordinates":[-0.062008,51.509359]}},{"@id":"https://w3id.org/locolligo/bifmo-post-1840post-1840_edited/3c38bed5-e08a-4e9c-b10b-82f4a90af535","type":"Feature","properties":{"title":"Drake, James","url":"https://bifmo.history.ac.uk/entry/drake-james-1845","address":"31 Betts st. Ratcliff highwy","active":1845},"geometry":{"type":"Point","coordinates":[-0.062104,51.509552]}},{"@id":"https://w3id.org/locolligo/bifmo-post-1840post-1840_edited/a1a8438d-5769-430f-97e4-f96ea05a86d4","type":"Feature","properties":{"title":"Marshall, Alex","url":"https://bifmo.history.ac.uk/entry/marshall-alex-1845","address":"Mape Street, Bethnal Green Road, E","active":1845},"geometry":{"type":"Point","coordinates":[-0.062209,51.524633]}},{"@id":"https://w3id.org/locolligo/bifmo-post-1840post-1840_edited/f7b5cc26-2170-4da3-819e-0198f88f2185","type":"Feature","properties":{"title":"Coombes, Jas. ","url":"https://bifmo.history.ac.uk/entry/coombes-j-j-1839","address":"30 Wilmot st. Bethnal green rd E","active":1845},"geometry":{"type":"Point","coordinates":[-0.062316,51.528978]}},{"@id":"https://w3id.org/locolligo/bifmo-post-1840post-1840_edited/27da0eb9-e208-4299-ad1b-3a4c3ae778a7","type":"Feature","properties":{"title":"Lloyd, Jas. Fredk.","url":"https://bifmo.history.ac.uk/entry/lloyd-james-frederick-1871","address":"89, New Road, Whitechapel, E","active":1871},"geometry":{"type":"Point","coordinates":[-0.062573,51.517099]}},{"@id":"https://w3id.org/locolligo/bifmo-post-1840post-1840_edited/f77b5add-3e94-4740-8eef-a81ac8f61132","type":"Feature","properties":{"title":"Hildersley, Henry","url":"https://bifmo.history.ac.uk/entry/hildersley-henry-1871","address":"246 Whitechapel road","active":1871},"geometry":{"type":"Point","coordinates":[-0.062615,51.518454]}},{"@id":"https://w3id.org/locolligo/bifmo-post-1840post-1840_edited/d17b874c-b556-4387-acf4-77762f56400f","type":"Feature","properties":{"title":"Wolton, Henry","url":"https://bifmo.history.ac.uk/entry/wolton-henry-1845","address":"224 Whitechapel road","active":1845},"geometry":{"type":"Point","coordinates":[-0.062615,51.518454]}},{"@id":"https://w3id.org/locolligo/bifmo-post-1840post-1840_edited/9c70abf3-bdf5-4f06-898e-5abc5033d366","type":"Feature","properties":{"title":"Woodward, John","url":"https://bifmo.history.ac.uk/entry/woods-john-co-1845","address":"224, Whitechapel Road, E","active":1845},"geometry":{"type":"Point","coordinates":[-0.062615,51.518454]}},{"@id":"https://w3id.org/locolligo/bifmo-post-1840post-1840_edited/8d42d867-c382-45b3-87a1-212f22e1e3cc","type":"Feature","properties":{"title":"Ash, John","url":"https://bifmo.history.ac.uk/entry/ash-john-1871","address":"230 Whitechapel road","active":1871},"geometry":{"type":"Point","coordinates":[-0.062615,51.518454]}},{"@id":"https://w3id.org/locolligo/bifmo-post-1840post-1840_edited/bd06975d-dce8-405b-8f54-a7c1a570cf1d","type":"Feature","properties":{"title":"Beck, ","url":"https://bifmo.history.ac.uk/entry/beck-brothers","address":"15, Whitechapel Road, E","active":1871},"geometry":{"type":"Point","coordinates":[-0.062615,51.518454]}},{"@id":"https://w3id.org/locolligo/bifmo-post-1840post-1840_edited/f5d96736-3ef2-4b84-a065-43dad70ff531","type":"Feature","properties":{"title":"Beck, ","url":"https://bifmo.history.ac.uk/entry/beck-brothers","address":"15, Whitechapel Road, E","active":1871},"geometry":{"type":"Point","coordinates":[-0.062615,51.518454]}},{"@id":"https://w3id.org/locolligo/bifmo-post-1840post-1840_edited/815ef79a-6ae3-4ef6-9efe-8f2561008e20","type":"Feature","properties":{"title":"Budgen, Thomas","url":"https://bifmo.history.ac.uk/entry/budgen-thomas-1871","address":"66, Whitechapel Road, E","active":1871},"geometry":{"type":"Point","coordinates":[-0.062615,51.518454]}},{"@id":"https://w3id.org/locolligo/bifmo-post-1840post-1840_edited/67136257-8c78-424b-9323-93782c11775e","type":"Feature","properties":{"title":"Magnus, George Eugene","url":"https://bifmo.history.ac.uk/entry/magnus-g-e-son-1840-1871","address":"262 Whitechapel road E","active":1871},"geometry":{"type":"Point","coordinates":[-0.062615,51.518454]}},{"@id":"https://w3id.org/locolligo/bifmo-post-1840post-1840_edited/10a9630c-a08e-4fb8-8362-510e41355074","type":"Feature","properties":{"title":"Oetzmann, ","url":"https://bifmo.history.ac.uk/entry/oetzmann-co-1848-1930","address":"134, Whitechapel Road, E","active":1871},"geometry":{"type":"Point","coordinates":[-0.062615,51.518454]}},{"@id":"https://w3id.org/locolligo/bifmo-post-1840post-1840_edited/f1d1c767-4551-46d9-9aca-46a41475cedf","type":"Feature","properties":{"title":"Platt, William","url":"https://bifmo.history.ac.uk/entry/platt-william-1845-1871","address":"270 Whitechapel road","active":1871},"geometry":{"type":"Point","coordinates":[-0.062615,51.518454]}},{"@id":"https://w3id.org/locolligo/bifmo-post-1840post-1840_edited/17dea4c3-3b84-457b-9f79-3bbc2405945d","type":"Feature","properties":{"title":"Dujardin, Louis","url":"https://bifmo.history.ac.uk/entry/dujardin-louis-1871","address":"97New rd. WhitechaplE","active":1871},"geometry":{"type":"Point","coordinates":[-0.062632,51.517346]}},{"@id":"https://w3id.org/locolligo/bifmo-post-1840post-1840_edited/6b52f152-e132-431d-bd21-54ad3b3c9526","type":"Feature","properties":{"title":"Hornblow, T. Charles","url":"https://bifmo.history.ac.uk/entry/hornblower-t-charles-1845","address":"58, Morgan Street, Commrcl.rd.east, E","active":1845},"geometry":{"type":"Point","coordinates":[-0.062695,51.513472]}},{"@id":"https://w3id.org/locolligo/bifmo-post-1840post-1840_edited/9856f59c-ff35-41d4-942d-3b81154461cb","type":"Feature","properties":{"title":"Middlemore, John","url":"https://bifmo.history.ac.uk/entry/middlemore-john-1871","address":"32, Saml. Street, St. George’s ea, E","active":1871},"geometry":{"type":"Point","coordinates":[-0.062942,51.512289]}},{"@id":"https://w3id.org/locolligo/bifmo-post-1840post-1840_edited/5bfab223-cb8b-45ba-8c8d-4e6b85ef3393","type":"Feature","properties":{"title":"Griffin, Alfd. Thos.","url":"https://bifmo.history.ac.uk/entry/griffin-alfred-thomas-1871","address":"133 New rd. Whitechapel rd E","active":1871},"geometry":{"type":"Point","coordinates":[-0.062992,51.518257]}},{"@id":"https://w3id.org/locolligo/bifmo-post-1840post-1840_edited/fd8129b3-e6bd-4bae-9faa-e53b1604e0ac","type":"Feature","properties":{"title":"Bruford, Charles","url":"https://bifmo.history.ac.uk/entry/bruford-charles-1845","address":"387, Hackney Road, E","active":1845},"geometry":{"type":"Point","coordinates":[-0.063048,51.531767]}},{"@id":"https://w3id.org/locolligo/bifmo-post-1840post-1840_edited/25a75993-f608-426d-87ef-41cdc78f0ec8","type":"Feature","properties":{"title":"Pidsley, Thomas","url":"https://bifmo.history.ac.uk/entry/pidsley-thomas-1871","address":"39 Hague street, Bethnal green road E","active":1871},"geometry":{"type":"Point","coordinates":[-0.063086,51.526241]}},{"@id":"https://w3id.org/locolligo/bifmo-post-1840post-1840_edited/3f37360a-a983-4eae-8f95-71df54e55e47","type":"Feature","properties":{"title":"South, Henry","url":"https://bifmo.history.ac.uk/entry/south-henry-1871","address":"1, Old Bethnal Green Road, E","active":1871},"geometry":{"type":"Point","coordinates":[-0.063177,51.528731]}},{"@id":"https://w3id.org/locolligo/bifmo-post-1840post-1840_edited/9f156ad2-80c6-4ac1-890a-b5943c46fdb8","type":"Feature","properties":{"title":"Whytall, Thomas","url":"https://bifmo.history.ac.uk/entry/whytall-t-1839","address":"1, Old Bethnal Green Road, E","active":1845},"geometry":{"type":"Point","coordinates":[-0.063177,51.528731]}},{"@id":"https://w3id.org/locolligo/bifmo-post-1840post-1840_edited/94c2c369-dfbb-4c6a-bad3-e88f3b2a403f","type":"Feature","properties":{"title":"King, George Henry","url":"https://bifmo.history.ac.uk/entry/king-george-henry-1871","address":"126, Pennington Street, E","active":1871},"geometry":{"type":"Point","coordinates":[-0.06342,51.508735]}},{"@id":"https://w3id.org/locolligo/bifmo-post-1840post-1840_edited/7cec04e2-c79f-467c-8f9d-ba1e75ec1f5f","type":"Feature","properties":{"title":"King, James","url":"https://bifmo.history.ac.uk/entry/king-james-1835-39","address":"126, Pennington Street, E","active":1845},"geometry":{"type":"Point","coordinates":[-0.06342,51.508735]}},{"@id":"https://w3id.org/locolligo/bifmo-post-1840post-1840_edited/fe39cf6b-de1f-4720-b255-70afc8baeccb","type":"Feature","properties":{"title":"Forster, William","url":"https://bifmo.history.ac.uk/entry/forster-william-1839","address":"189 Whitechapel road","active":1871},"geometry":{"type":"Point","coordinates":[-0.063493,51.518524]}},{"@id":"https://w3id.org/locolligo/bifmo-post-1840post-1840_edited/8d9b880a-930d-464e-b1d6-d97fee914e76","type":"Feature","properties":{"title":"Pritchitt, Joseph","url":"https://bifmo.history.ac.uk/entry/pritchitt-joseph-1871","address":"4, Nottingham Place, Whitechapel, E","active":1871},"geometry":{"type":"Point","coordinates":[-0.063883,51.516787]}},{"@id":"https://w3id.org/locolligo/bifmo-post-1840post-1840_edited/52f0f40e-63ad-4a31-9c46-b1666fd11de5","type":"Feature","properties":{"title":"Mitchell, Chas. J.","address":"33, Christian st. St Geo.’s ea, E","active":1871},"geometry":{"type":"Point","coordinates":[-0.064095,51.511213]}},{"@id":"https://w3id.org/locolligo/bifmo-post-1840post-1840_edited/3cf26c57-6310-4537-9ac7-572309ebe1be","type":"Feature","properties":{"title":"Wells, William Jas.","url":"https://bifmo.history.ac.uk/entry/wells-william-james-1845","address":"4 Charles st. Mile end Nw rd","active":1845},"geometry":{"type":"Point","coordinates":[-0.064332,51.522703]}},{"@id":"https://w3id.org/locolligo/bifmo-post-1840post-1840_edited/86b24186-fc9c-4bfc-b05b-05c342635234","type":"Feature","properties":{"title":"Gammon, Charles","url":"https://bifmo.history.ac.uk/entry/gammon-charles-1845","address":"18 St. George street E","active":1845},"geometry":{"type":"Point","coordinates":[-0.064468,51.509317]}},{"@id":"https://w3id.org/locolligo/bifmo-post-1840post-1840_edited/ed34e41c-fd54-4b21-b1a8-db5b3a2dd810","type":"Feature","properties":{"title":"Hay, James","url":"https://bifmo.history.ac.uk/entry/hay-james-1871","address":"20, Squirries Street, Bethnal Green Road, E","active":1871},"geometry":{"type":"Point","coordinates":[-0.064721,51.526799]}},{"@id":"https://w3id.org/locolligo/bifmo-post-1840post-1840_edited/b609962e-bbf4-4a5d-a473-434d908dc325","type":"Feature","properties":{"title":"Clack, Henry","url":"https://bifmo.history.ac.uk/entry/clack-henry-1835-39","address":"29 Charlotte st. Shoreditch","active":1845},"geometry":{"type":"Point","coordinates":[-0.064798,51.517028]}},{"@id":"https://w3id.org/locolligo/bifmo-post-1840post-1840_edited/1e2d309f-8400-4279-ac61-376c73c1bce5","type":"Feature","properties":{"title":"Eyles, William","url":"https://bifmo.history.ac.uk/entry/eyles-william-1823-39","address":"9 Shadwell High Street","active":1845},"geometry":{"type":"Point","coordinates":[-0.065257,51.509258]}},{"@id":"https://w3id.org/locolligo/bifmo-post-1840post-1840_edited/de258bde-82f3-461c-a9f4-3e18c4967dad","type":"Feature","properties":{"title":"Emanuel, Simeon","url":"https://bifmo.history.ac.uk/entry/emmanuel-simeon-1871","address":"6, St. Mary Street, Whitechapel Road, E","active":1871},"geometry":{"type":"Point","coordinates":[-0.065427,51.51834]}},{"@id":"https://w3id.org/locolligo/bifmo-post-1840post-1840_edited/eae2fd8c-66ff-49ca-a99f-729d29189538","type":"Feature","properties":{"title":"Creed, Patrick","url":"https://bifmo.history.ac.uk/entry/creed-patrick-1871","address":"44 Henry st. Hampstead rd. ","active":1871},"geometry":{"type":"Point","coordinates":[-0.065763,51.610881]}},{"@id":"https://w3id.org/locolligo/bifmo-post-1840post-1840_edited/c305869d-228c-4290-a23a-60bcfc106c1c","type":"Feature","properties":{"title":"Broadwood, Wm.","url":"https://bifmo.history.ac.uk/entry/broadwood-william-1871","address":"155, Goldsmith’s Row, Hackney Road, E","active":1871},"geometry":{"type":"Point","coordinates":[-0.065776,51.533568]}},{"@id":"https://w3id.org/locolligo/bifmo-post-1840post-1840_edited/15d68cfa-80a7-4b27-aaed-3a778a07bfb9","type":"Feature","properties":{"title":"Clark, George","url":"https://bifmo.history.ac.uk/entry/clark-george-1871","address":"9 Goldsmith's row, Hackney rd","active":1871},"geometry":{"type":"Point","coordinates":[-0.065776,51.533568]}},{"@id":"https://w3id.org/locolligo/bifmo-post-1840post-1840_edited/1aa230c4-2158-4394-badd-9e0a7032d669","type":"Feature","properties":{"title":"Thorp, John","url":"https://bifmo.history.ac.uk/entry/thorp-john-1871","address":"20, Goldsmith’s Row, Hackny. rd, E","active":1871},"geometry":{"type":"Point","coordinates":[-0.065776,51.533568]}},{"@id":"https://w3id.org/locolligo/bifmo-post-1840post-1840_edited/2c90ce87-6b9f-4501-a659-105976ee33fb","type":"Feature","properties":{"title":"Tipping, Jas.","address":"34 Goldsmiths’ row, Hackny. rd E","active":1845},"geometry":{"type":"Point","coordinates":[-0.065776,51.533568]}},{"@id":"https://w3id.org/locolligo/bifmo-post-1840post-1840_edited/28fcee1a-3751-4f4d-ae57-b9176185fdc6","type":"Feature","properties":{"title":"Waits , Wm. Stephen","address":"5, Warner Place, Hackney Road, E","active":1871},"geometry":{"type":"Point","coordinates":[-0.065883,51.530984]}},{"@id":"https://w3id.org/locolligo/bifmo-post-1840post-1840_edited/5abac859-5669-476b-9581-b29bd02526d7","type":"Feature","properties":{"title":"Brand, Henry","url":"https://bifmo.history.ac.uk/entry/brand-henry-1871","address":"1 Plumber’s row, WhitechapelE","active":1871},"geometry":{"type":"Point","coordinates":[-0.066064,51.515574]}},{"@id":"https://w3id.org/locolligo/bifmo-post-1840post-1840_edited/93026f73-3b43-4030-8cc5-3255afc7a7e3","type":"Feature","properties":{"title":"Sparrow , ","url":"https://bifmo.history.ac.uk/entry/sparrow-james-18710","address":"1A, Abbey street, Bethnal green road E","active":1871},"geometry":{"type":"Point","coordinates":[-0.066096,51.526276]}},{"@id":"https://w3id.org/locolligo/bifmo-post-1840post-1840_edited/91542363-c738-4002-bafe-7b98ef627eee","type":"Feature","properties":{"title":"Sowter , George","address":"1A, Abbey street, Bethnal green road E","active":1871},"geometry":{"type":"Point","coordinates":[-0.066096,51.526276]}},{"@id":"https://w3id.org/locolligo/bifmo-post-1840post-1840_edited/ea6df1cd-5def-4fe3-9214-c3ddf2b582fc","type":"Feature","properties":{"title":"Langford, William","url":"https://bifmo.history.ac.uk/entry/langford-william-1845","address":"St. James’s Street, Old Kent Road, SE","active":1845},"geometry":{"type":"Point","coordinates":[-0.066179,51.484267]}},{"@id":"https://w3id.org/locolligo/bifmo-post-1840post-1840_edited/a14e721b-e612-493a-811a-56f374b9b5ba","type":"Feature","properties":{"title":"Cheesman, George","url":"https://bifmo.history.ac.uk/entry/cherry-william-1871","address":"71 Jamaica road SE","active":1845},"geometry":{"type":"Point","coordinates":[-0.066191,51.498019]}},{"@id":"https://w3id.org/locolligo/bifmo-post-1840post-1840_edited/03b56d72-83c7-4852-86f0-5f614fec899a","type":"Feature","properties":{"title":"Callow, George","url":"https://bifmo.history.ac.uk/entry/callow-george-1845-1871","address":"8 Abbey st. Bethnal grn. Rd","active":1871},"geometry":{"type":"Point","coordinates":[-0.066213,51.526035]}},{"@id":"https://w3id.org/locolligo/bifmo-post-1840post-1840_edited/89656710-9bd9-498a-b85b-3cac7e898cc4","type":"Feature","properties":{"title":"Bentall, William","url":"https://bifmo.history.ac.uk/entry/bentall-william-1845","address":"2 Greenfield st. Coml. Rd","active":1845},"geometry":{"type":"Point","coordinates":[-0.066473,51.515406]}},{"@id":"https://w3id.org/locolligo/bifmo-post-1840post-1840_edited/f496ff4e-4679-49d6-9b19-336cdaa4099d","type":"Feature","properties":{"title":"Birrell, A.","url":"https://bifmo.history.ac.uk/entry/birrell-a-1871","address":"2 Greenfield st. Whitechapel E","active":1871},"geometry":{"type":"Point","coordinates":[-0.066473,51.515406]}},{"@id":"https://w3id.org/locolligo/bifmo-post-1840post-1840_edited/b96bd878-6bc9-4468-8fbf-482ef50bd3ed","type":"Feature","properties":{"title":"Smith, Samuel","address":"27 Greenfield st. Whitechapel E","active":1871},"geometry":{"type":"Point","coordinates":[-0.066473,51.515406]}},{"@id":"https://w3id.org/locolligo/bifmo-post-1840post-1840_edited/285faf8a-b3e7-4700-9a4d-1dc37931ec71","type":"Feature","properties":{"title":"Harvey, ","url":"https://bifmo.history.ac.uk/entry/harvey-co-1845","address":"100 Back Church la. Whitechapel E","active":1845},"geometry":{"type":"Point","coordinates":[-0.066749,51.513733]}},{"@id":"https://w3id.org/locolligo/bifmo-post-1840post-1840_edited/fb695442-755c-4f38-a736-3a7bafefcf6b","type":"Feature","properties":{"title":"Jarvis, Beresford Jarvis","url":"https://bifmo.history.ac.uk/entry/jarvis-beresford-jarvis-1871","address":"153 Back Church lane E","active":1871},"geometry":{"type":"Point","coordinates":[-0.066774,51.514124]}},{"@id":"https://w3id.org/locolligo/bifmo-post-1840post-1840_edited/3832cfc3-cb4c-4ae0-98e2-9214b0752f25","type":"Feature","properties":{"title":"Bontor, ","url":"https://bifmo.history.ac.uk/entry/bontor-collins-1871","address":"7, Wood Street, Spafields, EC","active":1871},"geometry":{"type":"Point","coordinates":[-0.066835,51.524476]}},{"@id":"https://w3id.org/locolligo/bifmo-post-1840post-1840_edited/829c5bd4-848b-4e2e-9f9f-f893048b0239","type":"Feature","properties":{"title":"Fowler, Benjamin","url":"https://bifmo.history.ac.uk/entry/fowler-benjamin-1829-39","address":"7 Wood st. Spafields","active":1871},"geometry":{"type":"Point","coordinates":[-0.066835,51.524476]}},{"@id":"https://w3id.org/locolligo/bifmo-post-1840post-1840_edited/b257edbb-e37f-467f-acf3-03998eba7d55","type":"Feature","properties":{"title":"Garnder, Henry","url":"https://bifmo.history.ac.uk/entry/gardner-henry-1820-39","address":"14 Wood st. Cheapside","active":1845},"geometry":{"type":"Point","coordinates":[-0.066835,51.524476]}},{"@id":"https://w3id.org/locolligo/bifmo-post-1840post-1840_edited/976a9ebb-0f2d-4064-8445-45602fd6307d","type":"Feature","properties":{"title":"Ihlemann, Albert","url":"https://bifmo.history.ac.uk/entry/ihlemann-albert-1871","address":"7, Wood Street, Spafields, EC","active":1871},"geometry":{"type":"Point","coordinates":[-0.066835,51.524476]}},{"@id":"https://w3id.org/locolligo/bifmo-post-1840post-1840_edited/fe420a68-11e1-4a91-b150-cd447cab3a8f","type":"Feature","properties":{"title":"Rice, George","url":"https://bifmo.history.ac.uk/entry/rice-george-1845","address":"Wood Street, Old st. rd EC","active":1845},"geometry":{"type":"Point","coordinates":[-0.066835,51.524476]}},{"@id":"https://w3id.org/locolligo/bifmo-post-1840post-1840_edited/64d5bb08-7a34-480f-a54d-84df001b0125","type":"Feature","properties":{"title":"Sotje, Adolph","address":"124 Wood street EC","active":1871},"geometry":{"type":"Point","coordinates":[-0.066835,51.524476]}},{"@id":"https://w3id.org/locolligo/bifmo-post-1840post-1840_edited/18878344-0ec4-445c-b1ab-766c3f2c61d8","type":"Feature","properties":{"title":"Blackman, Thomas","url":"https://bifmo.history.ac.uk/entry/blackman-thomas-1845-1871","address":"101, Black Church Lane, E","active":1845},"geometry":{"type":"Point","coordinates":[-0.06691,51.511855]}},{"@id":"https://w3id.org/locolligo/bifmo-post-1840post-1840_edited/0f08c2e1-800a-46d4-9551-95b8c2eeca06","type":"Feature","properties":{"title":"Williams, George","address":"243 Bethnal green road E","active":1845},"geometry":{"type":"Point","coordinates":[-0.066929,51.526348]}},{"@id":"https://w3id.org/locolligo/bifmo-post-1840post-1840_edited/667dd220-dc85-40f0-b579-bedec2e9ca0a","type":"Feature","properties":{"title":"Dobinson, Michael","url":"https://bifmo.history.ac.uk/entry/dobinson-michael-1845-1","address":"262 Bethnal green rd","active":1871},"geometry":{"type":"Point","coordinates":[-0.066977,51.526068]}},{"@id":"https://w3id.org/locolligo/bifmo-post-1840post-1840_edited/c26040f5-3b15-4787-a0bd-af37d6b6bb4d","type":"Feature","properties":{"title":"Wheatland, George","url":"https://bifmo.history.ac.uk/entry/wheatland-george-1845","address":"22, Weaver Street, Bethnal Green, E","active":1845},"geometry":{"type":"Point","coordinates":[-0.06702,51.522685]}},{"@id":"https://w3id.org/locolligo/bifmo-post-1840post-1840_edited/2ec9c8cf-150a-49ee-bbc0-980524bf6d67","type":"Feature","properties":{"title":"Wharnsby, Henry","url":"https://bifmo.history.ac.uk/entry/wharnsby-henry-1871","address":"2, Mulberry Street, Comcl. Road East, E","active":1871},"geometry":{"type":"Point","coordinates":[-0.067164,51.516165]}},{"@id":"https://w3id.org/locolligo/bifmo-post-1840post-1840_edited/9881984c-64f4-450c-ba0b-6468cbb5be85","type":"Feature","properties":{"title":"Gumpel, Charles Godfrey","url":"https://bifmo.history.ac.uk/entry/gumpel-charles-godfrey-1871","address":"2 Deal st. Mile en. Nw.tn","active":1871},"geometry":{"type":"Point","coordinates":[-0.067374,51.520363]}},{"@id":"https://w3id.org/locolligo/bifmo-post-1840post-1840_edited/57c3f8ae-2e26-49b2-bacc-ee62faa767f1","type":"Feature","properties":{"title":"Taylor, Joshua","url":"https://bifmo.history.ac.uk/entry/taylor-joshua-1822-39","address":"1 Preston st. Mile end New tn E","active":1845},"geometry":{"type":"Point","coordinates":[-0.067418,51.518204]}},{"@id":"https://w3id.org/locolligo/bifmo-post-1840post-1840_edited/01ce4a40-58c0-44db-b690-daf18138c0a2","type":"Feature","properties":{"title":"Chignell, William","url":"https://bifmo.history.ac.uk/entry/chignell-william-1871","address":"227 Bethnal green road E","active":1871},"geometry":{"type":"Point","coordinates":[-0.067584,51.526228]}},{"@id":"https://w3id.org/locolligo/bifmo-post-1840post-1840_edited/82dbea9e-5168-4c69-9f47-ab4cf48d8edd","type":"Feature","properties":{"title":"Dunball, Robert Thos.","url":"https://bifmo.history.ac.uk/entry/dunball-robert-thomas-1871","address":"5Pelham st. Mile end New tn E","active":1871},"geometry":{"type":"Point","coordinates":[-0.06783,51.52065]}},{"@id":"https://w3id.org/locolligo/bifmo-post-1840post-1840_edited/8857e58a-d903-43f8-a506-d646797ed817","type":"Feature","properties":{"title":"Clarke, James","url":"https://bifmo.history.ac.uk/entry/clarke-james-1845","address":"1 Church rw. Bthnl.grn.rd","active":1845},"geometry":{"type":"Point","coordinates":[-0.067874,51.525518]}},{"@id":"https://w3id.org/locolligo/bifmo-post-1840post-1840_edited/e348eac9-b19a-4c47-af11-70d4d67b542b","type":"Feature","properties":{"title":"Hopkins, J. H.","url":"https://bifmo.history.ac.uk/entry/hopkins-john-william-1871","address":"21, Church Row, Bethnal Green Road, EC","active":1871},"geometry":{"type":"Point","coordinates":[-0.067874,51.525518]}},{"@id":"https://w3id.org/locolligo/bifmo-post-1840post-1840_edited/b5af009d-81e4-4128-b334-d580c42e5eef","type":"Feature","properties":{"title":"Savory, Bellamy","address":"24, Church Row, Bethnal Green Road, E","active":1845},"geometry":{"type":"Point","coordinates":[-0.067874,51.525518]}},{"@id":"https://w3id.org/locolligo/bifmo-post-1840post-1840_edited/4fb93f3f-103f-4c62-8e36-dfb9b6151f61","type":"Feature","properties":{"title":"Fitzpatrick , H.","url":"https://bifmo.history.ac.uk/entry/fitzpatrick-h","address":"271, Hackney Road, E","active":1871},"geometry":{"type":"Point","coordinates":[-0.068258,51.531208]}},{"@id":"https://w3id.org/locolligo/bifmo-post-1840post-1840_edited/968970b1-b410-4383-ad2e-effce4d40301","type":"Feature","properties":{"title":"Scott , John","url":"https://bifmo.history.ac.uk/entry/scott-james-junior-1871","address":"61 Fuller st. Bethnal green E","active":1871},"geometry":{"type":"Point","coordinates":[-0.068334,51.524057]}},{"@id":"https://w3id.org/locolligo/bifmo-post-1840post-1840_edited/8e22d16c-d69f-40cf-b215-4f7b6dff5861","type":"Feature","properties":{"title":"Loose, William","url":"https://bifmo.history.ac.uk/entry/loose-william-1871","address":"39 Fuller st. Bethnal green E","active":1871},"geometry":{"type":"Point","coordinates":[-0.068503,51.524806]}},{"@id":"https://w3id.org/locolligo/bifmo-post-1840post-1840_edited/8149d4d7-6e94-4bae-b199-175f22d0754c","type":"Feature","properties":{"title":"Hewitt, John","url":"https://bifmo.history.ac.uk/entry/hewitt-john-1871","address":"31 Fuller st. Bethnal green","active":1871},"geometry":{"type":"Point","coordinates":[-0.06853,51.524881]}},{"@id":"https://w3id.org/locolligo/bifmo-post-1840post-1840_edited/474ba5c1-25ee-4c44-a5e1-f1abb51ee038","type":"Feature","properties":{"title":"Wood, John","url":"https://bifmo.history.ac.uk/entry/wood-john-1871","address":"12, Turin Street, Bethnal Green Road, E","active":1871},"geometry":{"type":"Point","coordinates":[-0.068543,51.527302]}},{"@id":"https://w3id.org/locolligo/bifmo-post-1840post-1840_edited/c2f3b66b-11e3-4fdd-9b2f-27ca2731166a","type":"Feature","properties":{"title":"Mann, John","url":"https://bifmo.history.ac.uk/entry/mann-john-1871","address":"3 Cheshire st. Bethnal gr","active":1871},"geometry":{"type":"Point","coordinates":[-0.068608,51.523646]}},{"@id":"https://w3id.org/locolligo/bifmo-post-1840post-1840_edited/5c4597d1-9572-41d0-8759-e519ba52e2cb","type":"Feature","properties":{"title":"Scott, S.","url":"https://bifmo.history.ac.uk/entry/scott-s-mrs-1871","address":"60Cheshire st.Bethnal green E","active":1871},"geometry":{"type":"Point","coordinates":[-0.068608,51.523646]}},{"@id":"https://w3id.org/locolligo/bifmo-post-1840post-1840_edited/2f648f12-68ac-43c6-a3bf-7e1693c73ff5","type":"Feature","properties":{"title":"Kerr, Thomas","url":"https://bifmo.history.ac.uk/entry/kerr-thomas-1871","address":"5 York street, Shoreditch E","active":1871},"geometry":{"type":"Point","coordinates":[-0.068753,51.531547]}},{"@id":"https://w3id.org/locolligo/bifmo-post-1840post-1840_edited/5da18890-4f0b-4f99-b022-2af5b8d1de19","type":"Feature","properties":{"title":"Redshaw, E.","url":"https://bifmo.history.ac.uk/entry/redshaw-jos-1820-39","address":"4, York Street, Shoreditch, E","active":1845},"geometry":{"type":"Point","coordinates":[-0.068753,51.531547]}},{"@id":"https://w3id.org/locolligo/bifmo-post-1840post-1840_edited/3e9bd907-7742-49ea-9ac0-ca2c73fd8abc","type":"Feature","properties":{"title":"Hewett, William","url":"https://bifmo.history.ac.uk/entry/hewett-william-1829-39","address":"23 Fuller st. Bethnal gr","active":1845},"geometry":{"type":"Point","coordinates":[-0.068766,51.525574]}},{"@id":"https://w3id.org/locolligo/bifmo-post-1840post-1840_edited/dfc73270-16e0-45b3-9dd1-c00230b177ea","type":"Feature","properties":{"title":"Beale, James H. ","url":"https://bifmo.history.ac.uk/entry/beale-james-henry-1845-1871","address":"9 Fuller st. Bethnal green","active":1845},"geometry":{"type":"Point","coordinates":[-0.068779,51.52501]}},{"@id":"https://w3id.org/locolligo/bifmo-post-1840post-1840_edited/e94e9bd2-b824-4f9c-848a-be2eea256486","type":"Feature","properties":{"title":"Biggs, Robt. & Jsph.","url":"https://bifmo.history.ac.uk/entry/biggs-robert-joseph-1871-1886","address":"11, Pelham Street, Spitalfields, E","active":1871},"geometry":{"type":"Point","coordinates":[-0.068843,51.520534]}},{"@id":"https://w3id.org/locolligo/bifmo-post-1840post-1840_edited/5241d75f-90c4-438a-8164-0ead7720c1b8","type":"Feature","properties":{"title":"Worrall, Edward","address":"81 Leman st. Goodman's fi","active":1871},"geometry":{"type":"Point","coordinates":[-0.06914,51.512108]}},{"@id":"https://w3id.org/locolligo/bifmo-post-1840post-1840_edited/6df51d46-7f5f-420a-9e61-2764f05d26fb","type":"Feature","properties":{"title":"Beckett , John","url":"https://bifmo.history.ac.uk/entry/beckett-john-1871","address":"Size Yard, E","active":1871},"geometry":{"type":"Point","coordinates":[-0.069148,51.516632]}},{"@id":"https://w3id.org/locolligo/bifmo-post-1840post-1840_edited/d5a5223f-5b78-472a-902a-c34b2315a1ce","type":"Feature","properties":{"title":"Beck, ","url":"https://bifmo.history.ac.uk/entry/beck-brothers","address":"Size Yard, E","active":1871},"geometry":{"type":"Point","coordinates":[-0.069148,51.516632]}},{"@id":"https://w3id.org/locolligo/bifmo-post-1840post-1840_edited/264eea1d-8df5-4c87-83ff-f628d5927135","type":"Feature","properties":{"title":"Hornzee, George","url":"https://bifmo.history.ac.uk/entry/hornzee-george-1839","address":"34 Colchester st. Whitechapel E","active":1845},"geometry":{"type":"Point","coordinates":[-0.06927,51.515424]}},{"@id":"https://w3id.org/locolligo/bifmo-post-1840post-1840_edited/e4595409-406d-4dff-ac42-6c63f74fbcb3","type":"Feature","properties":{"title":"Horrell, Geo. T.","url":"https://bifmo.history.ac.uk/entry/horrell-co1886","address":"2 Colchester st. Whitechapel","active":1871},"geometry":{"type":"Point","coordinates":[-0.069345,51.515471]}},{"@id":"https://w3id.org/locolligo/bifmo-post-1840post-1840_edited/575a8854-158c-434b-a766-7525b17a7d10","type":"Feature","properties":{"title":"Pecqueur, L.","url":"https://bifmo.history.ac.uk/entry/pecqueur-l-1845","address":"16, Satchwell Rents, Bethnal Green Road, E","active":1845},"geometry":{"type":"Point","coordinates":[-0.069349,51.526053]}},{"@id":"https://w3id.org/locolligo/bifmo-post-1840post-1840_edited/407dbb98-c089-4302-b9d4-3351521def31","type":"Feature","properties":{"title":"Wooster, Jermh.","url":"https://bifmo.history.ac.uk/entry/wooster-jeremiah-1845","address":"95 Leman street E","active":1845},"geometry":{"type":"Point","coordinates":[-0.06936,51.512423]}},{"@id":"https://w3id.org/locolligo/bifmo-post-1840post-1840_edited/8165e70a-6e80-45e6-a4ae-31b3cf39ef59","type":"Feature","properties":{"title":"Palmer, John","url":"https://bifmo.history.ac.uk/entry/palmer-john-1845-1871","address":"13 Chamber st. Goodmn.fi","active":1871},"geometry":{"type":"Point","coordinates":[-0.06959,51.511237]}},{"@id":"https://w3id.org/locolligo/bifmo-post-1840post-1840_edited/5db74799-b7a6-45bd-8dba-6c640c278fd9","type":"Feature","properties":{"title":"Palmer , Thomas","url":"https://bifmo.history.ac.uk/entry/palmer-thomas-1871","address":"13, Chamber Street, Goodman’s flds, E","active":1871},"geometry":{"type":"Point","coordinates":[-0.06959,51.511237]}},{"@id":"https://w3id.org/locolligo/bifmo-post-1840post-1840_edited/6fdeb5a8-d37e-444f-9fbb-fe59c1043545","type":"Feature","properties":{"title":"Howard, John","url":"https://bifmo.history.ac.uk/entry/howard-john-1871","address":"34 Little Alie street","active":1871},"geometry":{"type":"Point","coordinates":[-0.069627,51.514358]}},{"@id":"https://w3id.org/locolligo/bifmo-post-1840post-1840_edited/6abfa25c-eb27-4ba0-a8f1-ee5b19a263d1","type":"Feature","properties":{"title":"Ficken, Hermann","url":"https://bifmo.history.ac.uk/entry/ficken-hermann-1871","address":"174 Bethnal green road E","active":1871},"geometry":{"type":"Point","coordinates":[-0.069866,51.525443]}},{"@id":"https://w3id.org/locolligo/bifmo-post-1840post-1840_edited/ae580d7c-71dd-40bc-8da0-baf055845aa5","type":"Feature","properties":{"title":"Gardiner, Wm. Ed.","address":"172 Bethnal gr. Rd","active":1871},"geometry":{"type":"Point","coordinates":[-0.06987,51.525439]}},{"@id":"https://w3id.org/locolligo/bifmo-post-1840post-1840_edited/b89959e6-c369-46d6-a33c-6ffa20896282","type":"Feature","properties":{"title":"Stephenson, William","url":"https://bifmo.history.ac.uk/entry/stephenson-william-1845","address":"8, Wellington Row, Bethnal Green, E","active":1845},"geometry":{"type":"Point","coordinates":[-0.069873,51.528298]}},{"@id":"https://w3id.org/locolligo/bifmo-post-1840post-1840_edited/d9144225-d813-4b26-8d1c-7068ff05f699","type":"Feature","properties":{"title":"Isard, William","url":"https://bifmo.history.ac.uk/entry/isard-william-co-1845","address":"59 Leman street E","active":1845},"geometry":{"type":"Point","coordinates":[-0.069908,51.513055]}},{"@id":"https://w3id.org/locolligo/bifmo-post-1840post-1840_edited/a1a71707-cd09-4633-b2ca-e0a75ea2ded4","type":"Feature","properties":{"title":"Edmonds, John","url":"https://bifmo.history.ac.uk/entry/edmonds-john-1835-39","address":"37 Great Cambridge street E","active":1845},"geometry":{"type":"Point","coordinates":[-0.069975,51.533817]}},{"@id":"https://w3id.org/locolligo/bifmo-post-1840post-1840_edited/b5eb2591-994d-4431-96d3-ff9e30baa1ad","type":"Feature","properties":{"title":"Grant, John","url":"https://bifmo.history.ac.uk/entry/grant-john-1822-39","address":"133 Gt. Cambridge st E","active":1845},"geometry":{"type":"Point","coordinates":[-0.069975,51.533817]}},{"@id":"https://w3id.org/locolligo/bifmo-post-1840post-1840_edited/56e825b7-192c-487a-8e91-1b78bdbb85d5","type":"Feature","properties":{"title":"Loton , Edward","url":"https://bifmo.history.ac.uk/entry/loton-edward-1871","address":"86, Great Cambridge Street, E","active":1871},"geometry":{"type":"Point","coordinates":[-0.069975,51.533817]}},{"@id":"https://w3id.org/locolligo/bifmo-post-1840post-1840_edited/4d4f581c-2197-4c8c-8655-ac2c4c98f42a","type":"Feature","properties":{"title":"Pain, George","url":"https://bifmo.history.ac.uk/entry/pain-george-1845","address":"163, Great Cambridge Street, E","active":1845},"geometry":{"type":"Point","coordinates":[-0.069975,51.533817]}},{"@id":"https://w3id.org/locolligo/bifmo-post-1840post-1840_edited/8986b1c9-d9dc-4495-83b4-018683145ee4","type":"Feature","properties":{"title":"Simmonds, Rd.","url":"https://bifmo.history.ac.uk/entry/simmonds-richard-1871","address":"61 Gt. Cambridge street, Hackney Fields","active":1871},"geometry":{"type":"Point","coordinates":[-0.069975,51.533817]}},{"@id":"https://w3id.org/locolligo/bifmo-post-1840post-1840_edited/4240b354-0937-444f-b45a-93437b0f5b3d","type":"Feature","properties":{"title":"Simmons, Edward Walter","address":"141 Great Cambridge stE","active":1871},"geometry":{"type":"Point","coordinates":[-0.069975,51.533817]}},{"@id":"https://w3id.org/locolligo/bifmo-post-1840post-1840_edited/9f526ab7-40ec-4dc6-ab8a-65efc96de64c","type":"Feature","properties":{"title":"Tyler, Joseph","url":"https://bifmo.history.ac.uk/entry/tyler-joseph-1815-39","address":"63 Gt. Cambridge st. Hack. Rd","active":1845},"geometry":{"type":"Point","coordinates":[-0.069975,51.533817]}},{"@id":"https://w3id.org/locolligo/bifmo-post-1840post-1840_edited/77cadc75-ba67-4027-92de-9fcff35bfde4","type":"Feature","properties":{"title":"Webb, John","url":"https://bifmo.history.ac.uk/entry/webb-john-1845","address":"28 James street, Bethnal green E","active":1845},"geometry":{"type":"Point","coordinates":[-0.070043,51.524953]}},{"@id":"https://w3id.org/locolligo/bifmo-post-1840post-1840_edited/781be3c2-5728-41ac-8d42-fe52e44b5cfd","type":"Feature","properties":{"title":"Hewitt, William","url":"https://bifmo.history.ac.uk/entry/hewitt-william-1871","address":"6 Wellington rw.Bethnal grn E","active":1871},"geometry":{"type":"Point","coordinates":[-0.070152,51.528166]}},