{"@id":"https://w3id.org/locolligo/BIFMO-post-1840","type":"FeatureCollection","features":[{"@id":"https://w3id.org/locolligo/BIFMO-post-1840/489d726f-0db4-4b76-b0fe-bee731981e79","properties":{"url":"https://bifmo.history.ac.uk/entry/gaskin-george-1871","title":"Gaskin, George","address":"15A, Queen Street, Oxford Street, W","active":1871},"geometry":{"coordinates":[-1.259267,51.751627]},"uuid":"489d726f-0db4-4b76-b0fe-bee731981e79"},{"@id":"https://w3id.org/locolligo/BIFMO-post-1840/1e79f1f5-925a-478f-962d-e4ac2db22e54","properties":{"title":"Wenman, John","address":"26 Wh. Hart. pl. Lo. Kenngtn. La","active":1871},"geometry":{"coordinates":[-0.39022,51.535793]},"uuid":"1e79f1f5-925a-478f-962d-e4ac2db22e54"},{"@id":"https://w3id.org/locolligo/BIFMO-post-1840/0565faf8-d803-4196-8663-4759dc41552e","properties":{"url":"https://bifmo.history.ac.uk/entry/stannard-robert-1871","title":"Stannard , Robert","address":"1 Vine pl. Old st. rd","active":1871},"geometry":{"coordinates":[-0.296056,51.508922]},"uuid":"0565faf8-d803-4196-8663-4759dc41552e"},{"@id":"https://w3id.org/locolligo/BIFMO-post-1840/698eefa6-e939-46bd-aef6-3d25aeb02b2d","properties":{"url":"https://bifmo.history.ac.uk/entry/ayres-thomas-1871","title":"Ayres, Thos.","address":"28 & 29, Great Bath Street, Clerkenwell, EC","active":1871},"geometry":{"coordinates":[-0.22036,51.523941]},"uuid":"698eefa6-e939-46bd-aef6-3d25aeb02b2d"},{"@id":"https://w3id.org/locolligo/BIFMO-post-1840/4ca0ef80-7966-4d85-a36c-da5ccc6679f1","properties":{"url":"https://bifmo.history.ac.uk/entry/ethridge-robert-co-1871","title":"Ethridge , Robert","address":"Blechynden Mews, Notting Hil, W","active":1871,"notes":"Road is no longer there, but would have been approximately here"},"geometry":{"coordinates":[-0.217357,51.514694]},"uuid":"4ca0ef80-7966-4d85-a36c-da5ccc6679f1"},{"@id":"https://w3id.org/locolligo/BIFMO-post-1840/bbf4b806-889f-42eb-b0eb-e8deddadc4ec","properties":{"url":"https://bifmo.history.ac.uk/entry/holmes-william-1871","title":"Holmes, William","address":"140, Portland Road, Notting Hill, W","active":1871},"geometry":{"coordinates":[-0.211127,51.511438]},"uuid":"bbf4b806-889f-42eb-b0eb-e8deddadc4ec"},{"@id":"https://w3id.org/locolligo/BIFMO-post-1840/2b96661a-7e20-4848-94fb-27d2c7f41814","properties":{"url":"https://bifmo.history.ac.uk/entry/smith-thomas-1835-39-0","title":"Smith, Thomas","address":"113, Clarendon Road, W","active":1845},"geometry":{"coordinates":[-0.211051,51.512366]},"uuid":"2b96661a-7e20-4848-94fb-27d2c7f41814"},{"@id":"https://w3id.org/locolligo/BIFMO-post-1840/7c373970-3d97-4e75-9583-1b8f2cab10fc","properties":{"url":"https://bifmo.history.ac.uk/entry/weedon-william-1845","title":"Weedon, William","address":"137, Clarendon Road, W","active":1845},"geometry":{"coordinates":[-0.209468,51.510449]},"uuid":"7c373970-3d97-4e75-9583-1b8f2cab10fc"},{"@id":"https://w3id.org/locolligo/BIFMO-post-1840/4b8535c7-dee6-48b4-88fb-b4338da87cc2","properties":{"url":"https://bifmo.history.ac.uk/entry/card-john-1845","title":"Card, John","address":"173&175, Clarendon Road, W","active":1845},"geometry":{"coordinates":[-0.209468,51.510449]},"uuid":"4b8535c7-dee6-48b4-88fb-b4338da87cc2"},{"@id":"https://w3id.org/locolligo/BIFMO-post-1840/94f14b1c-9c40-4e79-b181-7fdfba3c0638","properties":{"url":"https://bifmo.history.ac.uk/entry/dickens-william-1835-39","title":"Dickens, William","address":"119 Clarendon rd.Notting hill W","active":1845},"geometry":{"coordinates":[-0.209468,51.510449]},"uuid":"94f14b1c-9c40-4e79-b181-7fdfba3c0638"},{"@id":"https://w3id.org/locolligo/BIFMO-post-1840/45f240cf-52dc-4106-8fb0-d90e0c8fa125","properties":{"url":"https://bifmo.history.ac.uk/entry/rose-william-1871","title":"Rose, William","address":"47, Portland Road, W","active":1871},"geometry":{"coordinates":[-0.20896,51.508151]},"uuid":"45f240cf-52dc-4106-8fb0-d90e0c8fa125"},{"@id":"https://w3id.org/locolligo/BIFMO-post-1840/6faa6f88-6b7d-42cf-a0d9-e5bbe8268f29","properties":{"url":"https://bifmo.history.ac.uk/entry/hannah-george-1845","title":"Hannah, George","address":"2 Portland rd. Notting hill W","active":1845},"geometry":{"coordinates":[-0.208023,51.507079]},"uuid":"6faa6f88-6b7d-42cf-a0d9-e5bbe8268f29"},{"@id":"https://w3id.org/locolligo/BIFMO-post-1840/cb1ae1e8-654c-4074-a21f-2a8625cc4cc5","properties":{"url":"https://bifmo.history.ac.uk/entry/sutters-john-thomas-1871","title":"Sutters, Thomas Fergus","address":"5, Holland Road, Notting Hill, W","active":1871},"geometry":{"coordinates":[-0.206648,51.49679]},"uuid":"cb1ae1e8-654c-4074-a21f-2a8625cc4cc5"},{"@id":"https://w3id.org/locolligo/BIFMO-post-1840/dbbc33cc-30d2-4f2b-b998-57eee2127718","properties":{"url":"https://bifmo.history.ac.uk/entry/scott-james-junior-1871","title":"Scott , James, sen.","address":"41, Kensington Park Road, W","active":1871},"geometry":{"coordinates":[-0.206181,51.515831]},"uuid":"dbbc33cc-30d2-4f2b-b998-57eee2127718"},{"@id":"https://w3id.org/locolligo/BIFMO-post-1840/07a627b5-8e55-4f91-92e5-79f116e63fe7","properties":{"title":"Strugnell, Charles E. ","address":"35, Kensington pk. rd","active":1845},"geometry":{"coordinates":[-0.20595,51.515502]},"uuid":"07a627b5-8e55-4f91-92e5-79f116e63fe7"},{"@id":"https://w3id.org/locolligo/BIFMO-post-1840/2602423f-e5fa-4738-83ff-fd0f767b25aa","properties":{"url":"https://bifmo.history.ac.uk/entry/benson-jabez-91845","title":"Benson, Jabez","address":"10, Blenheim Crescent, W","active":1845},"geometry":{"coordinates":[-0.20569,51.515882]},"uuid":"2602423f-e5fa-4738-83ff-fd0f767b25aa"},{"@id":"https://w3id.org/locolligo/BIFMO-post-1840/a712b49f-da5c-4bb0-9b93-842a77c2a50d","properties":{"url":"https://bifmo.history.ac.uk/entry/cole-william-1835-39","title":"Cole, William","address":"13, Blenheim Crescent, Notting Hill, W","active":1845},"geometry":{"coordinates":[-0.205512,51.515679]},"uuid":"a712b49f-da5c-4bb0-9b93-842a77c2a50d"},{"@id":"https://w3id.org/locolligo/BIFMO-post-1840/697816bc-18fb-46e3-a215-049e906b25b6","properties":{"url":"https://bifmo.history.ac.uk/entry/turner-barr-1871-1886","title":"Turner, ","address":"4 Blenheim crescent W","active":1871},"geometry":{"coordinates":[-0.205429,51.515947]},"uuid":"697816bc-18fb-46e3-a215-049e906b25b6"},{"@id":"https://w3id.org/locolligo/BIFMO-post-1840/48198e8d-63fc-44c4-b26a-01fb1a6271a8","properties":{"url":"https://bifmo.history.ac.uk/entry/hudson-thomas-1839","title":"Hudson, Ths.","address":"195, Portobello Road, W","active":1871},"geometry":{"coordinates":[-0.205098,51.515796]},"uuid":"48198e8d-63fc-44c4-b26a-01fb1a6271a8"},{"@id":"https://w3id.org/locolligo/BIFMO-post-1840/74e20abb-2c01-4b37-a0bb-edad1f742469","properties":{"title":"Bacon, James","address":"31, Denbigh Place, Pimlico, SW","active":1845},"geometry":{"coordinates":[-0.20211,51.513559]},"uuid":"74e20abb-2c01-4b37-a0bb-edad1f742469"},{"@id":"https://w3id.org/locolligo/BIFMO-post-1840/79cf3133-a7c6-4651-9a96-05cf5bd58e77","properties":{"url":"https://bifmo.history.ac.uk/entry/bishop-henry-1845","title":"Bishop, Henry","address":"3, Holland Park Road, Kensington, W","active":1871},"geometry":{"coordinates":[-0.202094,51.498633]},"uuid":"79cf3133-a7c6-4651-9a96-05cf5bd58e77"},{"@id":"https://w3id.org/locolligo/BIFMO-post-1840/4aaa73bd-e3c8-4db4-b9b7-f9f3268946ff","properties":{"url":"https://bifmo.history.ac.uk/entry/harman-richard-1871","title":"Harman, Richd.","address":"30, Denbigh Street, Pimlico, SW","active":1871},"geometry":{"coordinates":[-0.20208,51.513619]},"uuid":"4aaa73bd-e3c8-4db4-b9b7-f9f3268946ff"},{"@id":"https://w3id.org/locolligo/BIFMO-post-1840/5e416910-3200-406f-a210-ce37c722b073","properties":{"url":"https://bifmo.history.ac.uk/entry/hebbard-george-1871","title":"Hebbard, George","address":"29, Denbigh Place, Pimlico, SW","active":1871},"geometry":{"coordinates":[-0.202002,51.513481]},"uuid":"5e416910-3200-406f-a210-ce37c722b073"},{"@id":"https://w3id.org/locolligo/BIFMO-post-1840/83597be7-77fa-4827-afe2-f29ae53a0517","properties":{"url":"https://bifmo.history.ac.uk/entry/jinkins-frederick-1871","title":"Jinkins, Fredk.","address":"4 Hope terrace, Notting hill W","active":1871},"geometry":{"coordinates":[-0.201137,51.508697]},"uuid":"83597be7-77fa-4827-afe2-f29ae53a0517"},{"@id":"https://w3id.org/locolligo/BIFMO-post-1840/e9d68704-5eb0-4960-85eb-9a0469e3a159","properties":{"url":"https://bifmo.history.ac.uk/entry/green-king-1871","title":"Green, ","address":"11, Denbigh ter., Notting Hill, W","active":1871},"geometry":{"coordinates":[-0.201056,51.513845]},"uuid":"e9d68704-5eb0-4960-85eb-9a0469e3a159"},{"@id":"https://w3id.org/locolligo/BIFMO-post-1840/8657e1ba-7b62-46c0-ac27-a656b6213714","properties":{"url":"https://bifmo.history.ac.uk/entry/galli-c-1871-1886","title":"Galli , Charles","address":"29, Lonsdale Road, Bayswater, W","active":1871},"geometry":{"coordinates":[-0.200673,51.515032]},"uuid":"8657e1ba-7b62-46c0-ac27-a656b6213714"},{"@id":"https://w3id.org/locolligo/BIFMO-post-1840/ddcf2a89-1fe6-4e16-a576-685ace366299","properties":{"url":"https://bifmo.history.ac.uk/entry/sprague-james-1871","title":"Sprague, James","address":"17, Lonsdale Road, Bayswater, W","active":1871},"geometry":{"coordinates":[-0.200163,51.515096]},"uuid":"ddcf2a89-1fe6-4e16-a576-685ace366299"},{"@id":"https://w3id.org/locolligo/BIFMO-post-1840/1df7a927-1f01-44f1-b153-b8b675f8dcff","properties":{"url":"https://bifmo.history.ac.uk/entry/bostelman-frederick-1871","title":"Bostelman, Frdk.","address":"137 & 139, High Street, Notting Hill, W","active":1871},"geometry":{"coordinates":[-0.199341,51.508494]},"uuid":"1df7a927-1f01-44f1-b153-b8b675f8dcff"},{"@id":"https://w3id.org/locolligo/BIFMO-post-1840/bf8d5196-0bc4-4ba4-a33a-40cbbff33996","properties":{"url":"https://bifmo.history.ac.uk/entry/woods-benjamin-1871","title":"Woodward, Benj.","address":"2 Westbourne pl. Pimlc","active":1871},"geometry":{"coordinates":[-0.199194,51.523275]},"uuid":"bf8d5196-0bc4-4ba4-a33a-40cbbff33996"},{"@id":"https://w3id.org/locolligo/BIFMO-post-1840/4786aea0-61e4-4844-82b5-75f98692e3ee","properties":{"url":"https://bifmo.history.ac.uk/entry/cook-george-henry-1871","title":"Cook, George Henry","address":"46 Ledbury road W","active":1871},"geometry":{"coordinates":[-0.199056,51.514375]},"uuid":"4786aea0-61e4-4844-82b5-75f98692e3ee"},{"@id":"https://w3id.org/locolligo/BIFMO-post-1840/a38015db-a312-42ad-83ce-9bc7ef7b1193","properties":{"title":"Stockham, ","address":"Mews, Portobello Road, W","active":1845},"geometry":{"coordinates":[-0.198396,51.511225]},"uuid":"a38015db-a312-42ad-83ce-9bc7ef7b1193"},{"@id":"https://w3id.org/locolligo/BIFMO-post-1840/bf2e7871-2d8d-422e-9f4b-9a3c2ba38251","properties":{"url":"https://bifmo.history.ac.uk/entry/bellworthy-john-1826-38","title":"Bellworthy, John","address":"5 Newland pl. Kensington","active":1845,"notes":"approx.; Newland Place was the southern side of Kensington High Street immediately to the east of Earl’s Court Road (cf. Goad 1887)"},"geometry":{"coordinates":[-0.198186,51.499166]},"uuid":"bf2e7871-2d8d-422e-9f4b-9a3c2ba38251"},{"@id":"https://w3id.org/locolligo/BIFMO-post-1840/b36e746c-72e6-4c87-b17b-7edc0f818e04","properties":{"url":"https://bifmo.history.ac.uk/entry/benda-brothers-1871","title":"Benda , ","address":"5 Newland pl. Kensgtn","active":1871,"notes":"approx.; Newland Place was the southern side of Kensington High Street immediately to the east of Earl’s Court Road (cf. Goad 1887)"},"geometry":{"coordinates":[-0.198186,51.499166]},"uuid":"b36e746c-72e6-4c87-b17b-7edc0f818e04"},{"@id":"https://w3id.org/locolligo/BIFMO-post-1840/9583052b-24b5-42ad-9dae-266d4eea1550","properties":{"url":"https://bifmo.history.ac.uk/entry/russell-william-1845","title":"Russell, William","address":"103 High st. Notting hill W","active":1845},"geometry":{"coordinates":[-0.198169,51.508558]},"uuid":"9583052b-24b5-42ad-9dae-266d4eea1550"},{"@id":"https://w3id.org/locolligo/BIFMO-post-1840/395e0fda-ef7f-4251-9b7a-572d9832f1ca","properties":{"title":"Mitchell, John","address":"34 Kensington pl. Kensington W","active":1871},"geometry":{"coordinates":[-0.197975,51.507376]},"uuid":"395e0fda-ef7f-4251-9b7a-572d9832f1ca"},{"@id":"https://w3id.org/locolligo/BIFMO-post-1840/e9bc89b9-353e-421d-b43b-33743dddef41","properties":{"url":"https://bifmo.history.ac.uk/entry/guiness-henry-thomas-1845","title":"Guiness, Henry Thomas","address":"71 Bedford gdns. Kensngtn W","active":1845},"geometry":{"coordinates":[-0.197285,51.505685]},"uuid":"e9bc89b9-353e-421d-b43b-33743dddef41"},{"@id":"https://w3id.org/locolligo/BIFMO-post-1840/e32f8862-2961-4dc9-9d12-17ab32c93781","properties":{"title":"Shoolbred, John","address":"5, Albert ter., Notting Hill, W","active":1871,"notes":"Now 'Pembridge Road'"},"geometry":{"coordinates":[-0.197146,51.509143]},"uuid":"e32f8862-2961-4dc9-9d12-17ab32c93781"},{"@id":"https://w3id.org/locolligo/BIFMO-post-1840/79191156-29c3-4cc3-8465-c009a312b238","properties":{"url":"https://bifmo.history.ac.uk/entry/haywood-isaac-co-1871","title":"Haywood, I.","address":"62, Norfolk Terrace, Bayswater, W","active":1871},"geometry":{"coordinates":[-0.197077,51.514792]},"uuid":"79191156-29c3-4cc3-8465-c009a312b238"},{"@id":"https://w3id.org/locolligo/BIFMO-post-1840/7e486d4d-6559-493d-b9a0-9d240218ca20","properties":{"url":"https://bifmo.history.ac.uk/entry/haywood-isaac-co-1871","title":"Haywood, Isaac","address":"60 & 62 Norfolk terrace, Bayswater W","active":1871},"geometry":{"coordinates":[-0.197077,51.514792]},"uuid":"7e486d4d-6559-493d-b9a0-9d240218ca20"},{"@id":"https://w3id.org/locolligo/BIFMO-post-1840/574dee64-489c-49f9-88d1-e3da2b800451","properties":{"url":"https://bifmo.history.ac.uk/entry/haywood-isaac-co-1871","title":"Haywood, Isaac","address":"60 & 62, Norfolk Terrace, Bayswater, W","active":1871},"geometry":{"coordinates":[-0.197077,51.514792]},"uuid":"574dee64-489c-49f9-88d1-e3da2b800451"},{"@id":"https://w3id.org/locolligo/BIFMO-post-1840/08cf1a59-42c5-4f2f-8f1f-744ac230cbc4","properties":{"url":"https://bifmo.history.ac.uk/entry/matthews-john-1845-1871","title":"Matthews, John","address":"98, Norfolk ter., Bayswater, W","active":1871},"geometry":{"coordinates":[-0.197077,51.514792]},"uuid":"08cf1a59-42c5-4f2f-8f1f-744ac230cbc4"},{"@id":"https://w3id.org/locolligo/BIFMO-post-1840/417c3820-46d9-4e8a-8a51-b6903a4da304","properties":{"url":"https://bifmo.history.ac.uk/entry/ramuz-alexander-1826-46","title":"Ramuz, Alexander","address":"12 Albert terrace, Notting hill W","active":1845,"notes":"Now 'Pembridge Road'"},"geometry":{"coordinates":[-0.196988,51.509459]},"uuid":"417c3820-46d9-4e8a-8a51-b6903a4da304"},{"@id":"https://w3id.org/locolligo/BIFMO-post-1840/1611111e-ffbb-4feb-a7b2-1f612dd92b66","properties":{"url":"https://bifmo.history.ac.uk/entry/lawrence-thomas-j-1871","title":"Lawrence , Geo. R.","address":"42, Uxbridge Street, Notting Hill, W","active":1871},"geometry":{"coordinates":[-0.196925,51.508837]},"uuid":"1611111e-ffbb-4feb-a7b2-1f612dd92b66"},{"@id":"https://w3id.org/locolligo/BIFMO-post-1840/13f05695-51f3-4949-9b65-52273c210282","properties":{"url":"https://bifmo.history.ac.uk/entry/turner-john-1845-1871","title":"Turner, John","address":"Grange place, Hoxton","active":1845},"geometry":{"coordinates":[-0.196294,51.541888]},"uuid":"13f05695-51f3-4949-9b65-52273c210282"},{"@id":"https://w3id.org/locolligo/BIFMO-post-1840/235d33db-a3ab-4f93-81e4-7a04369080e6","properties":{"url":"https://bifmo.history.ac.uk/entry/comfort-john-1835-39","title":"Comfort, J.","address":"10 Peel pl. Kensington grav","active":1845,"notes":"Street (probably) now known as Peel Street"},"geometry":{"coordinates":[-0.195438,51.507307]},"uuid":"235d33db-a3ab-4f93-81e4-7a04369080e6"},{"@id":"https://w3id.org/locolligo/BIFMO-post-1840/8ca53437-acac-471e-b59f-a2318787d0fa","properties":{"url":"https://bifmo.history.ac.uk/entry/mantle-thomas-1826-28","title":"Mantle, Thomas","address":"72 Gt. Suffolk street SE","active":1845},"geometry":{"coordinates":[-0.194965,51.471952]},"uuid":"8ca53437-acac-471e-b59f-a2318787d0fa"},{"@id":"https://w3id.org/locolligo/BIFMO-post-1840/f2041893-f86b-41e4-aedd-88ea16c0bdd9","properties":{"url":"https://bifmo.history.ac.uk/entry/terry-henry-1871","title":"Terry, Henry","address":"11 Gt. Suffolk st. Borough","active":1871},"geometry":{"coordinates":[-0.194965,51.471952]},"uuid":"f2041893-f86b-41e4-aedd-88ea16c0bdd9"},{"@id":"https://w3id.org/locolligo/BIFMO-post-1840/bf685968-c24c-4ae5-a9de-0a2760b92d5c","properties":{"title":"Wilson , Henry","address":"124 Gt. Suffolk st. Borough SE","active":1871},"geometry":{"coordinates":[-0.194965,51.471952]},"uuid":"bf685968-c24c-4ae5-a9de-0a2760b92d5c"},{"@id":"https://w3id.org/locolligo/BIFMO-post-1840/c77d72c9-10f6-4c3a-86d4-5381ff031002","properties":{"url":"https://bifmo.history.ac.uk/entry/bedword-william-alfred-1871","title":"Bedword , Wm. & Alfrd.","address":"5 Notting hill, High st.","active":1871},"geometry":{"coordinates":[-0.193005,51.509661]},"uuid":"c77d72c9-10f6-4c3a-86d4-5381ff031002"},{"@id":"https://w3id.org/locolligo/BIFMO-post-1840/b72460c4-f3c6-450e-a321-6e2aaea3ee22","properties":{"url":"https://bifmo.history.ac.uk/entry/carter-edward-junior-1845","title":"Carter, Edward junior","address":"Church walk, Holland st W","active":1845},"geometry":{"coordinates":[-0.192975,51.50306]},"uuid":"b72460c4-f3c6-450e-a321-6e2aaea3ee22"},{"@id":"https://w3id.org/locolligo/BIFMO-post-1840/e00a001b-b76b-4649-9137-b1b22b66ebd1","properties":{"url":"https://bifmo.history.ac.uk/entry/macneill-patrick-1871","title":"Macneill, Patrick","address":"Church wlk., Holland Street, Knsgtn, W","active":1871},"geometry":{"coordinates":[-0.192975,51.50306]},"uuid":"e00a001b-b76b-4649-9137-b1b22b66ebd1"},{"@id":"https://w3id.org/locolligo/BIFMO-post-1840/0fa1805f-4b83-4252-802b-bcfbe67865ff","properties":{"url":"https://bifmo.history.ac.uk/entry/bedford-james-1845","title":"Bedford, James","address":"5 High st. Notting hill","active":1845},"geometry":{"coordinates":[-0.192829,51.509905]},"uuid":"0fa1805f-4b83-4252-802b-bcfbe67865ff"},{"@id":"https://w3id.org/locolligo/BIFMO-post-1840/1eb265be-c972-4491-b54f-ea3d57f83529","properties":{"url":"https://bifmo.history.ac.uk/entry/hunt-horatio-n-1871","title":"Hunt, Horatio N.","address":"1 High street, Notting hill","active":1871},"geometry":{"coordinates":[-0.192658,51.509772]},"uuid":"1eb265be-c972-4491-b54f-ea3d57f83529"},{"@id":"https://w3id.org/locolligo/BIFMO-post-1840/1f02e432-fdb2-441c-97c7-36829dda7dbe","properties":{"url":"https://bifmo.history.ac.uk/entry/diller-d-j-1837-41","title":"Diller, David & John","address":"190 Wellington ter. Waterloo rd","active":1845},"geometry":{"coordinates":[-0.192602,51.509799]},"uuid":"1f02e432-fdb2-441c-97c7-36829dda7dbe"},{"@id":"https://w3id.org/locolligo/BIFMO-post-1840/f33e5ef1-99dc-4364-8fcb-94998a10f917","properties":{"url":"https://bifmo.history.ac.uk/entry/singleton-joseph-1871","title":"Singleton, Joseph","address":"16, Holland Street, Kensington, W","active":1871},"geometry":{"coordinates":[-0.192582,51.503222]},"uuid":"f33e5ef1-99dc-4364-8fcb-94998a10f917"},{"@id":"https://w3id.org/locolligo/BIFMO-post-1840/23fa4741-f325-4364-aec2-70e5c257da45","properties":{"url":"https://bifmo.history.ac.uk/entry/st-julien-cb-1845","title":"St. Julien, C. B.","address":"4, Wellington ter.BayswatrW","active":1845},"geometry":{"coordinates":[-0.192517,51.509975]},"uuid":"23fa4741-f325-4364-aec2-70e5c257da45"},{"@id":"https://w3id.org/locolligo/BIFMO-post-1840/0d8bb7ef-1a64-4e51-a76d-f82d5cda40fd","properties":{"url":"https://bifmo.history.ac.uk/entry/anns-henry-1871","title":"Anns, Henry","address":"12 Holland st. Kensington W","active":1871},"geometry":{"coordinates":[-0.192412,51.503241]},"uuid":"0d8bb7ef-1a64-4e51-a76d-f82d5cda40fd"},{"@id":"https://w3id.org/locolligo/BIFMO-post-1840/86e0a62f-85df-4731-ac00-be0e69274a91","properties":{"url":"https://bifmo.history.ac.uk/entry/mitchell-frederick-1845-1871","title":"Mitchell , Fredk.","address":"4 Holland pl. Kensgtn","active":1871},"geometry":{"coordinates":[-0.192101,51.503421]},"uuid":"86e0a62f-85df-4731-ac00-be0e69274a91"},{"@id":"https://w3id.org/locolligo/BIFMO-post-1840/0238a6ba-1acd-46ae-8903-fdd2b3eac832","properties":{"url":"https://bifmo.history.ac.uk/entry/mitchell-henry-1845","title":"Mitchell, Henry","address":"4 Holland pl. Kensington W","active":1871},"geometry":{"coordinates":[-0.192101,51.503421]},"uuid":"0238a6ba-1acd-46ae-8903-fdd2b3eac832"},{"@id":"https://w3id.org/locolligo/BIFMO-post-1840/83aa989d-8d98-46fb-914d-adbf80429780","properties":{"url":"https://bifmo.history.ac.uk/entry/fox-john-1845-1871","title":"Fox, John","address":"16 Holland pl. Clapham rd","active":1845},"geometry":{"coordinates":[-0.192041,51.50337]},"uuid":"83aa989d-8d98-46fb-914d-adbf80429780"},{"@id":"https://w3id.org/locolligo/BIFMO-post-1840/d3bbe94a-14e2-4897-a8b9-fa6061e3a66e","properties":{"url":"https://bifmo.history.ac.uk/entry/haywood-isaac-co-1871","title":"Haywood, Isaac","address":"60 & 62 Norfolk terrace, Bayswater W","active":1871,"notes":"* Now 'Westbourne Grove'"},"geometry":{"coordinates":[-0.192016,51.515526]},"uuid":"d3bbe94a-14e2-4897-a8b9-fa6061e3a66e"},{"@id":"https://w3id.org/locolligo/BIFMO-post-1840/3793f5f7-ba38-46b5-9042-5e1bf2759bc9","properties":{"url":"https://bifmo.history.ac.uk/entry/lawson-thomas-1871","title":"Lawson , Thos.","address":"36, High Street, Kensington, W","active":1871},"geometry":{"coordinates":[-0.189419,51.502493]},"uuid":"3793f5f7-ba38-46b5-9042-5e1bf2759bc9"},{"@id":"https://w3id.org/locolligo/BIFMO-post-1840/f79bc1de-4135-4a8e-baec-abdc74e42f80","properties":{"url":"https://bifmo.history.ac.uk/entry/chick-thomas-1839","title":"Chick, Thomas","address":"3 Mornington rd. Rgt's pk","active":1871,"notes":"Street not known as Mortimer Crescent and Mortimer Place."},"geometry":{"coordinates":[-0.188595,51.537984]},"uuid":"f79bc1de-4135-4a8e-baec-abdc74e42f80"},{"@id":"https://w3id.org/locolligo/BIFMO-post-1840/017a5f65-f785-41c7-988b-762aeb82d7e3","properties":{"title":"Timbrell , Samuel","address":"2 Seymour rw. Lit. Chels","active":1871,"notes":"Approximate location, plotted with information from British History Online: Survey of London"},"geometry":{"coordinates":[-0.188527,51.480666]},"uuid":"017a5f65-f785-41c7-988b-762aeb82d7e3"},{"@id":"https://w3id.org/locolligo/BIFMO-post-1840/0145facb-911a-4728-b93d-5633d1e467bc","properties":{"url":"https://bifmo.history.ac.uk/entry/colbourne-james-1871","title":"Colbourne, Jas.","address":"19, Kensington High Street, W","active":1871},"geometry":{"coordinates":[-0.188336,51.502248]},"uuid":"0145facb-911a-4728-b93d-5633d1e467bc"},{"@id":"https://w3id.org/locolligo/BIFMO-post-1840/425d0ff8-0a23-4ab7-b9d3-99e156c80772","properties":{"url":"https://bifmo.history.ac.uk/entry/coldwell-robert-1839","title":"Coldwell, Robert","address":"19 Kensington High street W","active":1845},"geometry":{"coordinates":[-0.188336,51.502248]},"uuid":"425d0ff8-0a23-4ab7-b9d3-99e156c80772"},{"@id":"https://w3id.org/locolligo/BIFMO-post-1840/2675fe8a-7bdb-4fdd-b86e-039d6edabe59","properties":{"url":"https://bifmo.history.ac.uk/entry/day-theophls-1845","title":"Day, Theophls","address":"4, Kensington High Street, W","active":1845},"geometry":{"coordinates":[-0.187963,51.502389]},"uuid":"2675fe8a-7bdb-4fdd-b86e-039d6edabe59"},{"@id":"https://w3id.org/locolligo/BIFMO-post-1840/690a5d99-f70b-44ee-952c-d4ca1bc2848d","properties":{"url":"https://bifmo.history.ac.uk/entry/handy-samuel-1845","title":"Handy, Samuel","address":"8, Mortimer Road, N","active":1845,"notes":"Street not known as Mortimer Crescent and Mortimer Place."},"geometry":{"coordinates":[-0.187951,51.53769]},"uuid":"690a5d99-f70b-44ee-952c-d4ca1bc2848d"},{"@id":"https://w3id.org/locolligo/BIFMO-post-1840/9731be98-c2e1-4aa8-aec3-05ca759a5a3b","properties":{"url":"https://bifmo.history.ac.uk/entry/birks-charles-1871","title":"Birks , Charles","address":"95 Queen’s rd.Bayswater W","active":1871,"notes":"Street now known as Queensway"},"geometry":{"coordinates":[-0.187743,51.51262]},"uuid":"9731be98-c2e1-4aa8-aec3-05ca759a5a3b"},{"@id":"https://w3id.org/locolligo/BIFMO-post-1840/cc7875f8-5be8-4804-9e29-262a434bdc86","properties":{"url":"https://bifmo.history.ac.uk/entry/cummins-j-1845","title":"Cummins, J.","address":"59 Queen’s rd.BayswaterW","active":1845,"notes":"Street now known as Queensway"},"geometry":{"coordinates":[-0.187703,51.512041]},"uuid":"cc7875f8-5be8-4804-9e29-262a434bdc86"},{"@id":"https://w3id.org/locolligo/BIFMO-post-1840/e69cfcb1-0258-4064-a0d7-7ade4cdd228a","properties":{"url":"https://bifmo.history.ac.uk/entry/fuller-james-1835-39","title":"Fuller, James","address":"39, Queen’s Road, Bayswater, W","active":1845,"notes":"Street now known as Queensway"},"geometry":{"coordinates":[-0.187538,51.511453]},"uuid":"e69cfcb1-0258-4064-a0d7-7ade4cdd228a"},{"@id":"https://w3id.org/locolligo/BIFMO-post-1840/33a18174-4869-428e-8372-c67b1c926dec","properties":{"title":"Thompson, George","address":"35, Queen’s Road, Notting Hill, W","active":1845,"notes":"Street (probably) now known as Queensway, query as Queensway is referenced as Queen's Road, Bayswater in same directory.  "},"geometry":{"coordinates":[-0.18741,51.511431]},"uuid":"33a18174-4869-428e-8372-c67b1c926dec"},{"@id":"https://w3id.org/locolligo/BIFMO-post-1840/a7dae8a5-51f9-4e17-a337-0be171236f8d","properties":{"title":"Mead , Joseph","address":"25 Queen’s road, Bayswater W","active":1871,"notes":"Street now known as Queensway"},"geometry":{"coordinates":[-0.187318,51.511157]},"uuid":"a7dae8a5-51f9-4e17-a337-0be171236f8d"},{"@id":"https://w3id.org/locolligo/BIFMO-post-1840/92168b4f-9a7a-4fda-88a2-b5fc7b504c12","properties":{"url":"https://bifmo.history.ac.uk/entry/robbins-edward-1845","title":"Robbins, Edward","address":"22 Queen’s rd.BayswtrW","active":1845,"notes":"Street now known as Queensway"},"geometry":{"coordinates":[-0.187149,51.511141]},"uuid":"92168b4f-9a7a-4fda-88a2-b5fc7b504c12"},{"@id":"https://w3id.org/locolligo/BIFMO-post-1840/e8cbe833-a89d-47c0-9993-8ac06edee96d","properties":{"title":"Burr, R","address":"19, Inverness Road, Bayswater, W","active":1871,"notes":"also for hire "},"geometry":{"coordinates":[-0.186364,51.511565]},"uuid":"e8cbe833-a89d-47c0-9993-8ac06edee96d"},{"@id":"https://w3id.org/locolligo/BIFMO-post-1840/58434563-e8cb-4f93-9341-d50b01aab056","properties":{"title":"Burr, R","address":"19 Inverness road W","active":1871},"geometry":{"coordinates":[-0.186364,51.511565]},"uuid":"58434563-e8cb-4f93-9341-d50b01aab056"},{"@id":"https://w3id.org/locolligo/BIFMO-post-1840/6b2fb09a-4e57-48f9-b681-6838334ffb2a","properties":{"title":"Burr, R","address":"19Invrnss.rd W","active":1871},"geometry":{"coordinates":[-0.186364,51.511565]},"uuid":"6b2fb09a-4e57-48f9-b681-6838334ffb2a"},{"@id":"https://w3id.org/locolligo/BIFMO-post-1840/6559f722-7c04-42ac-9b13-9447802ae391","properties":{"title":"Burr, R.","address":"19, Inverness Road, W","active":1871},"geometry":{"coordinates":[-0.186364,51.511565]},"uuid":"6559f722-7c04-42ac-9b13-9447802ae391"},{"@id":"https://w3id.org/locolligo/BIFMO-post-1840/a1f569e9-cddb-4b56-a94f-0255f3454892","properties":{"url":"https://bifmo.history.ac.uk/entry/levasseur-l-1871-1886","title":"Levasseur, Louis","address":"20A, Inverness Road, W","active":1871},"geometry":{"coordinates":[-0.185814,51.511461]},"uuid":"a1f569e9-cddb-4b56-a94f-0255f3454892"},{"@id":"https://w3id.org/locolligo/BIFMO-post-1840/58515ffe-d5fb-43d7-81f3-d8ba12d18e16","properties":{"url":"https://bifmo.history.ac.uk/entry/calver-william-samuel-1871","title":"Calver, Wm. Samuel","address":"7, Harrow Road, Paddington, W","active":1871,"notes":-0.1714368},"geometry":{"coordinates":[-0.18527,51.514548]},"uuid":"58515ffe-d5fb-43d7-81f3-d8ba12d18e16"},{"@id":"https://w3id.org/locolligo/BIFMO-post-1840/a14b2781-f3ed-41dc-ac45-494a0ba829c2","properties":{"url":"https://bifmo.history.ac.uk/entry/grossetete-armand-1871","title":"Grossetete, Armand","address":"4, Hanover Place, Regent’s Park, NW","active":1871},"geometry":{"coordinates":[-0.18527,51.514548]},"uuid":"a14b2781-f3ed-41dc-ac45-494a0ba829c2"},{"@id":"https://w3id.org/locolligo/BIFMO-post-1840/aaed2ff6-7772-434b-9288-375ac74720d1","properties":{"title":"Moore, William","address":"25 Hart st. Bloomsbury","active":1845,"notes":-0.1251787},"geometry":{"coordinates":[-0.18527,51.514548]},"uuid":"aaed2ff6-7772-434b-9288-375ac74720d1"},{"@id":"https://w3id.org/locolligo/BIFMO-post-1840/5a4b65e6-9bb5-411c-9bd4-23b03ec1cd04","properties":{"url":"https://bifmo.history.ac.uk/entry/sams-j-j-1835-39","title":"Sams, John","address":"4 Hanover pl. Rgt's. pk. rd","active":1845},"geometry":{"coordinates":[-0.18527,51.514548]},"uuid":"5a4b65e6-9bb5-411c-9bd4-23b03ec1cd04"},{"@id":"https://w3id.org/locolligo/BIFMO-post-1840/4630e063-f4b6-4306-bed2-b393d08a6f71","properties":{"url":"https://bifmo.history.ac.uk/entry/merrick-george-1823-39","title":"Merrick, George","address":"116, Boundary Road, NW","active":1845},"geometry":{"coordinates":[-0.18356,51.538444]},"uuid":"4630e063-f4b6-4306-bed2-b393d08a6f71"},{"@id":"https://w3id.org/locolligo/BIFMO-post-1840/7f34e326-7854-4e00-8eac-1d188c1c30be","properties":{"url":"https://bifmo.history.ac.uk/entry/herring-william-1871","title":"Herring, William","address":"30, Leinster Terrace, W","active":1871,"notes":"Not on Goad or Horwood, used OS 40s-60s but could have been different numbering in 19th century"},"geometry":{"coordinates":[-0.183243,51.511929]},"uuid":"7f34e326-7854-4e00-8eac-1d188c1c30be"},{"@id":"https://w3id.org/locolligo/BIFMO-post-1840/2dd42436-affd-40be-b1de-238c0fab02ab","properties":{"url":"https://bifmo.history.ac.uk/entry/blackman-george-1871-0","title":"Blackman, George","address":"3, Albert ter., Bishop’s Road, W","active":1871,"notes":"Approximate location, Bishops Road now Bishop's Bridge Road."},"geometry":{"coordinates":[-0.18309,51.517279]},"uuid":"2dd42436-affd-40be-b1de-238c0fab02ab"},{"@id":"https://w3id.org/locolligo/BIFMO-post-1840/d4a6f061-0cda-421a-a825-bfd1c253b198","properties":{"url":"https://bifmo.history.ac.uk/entry/bagshaw-edward-1871","title":"Bagshaw, Edward","address":"97 Boundary road NW","active":1871},"geometry":{"coordinates":[-0.182788,51.538711]},"uuid":"d4a6f061-0cda-421a-a825-bfd1c253b198"},{"@id":"https://w3id.org/locolligo/BIFMO-post-1840/f6bab395-6c8e-4d79-bf57-545e6be15308","properties":{"url":"https://bifmo.history.ac.uk/entry/taylor-james-1871","title":"Taylor, James","address":"393, Fulham Road, SW","active":1871,"notes":"Current Fulham Road numbering, not in the Layers maps"},"geometry":{"coordinates":[-0.182346,51.48495]},"uuid":"f6bab395-6c8e-4d79-bf57-545e6be15308"},{"@id":"https://w3id.org/locolligo/BIFMO-post-1840/f686e016-ec43-4cf2-a3ef-9e3062ffc785","properties":{"url":"https://bifmo.history.ac.uk/entry/teague-joseph-1871","title":"Teague , Joseph","address":"6 Odell place, Little Chelsea","active":1871},"geometry":{"coordinates":[-0.182066,51.485301]},"uuid":"f686e016-ec43-4cf2-a3ef-9e3062ffc785"},{"@id":"https://w3id.org/locolligo/BIFMO-post-1840/781a8620-b6b2-466c-b5a1-6c0c3da686ad","properties":{"title":"Burr, R","address":"8 & 10 Bishop’s road, Paddington W","active":1871,"notes":"Now 'Bishop's Bridge Road'"},"geometry":{"coordinates":[-0.182016,51.51753]},"uuid":"781a8620-b6b2-466c-b5a1-6c0c3da686ad"},{"@id":"https://w3id.org/locolligo/BIFMO-post-1840/d8e6d9a6-ed10-4b3f-8681-9e9ecad638ec","properties":{"title":"Burr, R","address":"8 & 10, Bishop’s Road, Paddington, W","active":1871,"notes":"Now 'Bishop's Bridge Road'"},"geometry":{"coordinates":[-0.182016,51.51753]},"uuid":"d8e6d9a6-ed10-4b3f-8681-9e9ecad638ec"},{"@id":"https://w3id.org/locolligo/BIFMO-post-1840/937a9be2-5fb6-4049-a9e1-153540f59d74","properties":{"title":"Burr, R.","address":"8&10 Bishop’s rd. Paddington W","active":1871,"notes":"Now 'Bishop's Bridge Road'"},"geometry":{"coordinates":[-0.182016,51.51753]},"uuid":"937a9be2-5fb6-4049-a9e1-153540f59d74"},{"@id":"https://w3id.org/locolligo/BIFMO-post-1840/ff821891-978c-49ba-b9e2-ecd201ab86e9","properties":{"url":"https://bifmo.history.ac.uk/entry/burr-robert-1829-39","title":"Burr, Robert","address":"8 to 10, Bishop’s Road, W","active":1845,"notes":"Now 'Bishop's Bridge Road'"},"geometry":{"coordinates":[-0.182016,51.51753]},"uuid":"ff821891-978c-49ba-b9e2-ecd201ab86e9"},{"@id":"https://w3id.org/locolligo/BIFMO-post-1840/144c2e1d-7a64-4e9e-9736-07f48812288d","properties":{"url":"https://bifmo.history.ac.uk/entry/timothy-david-1827-35","title":"Timothy, David","address":"216 Fulham road SW","active":1845,"notes":"Current Fulham Road numbering, not in the Layers maps"},"geometry":{"coordinates":[-0.181906,51.485519]},"uuid":"144c2e1d-7a64-4e9e-9736-07f48812288d"},{"@id":"https://w3id.org/locolligo/BIFMO-post-1840/f194d56e-56e4-4bfb-9d35-2bf1a38c2714","properties":{"url":"https://bifmo.history.ac.uk/entry/jackson-joseph-1871","title":"Jackson, Joseph","address":"5, Violet Hill, St. John’s Wood, NW","active":1871},"geometry":{"coordinates":[-0.181343,51.532877]},"uuid":"f194d56e-56e4-4bfb-9d35-2bf1a38c2714"},{"@id":"https://w3id.org/locolligo/BIFMO-post-1840/92bb1321-465c-4145-b5b0-444c7a9237d2","properties":{"url":"https://bifmo.history.ac.uk/entry/mote-edward-1835-39","title":"Mote, Edward","address":"12 Park ter. King's rd. Chls","active":1845,"notes":"Street lost, plotted with information from British History Online: Survey of London"},"geometry":{"coordinates":[-0.180268,51.485035]},"uuid":"92bb1321-465c-4145-b5b0-444c7a9237d2"},{"@id":"https://w3id.org/locolligo/BIFMO-post-1840/ba052870-5b3b-4dd0-94a6-2522c3a25a6e","properties":{"url":"https://bifmo.history.ac.uk/entry/cubitt-thomas-riches-1845","title":"Cubitt, Thomas Riches","address":"5, Craven ter., Bayswater, W","active":1845},"geometry":{"coordinates":[-0.179382,51.513357]},"uuid":"ba052870-5b3b-4dd0-94a6-2522c3a25a6e"},{"@id":"https://w3id.org/locolligo/BIFMO-post-1840/8b8e916b-a255-4d97-8322-8018940c5156","properties":{"url":"https://bifmo.history.ac.uk/entry/reynolds-henry-1823-28","title":"Reynolds, Henry","address":"41 Craven rd.Westbrn. ter W","active":1845},"geometry":{"coordinates":[-0.179326,51.513975]},"uuid":"8b8e916b-a255-4d97-8322-8018940c5156"},{"@id":"https://w3id.org/locolligo/BIFMO-post-1840/ff66931b-63c5-4ae8-990f-a85363a5555d","properties":{"url":"https://bifmo.history.ac.uk/entry/cotsford-edward-j-1871","title":"Cotsford, Edward J.","address":"5, Thistle Grove, West Brompton, SW","active":1871},"geometry":{"coordinates":[-0.179236,51.487877]},"uuid":"ff66931b-63c5-4ae8-990f-a85363a5555d"},{"@id":"https://w3id.org/locolligo/BIFMO-post-1840/126effa3-5597-4304-970d-a2e556df7b6e","properties":{"url":"https://bifmo.history.ac.uk/entry/foster-william-1871","title":"Foster, Wm.","address":"19A, Hall park, Edgw. Rd","active":1871},"geometry":{"coordinates":[-0.178809,51.523555]},"uuid":"126effa3-5597-4304-970d-a2e556df7b6e"},{"@id":"https://w3id.org/locolligo/BIFMO-post-1840/3c7654b5-2dbc-47e1-95c3-32afd744ef51","properties":{"title":"Bower, Charles","address":"20, Craven ter., Bayswater, W","active":1871},"geometry":{"coordinates":[-0.178708,51.512738]},"uuid":"3c7654b5-2dbc-47e1-95c3-32afd744ef51"},{"@id":"https://w3id.org/locolligo/BIFMO-post-1840/a005e294-6e19-406f-8db1-8b3433274f2d","properties":{"url":"https://bifmo.history.ac.uk/entry/powell-thomas-1845","title":"Powell, Thomas","address":"5, Mansfield Place, Kentish Town, NW","active":1845},"geometry":{"coordinates":[-0.177795,51.558203]},"uuid":"a005e294-6e19-406f-8db1-8b3433274f2d"},{"@id":"https://w3id.org/locolligo/BIFMO-post-1840/5593258d-a9bf-46cd-af87-258df3aefd13","properties":{"url":"https://bifmo.history.ac.uk/entry/lloyd-william-1839","title":"Lloyd, William","address":"35, Westbourne ter. north, W","active":1845},"geometry":{"coordinates":[-0.177482,51.51478]},"uuid":"5593258d-a9bf-46cd-af87-258df3aefd13"},{"@id":"https://w3id.org/locolligo/BIFMO-post-1840/688412fb-8721-4a2f-bc6f-79962188eaeb","properties":{"url":"https://bifmo.history.ac.uk/entry/tett-william-f-1845","title":"Tett, William F.","address":"80 Park walk, Chelsea SW","active":1845},"geometry":{"coordinates":[-0.177456,51.484027]},"uuid":"688412fb-8721-4a2f-bc6f-79962188eaeb"},{"@id":"https://w3id.org/locolligo/BIFMO-post-1840/33f2ee49-3bad-4dd3-bec7-08d8702c27f1","properties":{"url":"https://bifmo.history.ac.uk/entry/crichton-john-1871","title":"Crichton, John","address":"2 High st. Newington butts, & 1 Marlboro' pl. Walworth rd","active":1871},"geometry":{"coordinates":[-0.177185,51.535783]},"uuid":"33f2ee49-3bad-4dd3-bec7-08d8702c27f1"},{"@id":"https://w3id.org/locolligo/BIFMO-post-1840/f8eff261-c24a-488d-9a7c-556262682236","properties":{"url":"https://bifmo.history.ac.uk/entry/griffiths-griffith-1820-39","title":"Griffiths, Griffith","address":"125, Hall pl., Paddington grn, W","active":1871},"geometry":{"coordinates":[-0.176154,51.52306]},"uuid":"f8eff261-c24a-488d-9a7c-556262682236"},{"@id":"https://w3id.org/locolligo/BIFMO-post-1840/36f2989f-6692-4a27-9880-ea10b3c432ec","properties":{"url":"https://bifmo.history.ac.uk/entry/dent-joseph-1871","title":"Dent, Joseph","address":"17 Spring st. Portman sq","active":1871,"notes":"now called St. Helena Street, https://www.maps.thehunthouse.com/Streets/Old_to_New_Abolished_London_Street_Names.htm#S"},"geometry":{"coordinates":[-0.176067,51.515002]},"uuid":"36f2989f-6692-4a27-9880-ea10b3c432ec"},{"@id":"https://w3id.org/locolligo/BIFMO-post-1840/a1114222-0cbf-48ce-a0d7-1a572326f269","properties":{"url":"https://bifmo.history.ac.uk/entry/moxey-james-1871","title":"Moxey, James","address":"114, Fulham Road, SW","active":1871,"notes":"Current Fulham Road numbering, not in the Layers maps"},"geometry":{"coordinates":[-0.176056,51.489344]},"uuid":"a1114222-0cbf-48ce-a0d7-1a572326f269"},{"@id":"https://w3id.org/locolligo/BIFMO-post-1840/3fc25d00-0481-4261-9a2a-9ae26e1dd621","properties":{"url":"https://bifmo.history.ac.uk/entry/bragg-william-1845-1871","title":"Bragg, William","address":"21 Spring st. Marylebn","active":1871},"geometry":{"coordinates":[-0.176018,51.515144]},"uuid":"3fc25d00-0481-4261-9a2a-9ae26e1dd621"},{"@id":"https://w3id.org/locolligo/BIFMO-post-1840/0742d2fc-729a-443d-8e4c-e02965d1f31e","properties":{"url":"https://bifmo.history.ac.uk/entry/moffatt-william-1871","title":"Moffatt, William","address":"14, Westbourne Street, SW","active":1871},"geometry":{"coordinates":[-0.175411,51.512849]},"uuid":"0742d2fc-729a-443d-8e4c-e02965d1f31e"},{"@id":"https://w3id.org/locolligo/BIFMO-post-1840/c75b1bb5-fdb1-42e6-b01f-f1cfac60c47b","properties":{"url":"https://bifmo.history.ac.uk/entry/watson-george-1814-35","title":"Watson, George","address":"42 Spring st. Paddington","active":1845,"notes":"now called Panton Street, https://www.maps.thehunthouse.com/Streets/Old_to_New_Abolished_London_Street_Names.htm#S"},"geometry":{"coordinates":[-0.175214,51.514423]},"uuid":"c75b1bb5-fdb1-42e6-b01f-f1cfac60c47b"},{"@id":"https://w3id.org/locolligo/BIFMO-post-1840/67196b15-e69c-4f3d-9ab2-0395c6f1b7cc","properties":{"url":"https://bifmo.history.ac.uk/entry/sweet-frederic-1871","title":"Sweet , Frederic","address":"35 North Whf. Rd. Pdngtn","active":1871},"geometry":{"coordinates":[-0.175084,51.518578]},"uuid":"67196b15-e69c-4f3d-9ab2-0395c6f1b7cc"},{"@id":"https://w3id.org/locolligo/BIFMO-post-1840/312faef6-6c66-472f-a465-6010ac9ae01f","properties":{"url":"https://bifmo.history.ac.uk/entry/purdon-thomas-1845","title":"Purdon, Thomas","address":"80, Fulham Road, SW","active":1845,"notes":"Current Fulham Road numbering, not in the Layers maps"},"geometry":{"coordinates":[-0.174747,51.490171]},"uuid":"312faef6-6c66-472f-a465-6010ac9ae01f"},{"@id":"https://w3id.org/locolligo/BIFMO-post-1840/972e40a8-23a5-43c7-84f5-76bb0300dfac","properties":{"title":"Peacock , James","address":"9.5, King’s College Road, Hampstd., NW","active":1871},"geometry":{"coordinates":[-0.174167,51.541248]},"uuid":"972e40a8-23a5-43c7-84f5-76bb0300dfac"},{"@id":"https://w3id.org/locolligo/BIFMO-post-1840/e967ef27-76d1-4475-a62e-c230e4927e23","properties":{"url":"https://bifmo.history.ac.uk/entry/maxey-william-1845","title":"Maxey, William","address":"209, Fulham Road, SW","active":1845,"notes":"Current Fulham Road numbering, not in the Layers maps"},"geometry":{"coordinates":[-0.173438,51.490627]},"uuid":"e967ef27-76d1-4475-a62e-c230e4927e23"},{"@id":"https://w3id.org/locolligo/BIFMO-post-1840/3797d2ae-20ac-4781-a286-435255c3d187","properties":{"url":"https://bifmo.history.ac.uk/entry/foulkes-frederick-1871","title":"Foulkes , Fredk.","address":"123 Praed st. Paddington","active":1871},"geometry":{"coordinates":[-0.1734,51.516774]},"uuid":"3797d2ae-20ac-4781-a286-435255c3d187"},{"@id":"https://w3id.org/locolligo/BIFMO-post-1840/797dd5c9-2903-4534-befc-a7e7aaa7fc32","properties":{"url":"https://bifmo.history.ac.uk/entry/addis-thomas-1845","title":"Addis, Thomas","address":"31 Portman pl. Edgware rd","active":1845,"notes":"Street lost, plotted using Lockie's Topography of London (1810)"},"geometry":{"coordinates":[-0.173074,51.521679]},"uuid":"797dd5c9-2903-4534-befc-a7e7aaa7fc32"},{"@id":"https://w3id.org/locolligo/BIFMO-post-1840/41ac7c2d-2a4b-4014-9096-8b2425c937cc","properties":{"url":"https://bifmo.history.ac.uk/entry/clark-w-sons-1871","title":"Clark, W.","address":"20 Portman pl. Edgware rd","active":1871,"notes":"Street lost, plotted using Lockie's Topography of London (1810)"},"geometry":{"coordinates":[-0.172698,51.521826]},"uuid":"41ac7c2d-2a4b-4014-9096-8b2425c937cc"},{"@id":"https://w3id.org/locolligo/BIFMO-post-1840/d3d55308-a7ac-4c51-8424-f923fed4f62e","properties":{"url":"https://bifmo.history.ac.uk/entry/moss-saul-1810-1892","title":"Moss, Saul","address":"187, Fulham Road, SW","active":1871,"notes":"Current Fulham Road numbering, not in the Layers maps"},"geometry":{"coordinates":[-0.172325,51.491376]},"uuid":"d3d55308-a7ac-4c51-8424-f923fed4f62e"},{"@id":"https://w3id.org/locolligo/BIFMO-post-1840/9a748973-e94a-401a-8380-f2159a50ab2f","properties":{"url":"https://bifmo.history.ac.uk/entry/metcalf-charles-1845","title":"Metcalf, Charles","address":"253, King’s Road, Chelsea, SW","active":1845},"geometry":{"coordinates":[-0.171951,51.48607]},"uuid":"9a748973-e94a-401a-8380-f2159a50ab2f"},{"@id":"https://w3id.org/locolligo/BIFMO-post-1840/c30ea59b-ae48-400b-a2f7-91f378d28759","properties":{"url":"https://bifmo.history.ac.uk/entry/baker-thomas-1839-0","title":"Baker, T. ","address":"121, Church Street, Lisson Grove, NW","active":1845},"geometry":{"coordinates":[-0.171909,51.522232]},"uuid":"c30ea59b-ae48-400b-a2f7-91f378d28759"},{"@id":"https://w3id.org/locolligo/BIFMO-post-1840/137d566d-30bb-4abc-b51f-6b5fb715fd3c","properties":{"title":"Schade, Andrew F. ","address":"173, Fulham Road, SW","active":1845,"notes":"Current Fulham Road numbering, not in the Layers maps"},"geometry":{"coordinates":[-0.171847,51.491667]},"uuid":"137d566d-30bb-4abc-b51f-6b5fb715fd3c"},{"@id":"https://w3id.org/locolligo/BIFMO-post-1840/5dcfc67e-20ed-402e-a912-96ef74a71a08","properties":{"url":"https://bifmo.history.ac.uk/entry/townshend-mary-ann-mrs-1845","title":"Townshend, Mary Ann","address":"5 Market street, Edgware rd W","active":1845,"notes":"Street lost, approximate location, street demolished in 20th century, location mapped using Report of the Medical Officer of Health for St. Marylebone, Metropolitan Borough, 1930. "},"geometry":{"coordinates":[-0.171831,51.523133]},"uuid":"5dcfc67e-20ed-402e-a912-96ef74a71a08"},{"@id":"https://w3id.org/locolligo/BIFMO-post-1840/b491c06d-5390-4487-9d72-6fa33d33973f","properties":{"url":"https://bifmo.history.ac.uk/entry/larking-samuel-1871","title":"Larking, Samuel","address":"13, Stewart’s Grove, Fulham Road, DW","active":1871},"geometry":{"coordinates":[-0.171801,51.490851]},"uuid":"b491c06d-5390-4487-9d72-6fa33d33973f"},{"@id":"https://w3id.org/locolligo/BIFMO-post-1840/fa867dba-7276-4d93-bcdf-f797df5ef213","properties":{"url":"https://bifmo.history.ac.uk/entry/whitaker-joseph-1845","title":"Whitaker, Joseph","address":"9 to 15, Milner’s Mews, Edgware Road, W","active":1845,"notes":"Street lost, approximate location, street demolished in 20th century, location mapped using Report of the Medical Officer of Health for St. Marylebone, Metropolitan Borough, 1930. "},"geometry":{"coordinates":[-0.171606,51.522506]},"uuid":"fa867dba-7276-4d93-bcdf-f797df5ef213"},{"@id":"https://w3id.org/locolligo/BIFMO-post-1840/74ba1fc5-998c-4e4a-ad07-663f8eaaf944","properties":{"url":"https://bifmo.history.ac.uk/entry/rothwell-james-1871","title":"Rothwell, Jas.","address":"95, High Street, St. John’s Wood, NW","active":1871},"geometry":{"coordinates":[-0.171382,51.533885]},"uuid":"74ba1fc5-998c-4e4a-ad07-663f8eaaf944"},{"@id":"https://w3id.org/locolligo/BIFMO-post-1840/fe05e5dd-2a49-4fa1-8839-3a5a6ebd8358","properties":{"url":"https://bifmo.history.ac.uk/entry/deeker-james-w-s-1871","title":"Deeker, Jas. W. S.","address":"30 Praed street, Paddington W","active":1871},"geometry":{"coordinates":[-0.17136,51.518075]},"uuid":"fe05e5dd-2a49-4fa1-8839-3a5a6ebd8358"},{"@id":"https://w3id.org/locolligo/BIFMO-post-1840/2cc5ad8c-9622-476c-bc85-e0da89dc687d","properties":{"url":"https://bifmo.history.ac.uk/entry/pearson-john-1820-39","title":"Pearson, John","address":"77 High st. St. John’s wood NW","active":1845},"geometry":{"coordinates":[-0.171327,51.53385]},"uuid":"2cc5ad8c-9622-476c-bc85-e0da89dc687d"},{"@id":"https://w3id.org/locolligo/BIFMO-post-1840/d079cc92-2766-42d5-a42b-4ab2a1203d83","properties":{"url":"https://bifmo.history.ac.uk/entry/elliott-h-mrs-1871","title":"Elliot, H.","address":"97, Church Street, Edgware Road, NW","active":1871},"geometry":{"coordinates":[-0.171239,51.522588]},"uuid":"d079cc92-2766-42d5-a42b-4ab2a1203d83"},{"@id":"https://w3id.org/locolligo/BIFMO-post-1840/1aa23380-c160-4c8c-9a48-b52b74379e94","properties":{"url":"https://bifmo.history.ac.uk/entry/rothwell-james-1871","title":"Rothwell, Jas.","address":"35, Cochrane Street, St. John’s Wood, NW","active":1871},"geometry":{"coordinates":[-0.171207,51.532871]},"uuid":"1aa23380-c160-4c8c-9a48-b52b74379e94"},{"@id":"https://w3id.org/locolligo/BIFMO-post-1840/ae06545a-ef22-4a4c-a39d-220d38b0cb2f","properties":{"url":"https://bifmo.history.ac.uk/entry/dutton-samuel-g-1871","title":"Dutton, Saml. G.","address":"94 Grand Junction ter","active":1871},"geometry":{"coordinates":[-0.171098,51.516418]},"uuid":"ae06545a-ef22-4a4c-a39d-220d38b0cb2f"},{"@id":"https://w3id.org/locolligo/BIFMO-post-1840/c9e2c2f7-ed2a-47ac-ab8c-a7e27d4b1420","properties":{"url":"https://bifmo.history.ac.uk/entry/dew-charles-1871","title":"Dew, Charles","address":"49 High st.St.John’s wood NW","active":1871},"geometry":{"coordinates":[-0.170733,51.533254]},"uuid":"c9e2c2f7-ed2a-47ac-ab8c-a7e27d4b1420"},{"@id":"https://w3id.org/locolligo/BIFMO-post-1840/d398f6d7-5d80-40d3-ae9e-934bc5a5a12d","properties":{"url":"https://bifmo.history.ac.uk/entry/callow-francis-francis-callow-junior-1871","title":"Callow, Francis","address":"5 Wellington pl. Goswl. rd","active":1871},"geometry":{"coordinates":[-0.170501,51.531714]},"uuid":"d398f6d7-5d80-40d3-ae9e-934bc5a5a12d"},{"@id":"https://w3id.org/locolligo/BIFMO-post-1840/f1b82434-4869-445d-82c9-0571752bb1af","properties":{"url":"https://bifmo.history.ac.uk/entry/arrow-john-henry-1820-39","title":"Arrow, J. Henry","address":"20, Star Street, Edgware Road, W","active":1845},"geometry":{"coordinates":[-0.170033,51.517801]},"uuid":"f1b82434-4869-445d-82c9-0571752bb1af"},{"@id":"https://w3id.org/locolligo/BIFMO-post-1840/05d81b0b-8289-4be8-8f7d-4556c95abd51","properties":{"url":"https://bifmo.history.ac.uk/entry/gates-richard-1835","title":"Gates, Richard","address":"15 Praed street W","active":1845},"geometry":{"coordinates":[-0.169989,51.518772]},"uuid":"05d81b0b-8289-4be8-8f7d-4556c95abd51"},{"@id":"https://w3id.org/locolligo/BIFMO-post-1840/4115f24e-1c61-4112-a070-17b65de1b84c","properties":{"url":"https://bifmo.history.ac.uk/entry/tiffin-henry-1871","title":"Tiffin, Henry","address":"17 Somers pl. east, New rd","active":1871,"notes":"now called Somers Crescent, http://www.rayment.info/general/road_name_changes/14_2S_Inner_London_Streets_Old_Names.html"},"geometry":{"coordinates":[-0.169979,51.515282]},"uuid":"4115f24e-1c61-4112-a070-17b65de1b84c"},{"@id":"https://w3id.org/locolligo/BIFMO-post-1840/2d11bca4-c72d-4f74-a34d-2e459295a73e","properties":{"url":"https://bifmo.history.ac.uk/entry/rothwell-james-1871","title":"Rothwell, Jas.","address":"15, Portland pl., St. John’s Wood, NW","active":1871,"notes":"Stree now (possibly) known as St John’s Wood High Street"},"geometry":{"coordinates":[-0.169791,51.532567]},"uuid":"2d11bca4-c72d-4f74-a34d-2e459295a73e"},{"@id":"https://w3id.org/locolligo/BIFMO-post-1840/7d8e03cf-7ed7-4483-bc88-8d8348b06c8f","properties":{"url":"https://bifmo.history.ac.uk/entry/hewetson-thomas-william-john-hewetson-milner-hewetson-thexton-milner-1839-1900","title":"Hewetson, Thomas","address":"11, King’s College Road, NW","active":1871},"geometry":{"coordinates":[-0.169779,51.543844]},"uuid":"7d8e03cf-7ed7-4483-bc88-8d8348b06c8f"},{"@id":"https://w3id.org/locolligo/BIFMO-post-1840/fa4f71f4-3f48-4a00-b8da-f846a2326c50","properties":{"url":"https://bifmo.history.ac.uk/entry/handisyde-charles-1845-1871","title":"Handisyde, Charles","address":"1 Alexander pl. Brmptn","active":1871},"geometry":{"coordinates":[-0.169719,51.495066]},"uuid":"fa4f71f4-3f48-4a00-b8da-f846a2326c50"},{"@id":"https://w3id.org/locolligo/BIFMO-post-1840/7fe9d1ed-0097-4537-a3d5-803ab92681b9","properties":{"url":"https://bifmo.history.ac.uk/entry/lanson-edward-1845","title":"l'Anson, Edward","address":"20, Sale Street, Paddington, W","active":1845},"geometry":{"coordinates":[-0.169288,51.5179]},"uuid":"7fe9d1ed-0097-4537-a3d5-803ab92681b9"},{"@id":"https://w3id.org/locolligo/BIFMO-post-1840/6aa9b608-bd5e-4784-9e53-0f97cbcdb6f0","properties":{"url":"https://bifmo.history.ac.uk/entry/ridley-john-1845","title":"Ridley, John","address":"45 Church st. Lisson grove NW","active":1845},"geometry":{"coordinates":[-0.169288,51.524018]},"uuid":"6aa9b608-bd5e-4784-9e53-0f97cbcdb6f0"},{"@id":"https://w3id.org/locolligo/BIFMO-post-1840/f8aa9885-69bb-4ec2-b722-382e7d65dd1a","properties":{"url":"https://bifmo.history.ac.uk/entry/bowman-brothers-1871-1915","title":"Bowman, Thos.","address":"97, Fulham Road, SW","active":1871,"notes":"Current Fulham Road numbering, not in the Layers maps"},"geometry":{"coordinates":[-0.169216,51.493051]},"uuid":"f8aa9885-69bb-4ec2-b722-382e7d65dd1a"},{"@id":"https://w3id.org/locolligo/BIFMO-post-1840/4a587100-b16b-44d4-a85c-1263dde9b49c","properties":{"url":"https://bifmo.history.ac.uk/entry/elliott-james-1845-1871","title":"Elliott, Jas.","address":"14 New Church st. we. Edgw.rd","active":1871,"notes":"New Church Street is now Church Street (cf. Greenwood 1828)"},"geometry":{"coordinates":[-0.169113,51.524319]},"uuid":"4a587100-b16b-44d4-a85c-1263dde9b49c"},{"@id":"https://w3id.org/locolligo/BIFMO-post-1840/58ff0eae-b2e1-42f0-9426-c224c7a0189c","properties":{"url":"https://bifmo.history.ac.uk/entry/ager-stride-john-1845","title":"Ager, Stride John","address":"12 New Church st. Lisson gr","active":1845,"notes":"New Church Street is now Church Street (cf. Greenwood 1828)"},"geometry":{"coordinates":[-0.16907,51.524365]},"uuid":"58ff0eae-b2e1-42f0-9426-c224c7a0189c"},{"@id":"https://w3id.org/locolligo/BIFMO-post-1840/622d440a-a48d-42c6-a100-785a4f63de09","properties":{"url":"https://bifmo.history.ac.uk/entry/larlham-henry-1871","title":"Larlham, Henry","address":"Jubilee Place, Chelsea, SW","active":1871},"geometry":{"coordinates":[-0.169009,51.48954]},"uuid":"622d440a-a48d-42c6-a100-785a4f63de09"},{"@id":"https://w3id.org/locolligo/BIFMO-post-1840/30f603b7-b406-4d4d-81d8-93c5ebec990a","properties":{"url":"https://bifmo.history.ac.uk/entry/schambers-joseph-1845","title":"Schambers, Joseph","address":"1 Cottage pl. Sloane st","active":1845},"geometry":{"coordinates":[-0.168995,51.497493]},"uuid":"30f603b7-b406-4d4d-81d8-93c5ebec990a"},{"@id":"https://w3id.org/locolligo/BIFMO-post-1840/2c60bbb1-70d3-410a-833c-4d12097e8d80","properties":{"url":"https://bifmo.history.ac.uk/entry/dear-w-b-1835-37","title":"Dear, William","address":"1 & 3, Fulham Road, SW","active":1871,"notes":"Current Fulham Road numbering, not in the Layers maps"},"geometry":{"coordinates":[-0.16892,51.493362]},"uuid":"2c60bbb1-70d3-410a-833c-4d12097e8d80"},{"@id":"https://w3id.org/locolligo/BIFMO-post-1840/a25726ca-5d97-4fb9-bad0-6107bd8311ee","properties":{"title":"Richardson, William","address":"44, High Street, St. John’s Wood, NW","active":1845},"geometry":{"coordinates":[-0.168872,51.531995]},"uuid":"a25726ca-5d97-4fb9-bad0-6107bd8311ee"},{"@id":"https://w3id.org/locolligo/BIFMO-post-1840/17f13c5e-6ef0-4a4a-bf7d-a6b1a8ef5778","properties":{"url":"https://bifmo.history.ac.uk/entry/allum-manoah-1845","title":"Allum, Manoah","address":"88, Leader Street, Chelsea, SW","active":1845,"notes":"Later renamed Ixworth Place, unable to work out numbers"},"geometry":{"coordinates":[-0.168724,51.491894]},"uuid":"17f13c5e-6ef0-4a4a-bf7d-a6b1a8ef5778"},{"@id":"https://w3id.org/locolligo/BIFMO-post-1840/2bbb98f7-f9f8-4811-a650-c569e4a21992","properties":{"url":"https://bifmo.history.ac.uk/entry/harris-charles-1871","title":"Harris, Charles","address":"41, Leader Street, Chelsea, SW","active":1871,"notes":"Later renamed Ixworth Place, unable to work out numbers"},"geometry":{"coordinates":[-0.168724,51.491894]},"uuid":"2bbb98f7-f9f8-4811-a650-c569e4a21992"},{"@id":"https://w3id.org/locolligo/BIFMO-post-1840/484bde57-60e4-48e3-b9aa-d95a314395b1","properties":{"url":"https://bifmo.history.ac.uk/entry/martin-frederick-1823-39","title":"Martin, Frederick","address":"28 Michael's pl. Bromptn","active":1845,"notes":"Street now part of Brompton Road. "},"geometry":{"coordinates":[-0.16833,51.497088]},"uuid":"484bde57-60e4-48e3-b9aa-d95a314395b1"},{"@id":"https://w3id.org/locolligo/BIFMO-post-1840/df41c2f9-6da7-44bf-83f4-a9a1ecd72cae","properties":{"url":"https://bifmo.history.ac.uk/entry/miles-george-1871","title":"Miles, George","address":"12, High Street, St. John’s Wood, NW","active":1871},"geometry":{"coordinates":[-0.168273,51.53171]},"uuid":"df41c2f9-6da7-44bf-83f4-a9a1ecd72cae"},{"@id":"https://w3id.org/locolligo/BIFMO-post-1840/33749929-9549-4bd3-b43c-9c383351fb3b","properties":{"url":"https://bifmo.history.ac.uk/entry/merriman-j-mrs-1845","title":"Merriman, J.","address":"200 Brompton road SW","active":1845},"geometry":{"coordinates":[-0.168223,51.49714]},"uuid":"33749929-9549-4bd3-b43c-9c383351fb3b"},{"@id":"https://w3id.org/locolligo/BIFMO-post-1840/18ac9f10-91f5-4a72-9881-50900f9c3b90","properties":{"url":"https://bifmo.history.ac.uk/entry/arnold-thomas-1871","title":"Arnold, Thomas","address":"1 Michael's pl, Brompton","active":1871,"notes":"Street now part of Brompton Road. "},"geometry":{"coordinates":[-0.167997,51.497215]},"uuid":"18ac9f10-91f5-4a72-9881-50900f9c3b90"},{"@id":"https://w3id.org/locolligo/BIFMO-post-1840/0242dac5-59c6-4545-9c02-47ae30306ff9","properties":{"title":"Rayner, Harry Ambrose","address":"60, Brompton Square, SW","active":1871},"geometry":{"coordinates":[-0.167842,51.497606]},"uuid":"0242dac5-59c6-4545-9c02-47ae30306ff9"},{"@id":"https://w3id.org/locolligo/BIFMO-post-1840/cbc1ae34-3b8f-4ae4-a288-2fff5965b600","properties":{"url":"https://bifmo.history.ac.uk/entry/green-charles-lindsey-1871","title":"Green, Charles Lindsey","address":"27, Blenheim Street, Chelsea, SW","active":1871,"notes":"Now 'Astell Street'"},"geometry":{"coordinates":[-0.167811,51.490158]},"uuid":"cbc1ae34-3b8f-4ae4-a288-2fff5965b600"},{"@id":"https://w3id.org/locolligo/BIFMO-post-1840/d111540a-8747-41e2-a88c-ac314d378bcc","properties":{"url":"https://bifmo.history.ac.uk/entry/callard-john-1845","title":"Callard, John","address":"20 Upper Lisson street NW","active":1845,"notes":"now called Lisson Street"},"geometry":{"coordinates":[-0.167729,51.521195]},"uuid":"d111540a-8747-41e2-a88c-ac314d378bcc"},{"@id":"https://w3id.org/locolligo/BIFMO-post-1840/3bc53096-3c5c-4142-bafd-62443b89e8aa","properties":{"url":"https://bifmo.history.ac.uk/entry/smith-james-1871","title":"Smith, James","address":"213, Brompton Road, SW","active":1871},"geometry":{"coordinates":[-0.167507,51.497321]},"uuid":"3bc53096-3c5c-4142-bafd-62443b89e8aa"},{"@id":"https://w3id.org/locolligo/BIFMO-post-1840/48c6c9d9-a5cb-40d0-8661-9674c7bb8152","properties":{"title":"Sutton, Henry","address":"154, Walton Street, SW","active":1845},"geometry":{"coordinates":[-0.167405,51.494846]},"uuid":"48c6c9d9-a5cb-40d0-8661-9674c7bb8152"},{"@id":"https://w3id.org/locolligo/BIFMO-post-1840/82453900-4b75-45f9-bb7b-2272de541fad","properties":{"title":"Cox, ","address":"209A, Brompton Road, SW","active":1871},"geometry":{"coordinates":[-0.167297,51.497474]},"uuid":"82453900-4b75-45f9-bb7b-2272de541fad"},{"@id":"https://w3id.org/locolligo/BIFMO-post-1840/297fa15f-c1e7-456d-b0d8-8924c41f9540","properties":{"url":"https://bifmo.history.ac.uk/entry/cox-george-1835-39","title":"Cox, George","address":"209A, Brompton Road, SW","active":1871},"geometry":{"coordinates":[-0.167297,51.497474]},"uuid":"297fa15f-c1e7-456d-b0d8-8924c41f9540"},{"@id":"https://w3id.org/locolligo/BIFMO-post-1840/f2f12692-f225-4867-9f16-15d9cd0c5ade","properties":{"url":"https://bifmo.history.ac.uk/entry/smith-edward-1871","title":"Smith, Edwd.","address":"209, Brompton Road, SW","active":1871},"geometry":{"coordinates":[-0.167297,51.497474]},"uuid":"f2f12692-f225-4867-9f16-15d9cd0c5ade"},{"@id":"https://w3id.org/locolligo/BIFMO-post-1840/83e01c5a-6d71-4bd2-b80f-e2fbfd3a5eb7","properties":{"url":"https://bifmo.history.ac.uk/entry/jenkins-william-1871-0","title":"Jenkins, Wm.","address":"5, Brown’s Court, Edgware Road, W","active":1871,"notes":"Street lost, plotted using Charles E. Goad Ltd's 1887 map."},"geometry":{"coordinates":[-0.166847,51.517942]},"uuid":"83e01c5a-6d71-4bd2-b80f-e2fbfd3a5eb7"},{"@id":"https://w3id.org/locolligo/BIFMO-post-1840/789051fc-dbfd-4cb9-9c3c-ae31663555dd","properties":{"url":"https://bifmo.history.ac.uk/entry/barr-charles-joseph-1871","title":"Barr, Chas. Jsph.","address":"1 Golden lion ct. Aldgs. St","active":1871},"geometry":{"coordinates":[-0.16679,51.489805]},"uuid":"789051fc-dbfd-4cb9-9c3c-ae31663555dd"},{"@id":"https://w3id.org/locolligo/BIFMO-post-1840/6ffe640f-5dc2-4f72-9777-f79a2aee0129","properties":{"url":"https://bifmo.history.ac.uk/entry/eibel-joseph-1871","title":"Eibel, Jospeh","address":"20, Godfrey Street, Chelsea, SW","active":1871},"geometry":{"coordinates":[-0.16679,51.489805]},"uuid":"6ffe640f-5dc2-4f72-9777-f79a2aee0129"},{"@id":"https://w3id.org/locolligo/BIFMO-post-1840/0b42bcf9-0e4c-4888-b880-6702f43495e4","properties":{"url":"https://bifmo.history.ac.uk/entry/paskell-william-1845","title":"Paskell, William","address":"162 Brompton road SW","active":1845},"geometry":{"coordinates":[-0.166726,51.498213]},"uuid":"0b42bcf9-0e4c-4888-b880-6702f43495e4"},{"@id":"https://w3id.org/locolligo/BIFMO-post-1840/8e3436ce-3009-4246-ab41-75d8869b13fe","properties":{"title":"Rolls, James","address":"Marlborough Road, SE","active":1871,"notes":"Street now known as Draycott avenue"},"geometry":{"coordinates":[-0.166709,51.493254]},"uuid":"8e3436ce-3009-4246-ab41-75d8869b13fe"},{"@id":"https://w3id.org/locolligo/BIFMO-post-1840/7abb2c2d-baaf-40d5-8318-706e7ad7b836","properties":{"title":"Williams , James","address":"135, King’s Road, Chelsea, SW","active":1871},"geometry":{"coordinates":[-0.166695,51.488155]},"uuid":"7abb2c2d-baaf-40d5-8318-706e7ad7b836"},{"@id":"https://w3id.org/locolligo/BIFMO-post-1840/92de1e46-a4a2-477e-a9be-9f1df029296d","properties":{"url":"https://bifmo.history.ac.uk/entry/perry-john-1826-39","title":"Perry, John","address":"44 Manor street, Chelsea SW","active":1845,"notes":"Street now known as Chelsea Manor Street"},"geometry":{"coordinates":[-0.166691,51.486159]},"uuid":"92de1e46-a4a2-477e-a9be-9f1df029296d"},{"@id":"https://w3id.org/locolligo/BIFMO-post-1840/14fc0f77-0406-4ab2-92c8-1dbfa287aa5e","properties":{"url":"https://bifmo.history.ac.uk/entry/andrews-william-1871","title":"Andrews, Wm.","address":"147 Marlborough road SW","active":1871,"notes":"Street now known as Draycott avenue"},"geometry":{"coordinates":[-0.166505,51.493229]},"uuid":"14fc0f77-0406-4ab2-92c8-1dbfa287aa5e"},{"@id":"https://w3id.org/locolligo/BIFMO-post-1840/8857b10f-571c-4670-b9ca-2d06430a3a1d","properties":{"url":"https://bifmo.history.ac.uk/entry/smith-richard-1832-39","title":"Smith , Richd.","address":"148, Brompton Road, SW","active":1871},"geometry":{"coordinates":[-0.166234,51.498418]},"uuid":"8857b10f-571c-4670-b9ca-2d06430a3a1d"},{"@id":"https://w3id.org/locolligo/BIFMO-post-1840/f1603cf6-4dc1-4636-858e-b52c7f7d6fc5","properties":{"url":"https://bifmo.history.ac.uk/entry/hughes-robert-1835-39","title":"Hughes, Robert","address":"3, Oakley Crescent, Chelsea, SW","active":1845},"geometry":{"coordinates":[-0.166219,51.485011]},"uuid":"f1603cf6-4dc1-4636-858e-b52c7f7d6fc5"},{"@id":"https://w3id.org/locolligo/BIFMO-post-1840/36fd7156-5429-4cb1-bb08-dcb8ec04204d","properties":{"title":"Moate , Samuel","address":"131 & 133 Marlborough road, Chelsea SW","active":1871,"notes":"Street now known as Draycott avenue"},"geometry":{"coordinates":[-0.166194,51.493221]},"uuid":"36fd7156-5429-4cb1-bb08-dcb8ec04204d"},{"@id":"https://w3id.org/locolligo/BIFMO-post-1840/b43a7e24-4422-49a2-83a7-bda9e1118f32","properties":{"url":"https://bifmo.history.ac.uk/entry/king-william-1839","title":"King, William","address":"43, Hartland Road, NW","active":1845,"notes":-0.147354},"geometry":{"coordinates":[-0.166174,51.518978]},"uuid":"b43a7e24-4422-49a2-83a7-bda9e1118f32"},{"@id":"https://w3id.org/locolligo/BIFMO-post-1840/ade783bb-a163-41e4-896d-4dec713097af","properties":{"url":"https://bifmo.history.ac.uk/entry/bow-charles-1826-39","title":"Bow, Charles","address":"21 Crawford st. Portmn. Sq; 23 Harcourt street, New road","active":1845},"geometry":{"coordinates":[-0.166174,51.518978]},"uuid":"ade783bb-a163-41e4-896d-4dec713097af"},{"@id":"https://w3id.org/locolligo/BIFMO-post-1840/dd5881eb-18fb-4cc6-8f31-c19e1a1acfd4","properties":{"title":"Schofield , John T.","address":"12, Hart’s Lane, Bethnal Green Road, E","active":1871,"notes":-0.0664505},"geometry":{"coordinates":[-0.166174,51.518978]},"uuid":"dd5881eb-18fb-4cc6-8f31-c19e1a1acfd4"},{"@id":"https://w3id.org/locolligo/BIFMO-post-1840/d4a47ce4-07e0-462b-8302-5c2941b06fdb","properties":{"url":"https://bifmo.history.ac.uk/entry/matthews-stephen-1871","title":"Matthews, Stephen","address":"23 Harcourt st., New road","active":1871},"geometry":{"coordinates":[-0.166174,51.554442]},"uuid":"d4a47ce4-07e0-462b-8302-5c2941b06fdb"},{"@id":"https://w3id.org/locolligo/BIFMO-post-1840/daddf138-5272-4008-a65f-23a585efeaa2","properties":{"url":"https://bifmo.history.ac.uk/entry/dawes-thomas-1871","title":"Dawes, Thomas","address":"174 & 176, King’s Road, SW","active":1871},"geometry":{"coordinates":[-0.166127,51.488694]},"uuid":"daddf138-5272-4008-a65f-23a585efeaa2"},{"@id":"https://w3id.org/locolligo/BIFMO-post-1840/c3750c95-8864-43b4-8894-d5729ab6e143","properties":{"url":"https://bifmo.history.ac.uk/entry/matthews-thomas-1845","title":"Matthews, Thomas","address":"79 Manor st. Chelsea SW","active":1845,"notes":"Street now known as Chelsea Manor Street"},"geometry":{"coordinates":[-0.166042,51.48541]},"uuid":"c3750c95-8864-43b4-8894-d5729ab6e143"},{"@id":"https://w3id.org/locolligo/BIFMO-post-1840/d0a03488-1652-4012-a2ac-666025783e18","properties":{"url":"https://bifmo.history.ac.uk/entry/jones-samuel-1845","title":"Jones, Samuel","address":"2 Broadley ter. Blandfd. Sq","active":1845},"geometry":{"coordinates":[-0.166015,51.524331]},"uuid":"d0a03488-1652-4012-a2ac-666025783e18"},{"@id":"https://w3id.org/locolligo/BIFMO-post-1840/8d7f7560-2efb-436b-ab8f-8e39831e9ea9","properties":{"url":"https://bifmo.history.ac.uk/entry/deighton-samuel-1871","title":"Deighton , Samuel","address":"1, Chapel Plac, Bromptn, S","active":1871,"notes":"Street now known as Cheval Place"},"geometry":{"coordinates":[-0.165994,51.499068]},"uuid":"8d7f7560-2efb-436b-ab8f-8e39831e9ea9"},{"@id":"https://w3id.org/locolligo/BIFMO-post-1840/0b52a9b1-2740-45db-963a-fe1355ecccd2","properties":{"url":"https://bifmo.history.ac.uk/entry/bartholomew-george-co-1871-1880","title":"Bartholomew, Geo.","address":"8 Jubilee ter. Chels","active":1871},"geometry":{"coordinates":[-0.165982,51.489661]},"uuid":"0b52a9b1-2740-45db-963a-fe1355ecccd2"},{"@id":"https://w3id.org/locolligo/BIFMO-post-1840/0098ba5e-fe49-41d8-a716-e50681607516","properties":{"url":"https://bifmo.history.ac.uk/entry/hubbard-william-1871","title":"Hubbard, William","address":"168, King’s Road, Chelsea, SW","active":1871},"geometry":{"coordinates":[-0.16592,51.488727]},"uuid":"0098ba5e-fe49-41d8-a716-e50681607516"},{"@id":"https://w3id.org/locolligo/BIFMO-post-1840/868feba4-665f-4126-9d54-61eedcfef140","properties":{"url":"https://bifmo.history.ac.uk/entry/brown-robert-1871","title":"Brown, Robt.","address":"43 Chapel st. Edg. Rd","active":1871},"geometry":{"coordinates":[-0.165908,51.519983]},"uuid":"868feba4-665f-4126-9d54-61eedcfef140"},{"@id":"https://w3id.org/locolligo/BIFMO-post-1840/8dbe7785-6c71-468d-8177-55d577c37dda","properties":{"url":"https://bifmo.history.ac.uk/entry/larking-samuel-1871","title":"Larking, Samuel","address":"36 Queen st. Chlse","active":1871,"notes":"Street now known as Flood Street"},"geometry":{"coordinates":[-0.165876,51.486885]},"uuid":"8dbe7785-6c71-468d-8177-55d577c37dda"},{"@id":"https://w3id.org/locolligo/BIFMO-post-1840/66ae9a84-a08d-45cc-ae32-19dbaea414cd","properties":{"url":"https://bifmo.history.ac.uk/entry/dyer-edward-1871","title":"Dyer, Edward","address":"90 Walton street, ChelseaSW","active":1871},"geometry":{"coordinates":[-0.165779,51.495853]},"uuid":"66ae9a84-a08d-45cc-ae32-19dbaea414cd"},{"@id":"https://w3id.org/locolligo/BIFMO-post-1840/86d6787d-95c0-458f-a894-d7039cb5f1d0","properties":{"title":"Roberts , George","address":"51 Lisson grove NW","active":1871,"notes":"Not on Horwood or Goad, estimated using OS 40s-60s"},"geometry":{"coordinates":[-0.165735,51.522761]},"uuid":"86d6787d-95c0-458f-a894-d7039cb5f1d0"},{"@id":"https://w3id.org/locolligo/BIFMO-post-1840/0cba1c5c-e625-4859-bfd4-eee61fd8a5b0","properties":{"url":"https://bifmo.history.ac.uk/entry/wilkie-john-1845","title":"Wilkie, John","address":"31, Upper Berkeley Street West, W","active":1845,"notes":"https://www.maps.thehunthouse.com/Streets/Old_to_New_Abolished_London_Street_Names.htm#U"},"geometry":{"coordinates":[-0.165667,51.514473]},"uuid":"0cba1c5c-e625-4859-bfd4-eee61fd8a5b0"},{"@id":"https://w3id.org/locolligo/BIFMO-post-1840/c5c2bf69-3a46-41b5-93bb-ef416daf22a7","properties":{"url":"https://bifmo.history.ac.uk/entry/lee-george-1871","title":"Lee, Stephen","address":"22, Orford Street, Chelsea, SW","active":1871},"geometry":{"coordinates":[-0.165381,51.49315]},"uuid":"c5c2bf69-3a46-41b5-93bb-ef416daf22a7"},{"@id":"https://w3id.org/locolligo/BIFMO-post-1840/1527955d-9cd9-447d-bb6c-9d4b6147bc61","properties":{"url":"https://bifmo.history.ac.uk/entry/duppa-co-1871","title":"Duppa, ","address":"3, Upper Porchester Street, W","active":1871,"notes":"Street now called Porchester Place. Porchester Place was previously divided into Lower Porchester Street and Upper Porchester Street. This address iin google maps located the shop on what was previously called Lower Porchester Street. https://www.loc.gov/resource/g5754l.fi000101/?r=0.148,0.297,0.192,0.094,0 https://www.british-history.ac.uk/vch/middx/vol9/pp190-198 "},"geometry":{"coordinates":[-0.165362,51.514803]},"uuid":"1527955d-9cd9-447d-bb6c-9d4b6147bc61"},{"@id":"https://w3id.org/locolligo/BIFMO-post-1840/fb07a999-5d0d-4cfb-9b29-6b5d6223dbc6","properties":{"url":"https://bifmo.history.ac.uk/entry/connolly-joseph-1871","title":"Connelly, Joseph","address":"18, Markham Street, Chelsea, SW","active":1871},"geometry":{"coordinates":[-0.165289,51.489956]},"uuid":"fb07a999-5d0d-4cfb-9b29-6b5d6223dbc6"},{"@id":"https://w3id.org/locolligo/BIFMO-post-1840/532cff20-b83a-426e-b6ac-3a971c086377","properties":{"url":"https://bifmo.history.ac.uk/entry/clare-henry-samuel-1845","title":"Clare, Henry & Samuel","address":"11, Newnham Street, Edgware Road, W","active":1845},"geometry":{"coordinates":[-0.165199,51.517591]},"uuid":"532cff20-b83a-426e-b6ac-3a971c086377"},{"@id":"https://w3id.org/locolligo/BIFMO-post-1840/099a670c-8e6d-42b6-ad79-cc392f6859e1","properties":{"title":"Warren, James","address":"38 Homer street, Marylebone W","active":1845},"geometry":{"coordinates":[-0.165008,51.519617]},"uuid":"099a670c-8e6d-42b6-ad79-cc392f6859e1"},{"@id":"https://w3id.org/locolligo/BIFMO-post-1840/5d3c618f-8cbf-45d1-aaad-dbe0f681b7e9","properties":{"url":"https://bifmo.history.ac.uk/entry/charles-reynolds-co-1871","title":"Charles, ","address":"3, Markham Street, Chelsea, SW","active":1871},"geometry":{"coordinates":[-0.164939,51.48934]},"uuid":"5d3c618f-8cbf-45d1-aaad-dbe0f681b7e9"},{"@id":"https://w3id.org/locolligo/BIFMO-post-1840/f32c1677-190b-478f-8129-14e12bd188ff","properties":{"url":"https://bifmo.history.ac.uk/entry/catherick-henry-1839","title":"Catherick, Henry","address":"20, Lisson Grove, NW","active":1845,"notes":"Not on Horwood or Goad, estimated using OS 40s-60s"},"geometry":{"coordinates":[-0.164841,51.521933]},"uuid":"f32c1677-190b-478f-8129-14e12bd188ff"},{"@id":"https://w3id.org/locolligo/BIFMO-post-1840/3583b1ae-f640-4ad4-8c7c-11c841fdae71","properties":{"url":"https://bifmo.history.ac.uk/entry/hicks-james-1835-39","title":"Hicks, James","address":"54 Walton street, Chelsea SW","active":1871},"geometry":{"coordinates":[-0.164813,51.496364]},"uuid":"3583b1ae-f640-4ad4-8c7c-11c841fdae71"},{"@id":"https://w3id.org/locolligo/BIFMO-post-1840/c45b3e1e-cdb9-4be0-bccd-63bdeab9f7e5","properties":{"url":"https://bifmo.history.ac.uk/entry/davis-charles-frederick-1871","title":"Davis, Charles Fredk.","address":"9 Homer st. Marylebone rd W","active":1871},"geometry":{"coordinates":[-0.16478,51.519427]},"uuid":"c45b3e1e-cdb9-4be0-bccd-63bdeab9f7e5"},{"@id":"https://w3id.org/locolligo/BIFMO-post-1840/416055e1-72fe-418a-82db-c4cd47f38be3","properties":{"url":"https://bifmo.history.ac.uk/entry/law-brothers-1871-1905","title":"Law, ","address":"9, Upper Berkeley Street West, W","active":1871,"notes":"https://www.maps.thehunthouse.com/Streets/Old_to_New_Abolished_London_Street_Names.htm#U"},"geometry":{"coordinates":[-0.164759,51.514571]},"uuid":"416055e1-72fe-418a-82db-c4cd47f38be3"},{"@id":"https://w3id.org/locolligo/BIFMO-post-1840/dcc45c46-94ce-4935-bb18-7f0fac612114","properties":{"url":"https://bifmo.history.ac.uk/entry/connor-richard-1845","title":"Connor, Richard","address":"30 Homer st. Marylebone W","active":1845},"geometry":{"coordinates":[-0.164717,51.519398]},"uuid":"dcc45c46-94ce-4935-bb18-7f0fac612114"},{"@id":"https://w3id.org/locolligo/BIFMO-post-1840/11f841e4-6c3b-44ee-bfc0-39047a6cc67d","properties":{"url":"https://bifmo.history.ac.uk/entry/dalby-thomas-1871","title":"Dalby, Thos.","address":"28, Dorchester pl., Blandford sq., NW","active":1871,"notes":"Street lost, approximate location"},"geometry":{"coordinates":[-0.164707,51.523683]},"uuid":"11f841e4-6c3b-44ee-bfc0-39047a6cc67d"},{"@id":"https://w3id.org/locolligo/BIFMO-post-1840/ff6018a6-da35-4a89-a25e-97c2ad0c3073","properties":{"title":"Wright , Rd.","address":"258, Marylebone Road, NW","active":1871,"notes":"Street (partially) lost, approximate location"},"geometry":{"coordinates":[-0.164705,51.521368]},"uuid":"ff6018a6-da35-4a89-a25e-97c2ad0c3073"},{"@id":"https://w3id.org/locolligo/BIFMO-post-1840/a55bd14c-3c56-4f70-8ddd-f884aec91eb2","properties":{"url":"https://bifmo.history.ac.uk/entry/hawkins-charles-1839","title":"Hawkins, Charles","address":"6 Lisson grove north","active":1871,"notes":"Not on Horwood or Goad, estimated using OS 40s-60s"},"geometry":{"coordinates":[-0.164667,51.521566]},"uuid":"a55bd14c-3c56-4f70-8ddd-f884aec91eb2"},{"@id":"https://w3id.org/locolligo/BIFMO-post-1840/d843c8c4-bdbc-4502-b016-0163763f9333","properties":{"url":"https://bifmo.history.ac.uk/entry/wellsted-james-1820-39","title":"Wellsted, James","address":"12 & 13 Molyneux st. Bryanstone sq. ; 30 Shouldham st. ; & Welsted yard, Seymour place","active":1845},"geometry":{"coordinates":[-0.164614,51.518134]},"uuid":"d843c8c4-bdbc-4502-b016-0163763f9333"},{"@id":"https://w3id.org/locolligo/BIFMO-post-1840/a960248b-5e8e-46d1-9489-88971a90bc0d","properties":{"url":"https://bifmo.history.ac.uk/entry/thick-robert-1845","title":"Thick, Robert","address":"14 Molyneux st. Bryanstn.sq","active":1845},"geometry":{"coordinates":[-0.164556,51.517969]},"uuid":"a960248b-5e8e-46d1-9489-88971a90bc0d"},{"@id":"https://w3id.org/locolligo/BIFMO-post-1840/79c9e1f8-811e-4312-9597-8087ddb7b83f","properties":{"title":"Taylor, Daniel","address":"20 Portsea pl. Edgware rd","active":1845},"geometry":{"coordinates":[-0.16446,51.515243]},"uuid":"79c9e1f8-811e-4312-9597-8087ddb7b83f"},{"@id":"https://w3id.org/locolligo/BIFMO-post-1840/954e807c-d2f2-423b-a79c-c5778ff29e47","properties":{"url":"https://bifmo.history.ac.uk/entry/jacobs-brothers-1871","title":"Jacobs, ","address":"137, Brompton Road, SW","active":1871},"geometry":{"coordinates":[-0.164413,51.499004]},"uuid":"954e807c-d2f2-423b-a79c-c5778ff29e47"},{"@id":"https://w3id.org/locolligo/BIFMO-post-1840/b4b0a665-f15f-4e13-a382-edd96ddd15ca","properties":{"url":"https://bifmo.history.ac.uk/entry/hampton-sons-1830-1957","title":"Hampton, ","address":"1 Queen st. Brmptn. Rd","active":1871,"notes":"Street now known as Hans Road"},"geometry":{"coordinates":[-0.164386,51.499026]},"uuid":"b4b0a665-f15f-4e13-a382-edd96ddd15ca"},{"@id":"https://w3id.org/locolligo/BIFMO-post-1840/301fd2c4-e4cc-4e0c-adbf-8a9b50b7d81e","properties":{"url":"https://bifmo.history.ac.uk/entry/lewis-frederick-1871","title":"Lewis, Frederick","address":"28, Hartlnd.rd.ChalkFrm.rd, NW","active":1871,"notes":-0.1481156},"geometry":{"coordinates":[-0.16431,51.519626]},"uuid":"301fd2c4-e4cc-4e0c-adbf-8a9b50b7d81e"},{"@id":"https://w3id.org/locolligo/BIFMO-post-1840/05605ed9-2f8a-40df-abe4-4cb460831844","properties":{"title":"Simmonds, Richard","address":"13, Trevor sq.Knightsbdge, SW","active":1845},"geometry":{"coordinates":[-0.16425,51.500466]},"uuid":"05605ed9-2f8a-40df-abe4-4cb460831844"},{"@id":"https://w3id.org/locolligo/BIFMO-post-1840/575ac922-b109-406b-aa72-4813ec424304","properties":{"url":"https://bifmo.history.ac.uk/entry/bozier-joseph-1845-1871","title":"Bozier, Joseph","address":"15, Trevor sq., Knightsbridge, SW","active":1871},"geometry":{"coordinates":[-0.164216,51.500398]},"uuid":"575ac922-b109-406b-aa72-4813ec424304"},{"@id":"https://w3id.org/locolligo/BIFMO-post-1840/38bd0d57-3b08-445d-8f5f-3c058f6eb0e1","properties":{"url":"https://bifmo.history.ac.uk/entry/moore-hunton-1871-1886","title":"Moore & Hunton, ","address":"88, Brompton Road, SW","active":1871},"geometry":{"coordinates":[-0.163854,51.499694]},"uuid":"38bd0d57-3b08-445d-8f5f-3c058f6eb0e1"},{"@id":"https://w3id.org/locolligo/BIFMO-post-1840/05b402b9-9f1e-4d47-af9b-60df77e721b7","properties":{"url":"https://bifmo.history.ac.uk/entry/smith-thomas-1871-1","title":"Smith, Thos.","address":"41 Brompton row","active":1871,"notes":"Brompton Row is now part of Brompton Road, plotted with information from British History Online: Survey of London"},"geometry":{"coordinates":[-0.163515,51.49985]},"uuid":"05b402b9-9f1e-4d47-af9b-60df77e721b7"},{"@id":"https://w3id.org/locolligo/BIFMO-post-1840/8345cc96-ddf8-442d-b4ec-7dbcff9b85bf","properties":{"title":"Smith, William Henry","address":"63 & 65, King’s Road, Chelsea, SW","active":1871},"geometry":{"coordinates":[-0.16343,51.489462]},"uuid":"8345cc96-ddf8-442d-b4ec-7dbcff9b85bf"},{"@id":"https://w3id.org/locolligo/BIFMO-post-1840/14986a7f-dbd4-4339-a014-2509cf6e2ec4","properties":{"url":"https://bifmo.history.ac.uk/entry/smith-holmes-1826","title":"Smith, Jas.","address":"29.5, Shouldham Street, Bryanston Square, W","active":1845},"geometry":{"coordinates":[-0.163391,51.517917]},"uuid":"14986a7f-dbd4-4339-a014-2509cf6e2ec4"},{"@id":"https://w3id.org/locolligo/BIFMO-post-1840/925d5072-eaae-4e78-88b8-aff95357a517","properties":{"url":"https://bifmo.history.ac.uk/entry/wellsted-james-1820-39","title":"Wellsted, James","address":"12 & 13 Molyneux st. Bryanstone sq. ; 30 Shouldham st. ; & Welsted yard, Seymour place","active":1845},"geometry":{"coordinates":[-0.163388,51.517913]},"uuid":"925d5072-eaae-4e78-88b8-aff95357a517"},{"@id":"https://w3id.org/locolligo/BIFMO-post-1840/5771c7a5-ecb7-4d1a-84b4-25a8f2b230f8","properties":{"url":"https://bifmo.history.ac.uk/entry/smith-w-h-1835-37","title":"Smith, William Henry","address":"94 York street, Westminster","active":1845},"geometry":{"coordinates":[-0.163127,51.519944]},"uuid":"5771c7a5-ecb7-4d1a-84b4-25a8f2b230f8"},{"@id":"https://w3id.org/locolligo/BIFMO-post-1840/a609330f-a6cb-4d41-a37d-88ea335002e6","properties":{"url":"https://bifmo.history.ac.uk/entry/fear-william-1845","title":"Fear, William","address":"36 Nutford pl. Bryanst. Sq","active":1845},"geometry":{"coordinates":[-0.163124,51.51677]},"uuid":"a609330f-a6cb-4d41-a37d-88ea335002e6"},{"@id":"https://w3id.org/locolligo/BIFMO-post-1840/8d811734-2cbe-47b1-b3a8-6f17ec9b1a16","properties":{"url":"https://bifmo.history.ac.uk/entry/catesby-frederick-1837-39","title":"Catesby, Frederick","address":"14 Brown st. Bryanstn.sq","active":1871},"geometry":{"coordinates":[-0.162675,51.516718]},"uuid":"8d811734-2cbe-47b1-b3a8-6f17ec9b1a16"},{"@id":"https://w3id.org/locolligo/BIFMO-post-1840/967fcc77-1174-456e-9bf5-2b1add0847b0","properties":{"url":"https://bifmo.history.ac.uk/entry/brafield-edward-1845","title":"Brafield, Edward","address":"4 Crawford st. Portman sq","active":1845},"geometry":{"coordinates":[-0.162621,51.519746]},"uuid":"967fcc77-1174-456e-9bf5-2b1add0847b0"},{"@id":"https://w3id.org/locolligo/BIFMO-post-1840/db1fcb83-d771-49a9-9110-770e7d445c0c","properties":{"url":"https://bifmo.history.ac.uk/entry/donne-george-j-1826-37","title":"Donne, Geo. J. & Joseph","address":"9 Knightsbridge green SW","active":1871},"geometry":{"coordinates":[-0.162596,51.501446]},"uuid":"db1fcb83-d771-49a9-9110-770e7d445c0c"},{"@id":"https://w3id.org/locolligo/BIFMO-post-1840/62bc1159-ba70-4741-9fa8-7555a5e4b844","properties":{"title":"Rowe , Thos.","address":"13 High rd. Knightsbridge","active":1871},"geometry":{"coordinates":[-0.162426,51.50137]},"uuid":"62bc1159-ba70-4741-9fa8-7555a5e4b844"},{"@id":"https://w3id.org/locolligo/BIFMO-post-1840/79b954ef-a74e-4841-8542-955f8e288344","properties":{"url":"https://bifmo.history.ac.uk/entry/crawley-henry-1871","title":"Crawley, Henry","address":"73, 75 & 81, Brmptn. Road, SW","active":1871},"geometry":{"coordinates":[-0.162422,51.500211]},"uuid":"79b954ef-a74e-4841-8542-955f8e288344"},{"@id":"https://w3id.org/locolligo/BIFMO-post-1840/213ae946-0707-454b-8c18-6b9b51513a63","properties":{"url":"https://bifmo.history.ac.uk/entry/anderson-william-1820-39","title":"Anderson, William","address":"27 Circus st. New rd. Mrylb","active":1845},"geometry":{"coordinates":[-0.162401,51.520536]},"uuid":"213ae946-0707-454b-8c18-6b9b51513a63"},{"@id":"https://w3id.org/locolligo/BIFMO-post-1840/c613bde0-0649-488c-9f36-54d40d94557e","properties":{"url":"https://bifmo.history.ac.uk/entry/andrews-alfred-1871","title":"Andrews, Alfred","address":"27 Circus st. New road","active":1871},"geometry":{"coordinates":[-0.162401,51.520536]},"uuid":"c613bde0-0649-488c-9f36-54d40d94557e"},{"@id":"https://w3id.org/locolligo/BIFMO-post-1840/69736c88-bcbc-4205-844e-3437a2a93e9e","properties":{"title":"Seagrave, Mary","address":"17 Queen street, Brompton SW","active":1845,"notes":"Street now known as Hans Road"},"geometry":{"coordinates":[-0.162372,51.498525]},"uuid":"69736c88-bcbc-4205-844e-3437a2a93e9e"},{"@id":"https://w3id.org/locolligo/BIFMO-post-1840/c3d5b803-69dd-4bfd-840b-debe75d4e186","properties":{"url":"https://bifmo.history.ac.uk/entry/taylor-william-1871","title":"Taylor, Wm.","address":"28, Circus Street, Marylebne, W","active":1871},"geometry":{"coordinates":[-0.162358,51.520606]},"uuid":"c3d5b803-69dd-4bfd-840b-debe75d4e186"},{"@id":"https://w3id.org/locolligo/BIFMO-post-1840/3cd8b887-7c52-486f-9086-9b0a0505b903","properties":{"url":"https://bifmo.history.ac.uk/entry/case-matthew-1845","title":"Case, Matthew","address":"25, Circus Street, Marylebone Road, W","active":1845},"geometry":{"coordinates":[-0.162344,51.520475]},"uuid":"3cd8b887-7c52-486f-9086-9b0a0505b903"},{"@id":"https://w3id.org/locolligo/BIFMO-post-1840/f94becb1-4ad8-4827-a97c-9d8578a91768","properties":{"url":"https://bifmo.history.ac.uk/entry/jay-joseph-1835-39","title":"Jay, Joseph","address":"7, New Street, Brompton Road, SW","active":1845,"notes":"approx.; New Street is now the part of Hans Crescent which forms the northeast boundary of Harrods (cf. Greenwood 1828)"},"geometry":{"coordinates":[-0.162282,51.499723]},"uuid":"f94becb1-4ad8-4827-a97c-9d8578a91768"},{"@id":"https://w3id.org/locolligo/BIFMO-post-1840/4e5baaf6-54fd-445d-bd77-e09a6c0e042c","properties":{"title":"Utting, Henry","address":"11, York Street, Chelsea, SW","active":1845,"notes":"*Name change to Hans Crescent "},"geometry":{"coordinates":[-0.162214,51.499672]},"uuid":"4e5baaf6-54fd-445d-bd77-e09a6c0e042c"},{"@id":"https://w3id.org/locolligo/BIFMO-post-1840/02bb4d9c-dfbe-438c-83a1-8531919c4ab3","properties":{"url":"https://bifmo.history.ac.uk/entry/montague-john-new-1871","title":"Montague , John New","address":"26, Wyndham Street, Bryanston sq, W","active":1871},"geometry":{"coordinates":[-0.162,51.520394]},"uuid":"02bb4d9c-dfbe-438c-83a1-8531919c4ab3"},{"@id":"https://w3id.org/locolligo/BIFMO-post-1840/18824777-27b2-4008-b74c-749191c64a44","properties":{"url":"https://bifmo.history.ac.uk/entry/keliher-michael-1871","title":"Keliher, Michael","address":"10 King's road, Pimlico","active":1871},"geometry":{"coordinates":[-0.161992,51.48606]},"uuid":"18824777-27b2-4008-b74c-749191c64a44"},{"@id":"https://w3id.org/locolligo/BIFMO-post-1840/df1a25a3-3781-486a-9a39-6cca056ff956","properties":{"url":"https://bifmo.history.ac.uk/entry/painter-george-co-1835","title":"Painter, George","address":"8 Wyndham pl. Bryanstn. sq","active":1845},"geometry":{"coordinates":[-0.16199,51.519528]},"uuid":"df1a25a3-3781-486a-9a39-6cca056ff956"},{"@id":"https://w3id.org/locolligo/BIFMO-post-1840/cfccfc82-258d-416b-918f-b8e0b654ac18","properties":{"url":"https://bifmo.history.ac.uk/entry/king-charles-1835-39","title":"King, Charles","address":"2 Brompton rd. Brompton","active":1845},"geometry":{"coordinates":[-0.161927,51.501194]},"uuid":"cfccfc82-258d-416b-918f-b8e0b654ac18"},{"@id":"https://w3id.org/locolligo/BIFMO-post-1840/c7245f15-5f5b-4b09-9a35-0a5cd6664e65","properties":{"url":"https://bifmo.history.ac.uk/entry/critchfield-henry-1871","title":"Critchfield , Henry","address":"43 King's rd. east, Chelsea","active":1871},"geometry":{"coordinates":[-0.161904,51.490274]},"uuid":"c7245f15-5f5b-4b09-9a35-0a5cd6664e65"},{"@id":"https://w3id.org/locolligo/BIFMO-post-1840/07bec53d-a00a-4e89-a42e-624d421a107a","properties":{"url":"https://bifmo.history.ac.uk/entry/pitman-co-pitman-cuthbertson-1871-1886","title":"Pitman , ","address":"38, Moore Street, Chelsea, SW","active":1871},"geometry":{"coordinates":[-0.161886,51.493833]},"uuid":"07bec53d-a00a-4e89-a42e-624d421a107a"},{"@id":"https://w3id.org/locolligo/BIFMO-post-1840/020c76e0-ea54-44b6-a5d1-d656a92696d9","properties":{"url":"https://bifmo.history.ac.uk/entry/fox-henry-h-1845","title":"Fox, Henry H.","address":"59 Seymour pl. Bryanston sq W","active":1845},"geometry":{"coordinates":[-0.16188,51.516279]},"uuid":"020c76e0-ea54-44b6-a5d1-d656a92696d9"},{"@id":"https://w3id.org/locolligo/BIFMO-post-1840/4dfaa2a9-3690-4de9-aa9f-256d440d68b0","properties":{"url":"https://bifmo.history.ac.uk/entry/dench-henry-1826-39","title":"Dench, Henry","address":"65 Seymour place","active":1845},"geometry":{"coordinates":[-0.161781,51.516381]},"uuid":"4dfaa2a9-3690-4de9-aa9f-256d440d68b0"},{"@id":"https://w3id.org/locolligo/BIFMO-post-1840/b201de6c-869c-482a-9564-9772dc9a6b9f","properties":{"url":"https://bifmo.history.ac.uk/entry/clark-francis-1871","title":"Clark, Francis","address":"10 Wyndham st. Bryanstn. Sq","active":1871},"geometry":{"coordinates":[-0.16178,51.520633]},"uuid":"b201de6c-869c-482a-9564-9772dc9a6b9f"},{"@id":"https://w3id.org/locolligo/BIFMO-post-1840/959262db-f7af-45c0-bf1a-ba06fe2685cf","properties":{"url":"https://bifmo.history.ac.uk/entry/butti-alex-1845","title":"Butti, Alex","address":"1 Davis pl. Marlbro' rd. Chels","active":1845,"notes":"Street lost, approximate location"},"geometry":{"coordinates":[-0.161776,51.491946]},"uuid":"959262db-f7af-45c0-bf1a-ba06fe2685cf"},{"@id":"https://w3id.org/locolligo/BIFMO-post-1840/648785fe-f72b-4972-bbb3-1b522286aa16","properties":{"url":"https://bifmo.history.ac.uk/entry/dench-william-1871","title":"Dench, Wm.","address":"58 Seymour place","active":1871},"geometry":{"coordinates":[-0.16175,51.516728]},"uuid":"648785fe-f72b-4972-bbb3-1b522286aa16"},{"@id":"https://w3id.org/locolligo/BIFMO-post-1840/22a3c3a7-28ec-4553-954e-bd08bf05c967","properties":{"url":"https://bifmo.history.ac.uk/entry/shuffrey-william-henry-1826-39","title":"Shuffrey, William Henry","address":"54 Seymour pl. Bryanst. Sq","active":1845},"geometry":{"coordinates":[-0.161744,51.516711]},"uuid":"22a3c3a7-28ec-4553-954e-bd08bf05c967"},{"@id":"https://w3id.org/locolligo/BIFMO-post-1840/e8f24c69-5c13-41d6-a88f-fa5947ff073b","properties":{"url":"https://bifmo.history.ac.uk/entry/fayrer-john-t-1826-39","title":"Fayrer, John","address":"52 Seymour pl. Bryanston sq","active":1845},"geometry":{"coordinates":[-0.161739,51.516702]},"uuid":"e8f24c69-5c13-41d6-a88f-fa5947ff073b"},{"@id":"https://w3id.org/locolligo/BIFMO-post-1840/5efb8e8f-08ba-4ecb-b0c8-d746d91255df","properties":{"url":"https://bifmo.history.ac.uk/entry/couty-david-jnr-1823-35","title":"Couty, D.","address":"3 Boston street, Dorset sq NW","active":1845,"notes":"Now 'Taunton Place'"},"geometry":{"coordinates":[-0.161687,51.525451]},"uuid":"5efb8e8f-08ba-4ecb-b0c8-d746d91255df"},{"@id":"https://w3id.org/locolligo/BIFMO-post-1840/22b10e67-dda0-4832-90c8-22e6b05c7d87","properties":{"title":"Smith, John James, jun.","address":"2, Boston Street, Park Road, NW","active":1871,"notes":"Now 'Taunton Place'"},"geometry":{"coordinates":[-0.161687,51.525451]},"uuid":"22b10e67-dda0-4832-90c8-22e6b05c7d87"},{"@id":"https://w3id.org/locolligo/BIFMO-post-1840/e1082aa6-9d53-4082-89c9-291b2bca6f5b","properties":{"url":"https://bifmo.history.ac.uk/entry/kedge-william-1845","title":"Kedge, William","address":"28, Upper Berkeley Street, W","active":1845},"geometry":{"coordinates":[-0.161615,51.515411]},"uuid":"e1082aa6-9d53-4082-89c9-291b2bca6f5b"},{"@id":"https://w3id.org/locolligo/BIFMO-post-1840/8b1c320b-1b73-4e1f-852a-d6a4b10a6cea","properties":{"url":"https://bifmo.history.ac.uk/entry/crowhurst-edwin-1871","title":"Crowhurst , Edwin","address":"32Milton st.Dorset sq NW","active":1871,"notes":"Street now known as Balcombe Street"},"geometry":{"coordinates":[-0.161335,51.52201]},"uuid":"8b1c320b-1b73-4e1f-852a-d6a4b10a6cea"},{"@id":"https://w3id.org/locolligo/BIFMO-post-1840/6de8060e-8f5f-4fe3-bb9f-ebd545a319cd","properties":{"url":"https://bifmo.history.ac.uk/entry/hodges-richard-1835-39","title":"Hodges, Richard","address":"68, Milton Street, Dorset Square, NW","active":1845,"notes":"Street now known as Balcombe Street"},"geometry":{"coordinates":[-0.161292,51.521863]},"uuid":"6de8060e-8f5f-4fe3-bb9f-ebd545a319cd"},{"@id":"https://w3id.org/locolligo/BIFMO-post-1840/91e4dc43-4572-4de1-af58-7fb1f707f732","properties":{"url":"https://bifmo.history.ac.uk/entry/shakespear-alfred-1871","title":"Shakespear, Alfd.","address":"7 Seymour pl. Brnst. Sq","active":1871},"geometry":{"coordinates":[-0.161218,51.514708]},"uuid":"91e4dc43-4572-4de1-af58-7fb1f707f732"},{"@id":"https://w3id.org/locolligo/BIFMO-post-1840/5d960f54-1e93-4c0b-8d68-3ea696c12ccc","properties":{"url":"https://bifmo.history.ac.uk/entry/terry-john-1871","title":"Terry , John","address":"7, Little Exeter Street, Chelsea, SW","active":1871,"notes":"Now Landon Place, generic coordinate for road"},"geometry":{"coordinates":[-0.161206,51.498953]},"uuid":"5d960f54-1e93-4c0b-8d68-3ea696c12ccc"},{"@id":"https://w3id.org/locolligo/BIFMO-post-1840/9f48f28c-6d02-4940-a253-f729ae9f7568","properties":{"url":"https://bifmo.history.ac.uk/entry/winks-joseph-woodward-1871","title":"Winks, Joseph Woodward","address":"24, Moore Street, Bryanston sq, W","active":1871,"notes":"Street lost, approximate location"},"geometry":{"coordinates":[-0.1612,51.517568]},"uuid":"9f48f28c-6d02-4940-a253-f729ae9f7568"},{"@id":"https://w3id.org/locolligo/BIFMO-post-1840/e0cb76db-45c9-462f-8894-026295934fe3","properties":{"url":"https://bifmo.history.ac.uk/entry/king-arthur-1845-1871","title":"King, Arthur","address":"16, Adam Street West, Bryanston sq, W","active":1845,"notes":"*Now 'Seymour Place'"},"geometry":{"coordinates":[-0.161181,51.514913]},"uuid":"e0cb76db-45c9-462f-8894-026295934fe3"},{"@id":"https://w3id.org/locolligo/BIFMO-post-1840/2840a672-ac9d-47b3-866e-cf7ec6e3e49f","properties":{"url":"https://bifmo.history.ac.uk/entry/deane-co-1850-1871","title":"Deane, ","address":"24 Seymour place","active":1871},"geometry":{"coordinates":[-0.161176,51.515095]},"uuid":"2840a672-ac9d-47b3-866e-cf7ec6e3e49f"},{"@id":"https://w3id.org/locolligo/BIFMO-post-1840/5f157a4a-7373-4e9d-af43-a5a5b5fdb99a","properties":{"url":"https://bifmo.history.ac.uk/entry/nicholson-william-1871","title":"Nichols, William","address":"25, Brompton Road, SW","active":1871},"geometry":{"coordinates":[-0.161099,51.501294]},"uuid":"5f157a4a-7373-4e9d-af43-a5a5b5fdb99a"},{"@id":"https://w3id.org/locolligo/BIFMO-post-1840/0ef5c092-c07e-4e2a-a15a-0a8d51361d7a","properties":{"url":"https://bifmo.history.ac.uk/entry/buckingham-george-1860-1871","title":"Buckingham , George","address":"48 Park st. Dorset sq","active":1871,"notes":"Street lost, approximate location"},"geometry":{"coordinates":[-0.161041,51.522571]},"uuid":"0ef5c092-c07e-4e2a-a15a-0a8d51361d7a"},{"@id":"https://w3id.org/locolligo/BIFMO-post-1840/b7df941f-3e8c-4b4a-9499-a47388a96178","properties":{"title":"Tappy , Albert","address":"29 Park st. Dorset sq NW","active":1871,"notes":"Street lost, approximate location"},"geometry":{"coordinates":[-0.161041,51.522571]},"uuid":"b7df941f-3e8c-4b4a-9499-a47388a96178"},{"@id":"https://w3id.org/locolligo/BIFMO-post-1840/7f427346-5115-40de-aa85-22ba907d9368","properties":{"url":"https://bifmo.history.ac.uk/entry/white-antony-1871","title":"White, Antony","address":"29 Park st. Dorset sq","active":1871,"notes":"Street lost, approximate location"},"geometry":{"coordinates":[-0.161041,51.522571]},"uuid":"7f427346-5115-40de-aa85-22ba907d9368"},{"@id":"https://w3id.org/locolligo/BIFMO-post-1840/a36f4640-0667-4e6b-80c8-4d7c0c56d498","properties":{"url":"https://bifmo.history.ac.uk/entry/leuty-john-austin-1845-1871","title":"Leuty, John Austin","address":"12 Adam st. west","active":1871,"notes":"*Now 'Seymour Place'"},"geometry":{"coordinates":[-0.160947,51.514773]},"uuid":"a36f4640-0667-4e6b-80c8-4d7c0c56d498"},{"@id":"https://w3id.org/locolligo/BIFMO-post-1840/fa144f3d-4ad8-4e03-a21a-b6b50a55b237","properties":{"url":"https://bifmo.history.ac.uk/entry/hyslop-joseph-1871","title":"Hyslop, Joseph","address":"21 Croydon st. Bryanston Sq","active":1871,"notes":"Street lost, approximate location"},"geometry":{"coordinates":[-0.160793,51.517994]},"uuid":"fa144f3d-4ad8-4e03-a21a-b6b50a55b237"},{"@id":"https://w3id.org/locolligo/BIFMO-post-1840/13eafb8b-34e8-433c-8542-590a145740a2","properties":{"url":"https://bifmo.history.ac.uk/entry/solomons-nathan-1871","title":"Solomons , Nathan","address":"1 Sloane st. Chelsea","active":1871},"geometry":{"coordinates":[-0.160517,51.501557]},"uuid":"13eafb8b-34e8-433c-8542-590a145740a2"},{"@id":"https://w3id.org/locolligo/BIFMO-post-1840/b464a939-9bb8-4e1f-a9f6-34bd0ffe5f4c","properties":{"url":"https://bifmo.history.ac.uk/entry/dolman-george-1824-39","title":"Dolman , Geo.","address":"3 Brompton road","active":1871},"geometry":{"coordinates":[-0.160486,51.501563]},"uuid":"b464a939-9bb8-4e1f-a9f6-34bd0ffe5f4c"},{"@id":"https://w3id.org/locolligo/BIFMO-post-1840/1e69e274-e4e0-419f-9536-8e50d5706e6f","properties":{"url":"https://bifmo.history.ac.uk/entry/mortimer-william-1871","title":"Mortimer, William","address":"1Gt.Quebec st.Montagu sqW","active":1871},"geometry":{"coordinates":[-0.160398,51.519416]},"uuid":"1e69e274-e4e0-419f-9536-8e50d5706e6f"},{"@id":"https://w3id.org/locolligo/BIFMO-post-1840/86a0d911-23d2-4020-b952-8731e9f430b6","properties":{"url":"https://bifmo.history.ac.uk/entry/watson-louisa-mrs-1871","title":"Watson, Louisa","address":"15 Gt. Quebec st. Montg.sq","active":1871},"geometry":{"coordinates":[-0.160398,51.519416]},"uuid":"86a0d911-23d2-4020-b952-8731e9f430b6"},{"@id":"https://w3id.org/locolligo/BIFMO-post-1840/58601370-d354-4611-83cf-36cddb348189","properties":{"url":"https://bifmo.history.ac.uk/entry/machen-henry-1845","title":"Machen, Henry","address":"3 Thornton pl. Prtmn. Sq","active":1845},"geometry":{"coordinates":[-0.160112,51.521094]},"uuid":"58601370-d354-4611-83cf-36cddb348189"},{"@id":"https://w3id.org/locolligo/BIFMO-post-1840/c0c548e4-af78-4400-bf81-1d64bb027963","properties":{"url":"https://bifmo.history.ac.uk/entry/bowden-george-1820-39","title":"Bowden, G.","address":"21 Crawford st. Portmn. Sq.; 23 Harcourt street, New road ","active":1871},"geometry":{"coordinates":[-0.159911,51.519977]},"uuid":"c0c548e4-af78-4400-bf81-1d64bb027963"},{"@id":"https://w3id.org/locolligo/BIFMO-post-1840/1180ffe8-9913-4674-b797-2ed70f8a1d8b","properties":{"url":"https://bifmo.history.ac.uk/entry/estcourt-williams-1871","title":"Estcourt, ","address":"22 Crawford st. Ptmn. Sq","active":1871},"geometry":{"coordinates":[-0.159911,51.519977]},"uuid":"1180ffe8-9913-4674-b797-2ed70f8a1d8b"},{"@id":"https://w3id.org/locolligo/BIFMO-post-1840/e7cb0f91-878f-46b3-be4f-6e5b1d7df19f","properties":{"url":"https://bifmo.history.ac.uk/entry/day-john-1871","title":"Day, John","address":"31 Sloane street, Chelsea SW","active":1871},"geometry":{"coordinates":[-0.159901,51.499431]},"uuid":"e7cb0f91-878f-46b3-be4f-6e5b1d7df19f"},{"@id":"https://w3id.org/locolligo/BIFMO-post-1840/0fcc2140-aa44-4017-9121-adebff896db9","properties":{"url":"https://bifmo.history.ac.uk/entry/morandi-joseph-1871","title":"Morandi, Joseph","address":"21, Crawford Street, Portman sq, W","active":1871},"geometry":{"coordinates":[-0.159893,51.520092]},"uuid":"0fcc2140-aa44-4017-9121-adebff896db9"},{"@id":"https://w3id.org/locolligo/BIFMO-post-1840/9e91ad4d-c46d-4eac-aace-4a5c767208e8","properties":{"url":"https://bifmo.history.ac.uk/entry/anderson-samuel-1872","title":"Anderson, Samuel","address":"25, New Street, Dorset sq, NW","active":1871,"notes":"New Street is now Melcombe Street (cf. Greenwood 1828)"},"geometry":{"coordinates":[-0.159849,51.523671]},"uuid":"9e91ad4d-c46d-4eac-aace-4a5c767208e8"},{"@id":"https://w3id.org/locolligo/BIFMO-post-1840/d79923b2-3b3e-47b8-be4a-0b235c7a38b2","properties":{"url":"https://bifmo.history.ac.uk/entry/bourlet-james-1871","title":"Bourlet , James","address":"30, Sloane Street, Chelsea, SW","active":1871},"geometry":{"coordinates":[-0.159814,51.499531]},"uuid":"d79923b2-3b3e-47b8-be4a-0b235c7a38b2"},{"@id":"https://w3id.org/locolligo/BIFMO-post-1840/2e35d724-ef03-4222-926c-7239adf31a66","properties":{"url":"https://bifmo.history.ac.uk/entry/dallas-john-1871","title":"Dallas, John","address":"40, Up. York Street, Bryanston sq, W","active":1871},"geometry":{"coordinates":[-0.159807,51.520639]},"uuid":"2e35d724-ef03-4222-926c-7239adf31a66"},{"@id":"https://w3id.org/locolligo/BIFMO-post-1840/fb2b5f72-2d00-4208-a233-d214a9e13375","properties":{"url":"https://bifmo.history.ac.uk/entry/dalton-thomas-1829-39","title":"Dalton, Thomas","address":"11, Leete Street, Chelsea, SW","active":1845,"notes":"Not on any maps, did a quick search and seems that Leete Street was previously South Street and now part of Cadogan Gardens, general coordinates for road"},"geometry":{"coordinates":[-0.159725,51.492153]},"uuid":"fb2b5f72-2d00-4208-a233-d214a9e13375"},{"@id":"https://w3id.org/locolligo/BIFMO-post-1840/f58547cb-9338-4274-8591-698e4e8e75b3","properties":{"title":"Watkins, Jas.","address":"110, Gloucester Road, NW","active":1845},"geometry":{"coordinates":[-0.159716,51.494137]},"uuid":"f58547cb-9338-4274-8591-698e4e8e75b3"},{"@id":"https://w3id.org/locolligo/BIFMO-post-1840/523bd0d3-128d-4977-af9e-7c6ba37a1d37","properties":{"url":"https://bifmo.history.ac.uk/entry/bateman-john-1839","title":"Bateman, John","address":"111, Crawford Street, W","active":1845},"geometry":{"coordinates":[-0.159706,51.519904]},"uuid":"523bd0d3-128d-4977-af9e-7c6ba37a1d37"},{"@id":"https://w3id.org/locolligo/BIFMO-post-1840/91c6ad7a-886b-4ad2-a499-84ed99cd62b6","properties":{"title":"Spokes, Joseph","address":"34 Sloane street","active":1871},"geometry":{"coordinates":[-0.15956,51.499293]},"uuid":"91c6ad7a-886b-4ad2-a499-84ed99cd62b6"},{"@id":"https://w3id.org/locolligo/BIFMO-post-1840/ee07a6af-1d53-4cd1-926a-963198de4b63","properties":{"url":"https://bifmo.history.ac.uk/entry/hay-george-1871","title":"Hay, Geo.","address":"5 Gloucester pl. Chelsea","active":1871},"geometry":{"coordinates":[-0.159482,51.499942]},"uuid":"ee07a6af-1d53-4cd1-926a-963198de4b63"},{"@id":"https://w3id.org/locolligo/BIFMO-post-1840/cb14ddd6-3b67-4dfe-9fe5-2feb30ca1851","properties":{"url":"https://bifmo.history.ac.uk/entry/buckingham-henry-1827-39","title":"Buckingham, H.","address":"24 New st. Dorset sq NW","active":1845,"notes":"New Street is now Melcombe Street (cf. Greenwood 1828)"},"geometry":{"coordinates":[-0.159406,51.522797]},"uuid":"cb14ddd6-3b67-4dfe-9fe5-2feb30ca1851"},{"@id":"https://w3id.org/locolligo/BIFMO-post-1840/869fa7d2-942d-444b-b956-4d38ac20793d","properties":{"url":"https://bifmo.history.ac.uk/entry/ayerst-francis-co-1871","title":"Ayerst, Francis","address":"38, Up. York Street, Bryanstn. Sqaure, W","active":1871},"geometry":{"coordinates":[-0.159353,51.520657]},"uuid":"869fa7d2-942d-444b-b956-4d38ac20793d"},{"@id":"https://w3id.org/locolligo/BIFMO-post-1840/f0ae6220-1e92-4242-855a-99a297c536b8","properties":{"title":"Williams, James","address":"166 Sloane street SW","active":1871},"geometry":{"coordinates":[-0.159238,51.498884]},"uuid":"f0ae6220-1e92-4242-855a-99a297c536b8"},{"@id":"https://w3id.org/locolligo/BIFMO-post-1840/1da1dabe-8dc6-4fed-9206-4ab26b1eda0b","properties":{"url":"https://bifmo.history.ac.uk/entry/brooker-or-brocker-john-1820-39","title":"Brooker, John","address":"14, Charles Street, Knightsbridge, SW","active":1845,"notes":"Street now known as Seville Street"},"geometry":{"coordinates":[-0.159189,51.501872]},"uuid":"1da1dabe-8dc6-4fed-9206-4ab26b1eda0b"},{"@id":"https://w3id.org/locolligo/BIFMO-post-1840/9a649be0-9ce7-4acd-a396-3b97e920b788","properties":{"url":"https://bifmo.history.ac.uk/entry/hobbs-william-1871","title":"Hobbs, William","address":"25 King's rd. ea. Chelsea","active":1871},"geometry":{"coordinates":[-0.159007,51.491854]},"uuid":"9a649be0-9ce7-4acd-a396-3b97e920b788"},{"@id":"https://w3id.org/locolligo/BIFMO-post-1840/0b85bc31-d408-4595-b554-0a661e3b5b93","properties":{"url":"https://bifmo.history.ac.uk/entry/pateman-joseph-1845","title":"Pateman, Joseph","address":"7 Park ter. Regent's pk","active":1845,"notes":"Street now known as Park Road"},"geometry":{"coordinates":[-0.15878,51.524195]},"uuid":"0b85bc31-d408-4595-b554-0a661e3b5b93"},